state_name,state_alpha,place,lon,lat
Alabama,AL,Abanda,-85.52526609977299,33.09262691764956
Alabama,AL,Abbeville,-85.2527640654771,31.566423388963457
Alabama,AL,Adamsville,-86.97467978778523,33.60633123093741
Alabama,AL,Addison,-87.17648832886607,34.201742417522524
Alabama,AL,Akron,-87.74287014105005,32.87853439154098
Alabama,AL,Alabaster,-86.82446382990699,33.21947683012074
Alabama,AL,Albertville,-86.21070417340795,34.2633974070135
Alabama,AL,Alexander City,-85.93974850904968,32.93030051487614
Alabama,AL,Alexandria,-85.8792425996826,33.76747748793456
Alabama,AL,Aliceville,-88.15938295766337,33.12366605386644
Alabama,AL,Allgood,-86.51781707887865,33.906391136455944
Alabama,AL,Altoona,-86.318073835826425,34.03098624533556
Alabama,AL,Andalusia,-86.47808332752602,31.310142890412973
Alabama,AL,Anderson,-87.27160325496334,34.914693743173586
Alabama,AL,Anniston,-85.81356921619759,33.671242835407206
Alabama,AL,Arab,-86.49909214805717,34.33095596714918
Alabama,AL,Ardmore,-86.83730848659448,34.98467439674515
Alabama,AL,Argo,-86.50511827456111,33.690168548976594
Alabama,AL,Ariton,-85.71279368050125,31.59799937700603
Alabama,AL,Arley,-87.2077503395816,34.088855208142384
Alabama,AL,Ashford,-85.23588933448498,31.18578351856585
Alabama,AL,Ashland,-85.83371446341826,33.27037675934194
Alabama,AL,Ashville,-86.2697602271399,33.833110202977295
Alabama,AL,Athens,-86.95096679084064,34.78470223926703
Alabama,AL,Atmore,-87.46344156204749,31.140246331958377
Alabama,AL,Attalla,-86.10399977500208,34.00477234264209
Alabama,AL,Auburn,-85.48774971840048,32.608975805284835
Alabama,AL,Autaugaville,-86.65785050464855,32.432036976349885
Alabama,AL,Avon,-85.28021131323138,31.179942299810328
Alabama,AL,Axis,-88.01794077285354,30.929617047323255
Alabama,AL,Babbie,-86.32291952554606,31.30221348088838
Alabama,AL,Baileyton,-86.6082186079624,34.26085322477449
Alabama,AL,Bakerhill,-85.29548922261024,31.77688987618383
Alabama,AL,Ballplay,-85.78526947031396,34.01786224151606
Alabama,AL,Banks,-85.83641150850532,31.813245164065364
Alabama,AL,Bay Minette,-87.77867284036856,30.879410240102498
Alabama,AL,Bayou La Batre,-88.26133573804795,30.413615960004623
Alabama,AL,Bear Creek,-87.71662658304898,34.26500335635744
Alabama,AL,Beatrice,-87.2089955410629,31.7332077228808
Alabama,AL,Beaverton,-88.0217725821443,33.935412942336114
Alabama,AL,Belgreen,-87.86530447419267,34.47668112330405
Alabama,AL,Belk,-87.92861434085745,33.65163874217637
Alabama,AL,Bellamy,-88.12768278541976,32.458177711155095
Alabama,AL,Belle Fontaine,-88.11310668039562,30.492047073070125
Alabama,AL,Benton,-86.81802062437563,32.30778227381956
Alabama,AL,Berlin,-86.74417721514794,34.18683547014693
Alabama,AL,Berry,-87.60789797525595,33.66228026922058
Alabama,AL,Bessemer,-86.97143043017041,33.37138931916493
Alabama,AL,Billingsley,-86.70867301916978,32.66098989480791
Alabama,AL,Birmingham,-86.7985086540156,33.52807326907371
Alabama,AL,Black,-85.74278522041254,31.010181973089843
Alabama,AL,Blountsville,-86.58674601290855,34.08138169433186
Alabama,AL,Blue Ridge,-86.18388485966487,32.50102161191556
Alabama,AL,Blue Springs,-85.50354261690639,31.66350832144916
Alabama,AL,Boaz,-86.15243614571858,34.19922071228427
Alabama,AL,Boligee,-88.02638565495273,32.76988443981788
Alabama,AL,Bon Air,-86.33186565428869,33.26207997894915
Alabama,AL,Bon Secour,-87.72713898494969,30.322236213147637
Alabama,AL,Boykin,-87.29143846283226,32.070127424632204
Alabama,AL,Brantley,-86.25691069223097,31.58224549236618
Alabama,AL,Brantleyville,-86.88202106292759,33.219568099331255
Alabama,AL,Brent,-87.17528922738359,32.9420557008863
Alabama,AL,Brewton,-87.07466611999166,31.117747649601192
Alabama,AL,Bridgeport,-85.72433777923236,34.94952490083651
Alabama,AL,Brighton,-86.94535297371817,33.43926932651183
Alabama,AL,Brilliant,-87.76943759772871,34.02513617360267
Alabama,AL,Bristow Cove,-86.24095834784114,34.10921228440036
Alabama,AL,Brook Highland,-86.68491162834349,33.435926598582576
Alabama,AL,Brookside,-86.9013658428993,33.63797891843772
Alabama,AL,Brookwood,-87.32759262772002,33.239759301554365
Alabama,AL,Broomtown,-85.53215870118177,34.365705952945184
Alabama,AL,Brundidge,-85.81774396008068,31.71824002939604
Alabama,AL,Bucks,-88.0249161806974,31.016979305067043
Alabama,AL,Butler,-88.21078437890036,32.09646796747933
Alabama,AL,Calera,-86.74505659509238,33.12511961081099
Alabama,AL,Calvert,-88.0169277333699,31.15396693854723
Alabama,AL,Camden,-87.29670545825351,32.00068995162579
Alabama,AL,Camp Hill,-85.6536482561916,32.800227766136764
Alabama,AL,Carbon Hill,-87.52419471669982,33.896227560255504
Alabama,AL,Cardiff,-86.93066085695446,33.647209685193275
Alabama,AL,Carlisle-Rockledge,-86.11909740109559,34.11403259757652
Alabama,AL,Carlton,-87.83779696770641,31.343029480950722
Alabama,AL,Carolina,-86.52267883123173,31.233706193415955
Alabama,AL,Carrollton,-88.09507846208861,33.26190893405769
Alabama,AL,Castleberry,-87.02695066467231,31.300126147341402
Alabama,AL,Catherine,-87.46992648591018,32.18608978938134
Alabama,AL,Cedar Bluff,-85.58773314801584,34.22006455554855
Alabama,AL,Center Point,-86.68351001193392,33.64306363080483
Alabama,AL,Centre,-85.66967208268807,34.154952112815046
Alabama,AL,Centreville,-87.13336799946008,32.95983735405997
Alabama,AL,Chatom,-88.24598968042423,31.46913204284498
Alabama,AL,Chelsea,-86.61756682681008,33.334907669733916
Alabama,AL,Cherokee,-87.96703126705373,34.75774862745462
Alabama,AL,Chickasaw,-88.07927524783476,30.771438943551008
Alabama,AL,Childersburg,-86.35171742429841,33.27919459359251
Alabama,AL,Choccolocco,-85.71293142191514,33.66832475368748
Alabama,AL,Chunchula,-88.20718248521796,30.92369298534096
Alabama,AL,Citronelle,-88.246950975952,31.095095154624456
Alabama,AL,Clanton,-86.62297940650905,32.84396906080107
Alabama,AL,Clay,-86.60701788061193,33.69763183340958
Alabama,AL,Clayhatchee,-85.71360609093652,31.243429415216667
Alabama,AL,Clayton,-85.46044000121243,31.882248454153824
Alabama,AL,Cleveland,-86.56708747408902,33.99646022320763
Alabama,AL,Clio,-85.61088998745964,31.70852120781456
Alabama,AL,Coaling,-87.35394557543295,33.163857678388325
Alabama,AL,Coats Bend,-85.87421630131519,34.077381494135885
Alabama,AL,Coffee Springs,-85.91023943349181,31.166402935805884
Alabama,AL,Coffeeville,-88.0860500913411,31.766573804113776
Alabama,AL,Coker,-87.67994954759754,33.2445858748715
Alabama,AL,Collinsville,-85.86517587039685,34.26701410728958
Alabama,AL,Colony,-86.89493291800132,33.94498246764723
Alabama,AL,Columbia,-85.11028333109547,31.29684010318887
Alabama,AL,Columbiana,-86.61195442258807,33.1929140407162
Alabama,AL,Concord,-87.03915141397555,33.467404585192284
Alabama,AL,Coosada,-86.32789586518251,32.49833661230158
Alabama,AL,Cordova,-87.1925367043488,33.76129542713537
Alabama,AL,Cottondale,-87.45124189976904,33.19907140284187
Alabama,AL,Cottonwood,-85.30074220577562,31.0552373292285
Alabama,AL,County Line,-86.71940724802971,33.820620476283004
Alabama,AL,Courtland,-87.3261927840374,34.67034915728743
Alabama,AL,Cowarts,-85.30618591410678,31.20406628015519
Alabama,AL,Creola,-88.00998468482695,30.890256285052537
Alabama,AL,Crossville,-85.99966590530306,34.285261622520466
Alabama,AL,Cuba,-88.3755462950207,32.44100718673112
Alabama,AL,Cullman,-86.84019466841048,34.17832238585056
Alabama,AL,Cullomburg,-88.29171263753867,31.7130711744732
Alabama,AL,Cusseta,-85.30574776111096,32.78765208056711
Alabama,AL,Dadeville,-85.76750273519491,32.832606099738676
Alabama,AL,Daleville,-85.71347804290886,31.289769679513427
Alabama,AL,Daphne,-87.88635665130923,30.62842680695185
Alabama,AL,Dauphin Island,-88.14380745672426,30.252527919933602
Alabama,AL,Daviston,-85.63714302170162,33.05564681183494
Alabama,AL,Dayton,-87.64156922784892,32.3509363245794
Alabama,AL,Deatsville,-86.39178103207595,32.58630520237249
Alabama,AL,Decatur,-86.99019988243083,34.57278715541207
Alabama,AL,Deer Park,-88.32256689873049,31.219817067269176
Alabama,AL,Delta,-85.67460399712161,33.447025679332604
Alabama,AL,Demopolis,-87.82980027022515,32.49802927067303
Alabama,AL,Detroit,-88.16782043828181,34.02738277333095
Alabama,AL,Dodge City,-86.88367054632684,34.04526249093548
Alabama,AL,Dora,-87.08495473461566,33.72920794360947
Alabama,AL,Dothan,-85.4069167967258,31.23354195583977
Alabama,AL,Double Springs,-87.40373234346978,34.149102926569455
Alabama,AL,Douglas,-86.32240318814773,34.170473814064145
Alabama,AL,Dozier,-86.36939396207508,31.50310198716608
Alabama,AL,Dunnavant,-86.53803062012369,33.50055542152467
Alabama,AL,Dutton,-85.91185696272291,34.6061805418823
Alabama,AL,East Brewton,-87.0555897698128,31.090555035985236
Alabama,AL,East Point,-86.79265335427473,34.18590941049004
Alabama,AL,Eclectic,-86.03501198201509,32.63492197671852
Alabama,AL,Edgewater,-86.95742446661406,33.52862100964452
Alabama,AL,Edwardsville,-85.45030942098909,33.86126478552035
Alabama,AL,Egypt,-86.16505629967327,34.07593889035876
Alabama,AL,Elba,-86.07592852568762,31.41721762894136
Alabama,AL,Elberta,-87.59396507265465,30.381554726120655
Alabama,AL,Eldridge,-87.62014083095602,33.92198797231174
Alabama,AL,Elkmont,-86.9764972622704,34.9288941083904
Alabama,AL,Elmore,-86.34261331391653,32.55512796388894
Alabama,AL,Emelle,-88.31645843677579,32.72870527141522
Alabama,AL,Emerald Mountain,-86.08572805022752,32.439616563335505
Alabama,AL,Enterprise,-85.84587513411373,31.327565265748106
Alabama,AL,Epes,-88.1405488605046,32.69058867035909
Alabama,AL,Ethelsville,-88.21609933994124,33.41406465836878
Alabama,AL,Eufaula,-85.15049861627087,31.910224178601144
Alabama,AL,Eunola,-85.84089065432293,31.032591433261967
Alabama,AL,Eutaw,-87.89865843125284,32.84359458823949
Alabama,AL,Eva,-86.76144689189431,34.327358270283405
Alabama,AL,Evergreen,-86.97228281326352,31.434199981114315
Alabama,AL,Excel,-87.34333038623349,31.426367123123264
Alabama,AL,Fairfield,-86.91938321314616,33.47466992518627
Alabama,AL,Fairford,-88.0727792781322,31.178035990054042
Alabama,AL,Fairhope,-87.88301095898908,30.52726457838428
Alabama,AL,Fairview,-86.68428349040092,34.24770292085058
Alabama,AL,Falkville,-86.90865444699986,34.37939982661857
Alabama,AL,Faunsdale,-87.59380167608744,32.45762237690006
Alabama,AL,Fayette,-87.83072034731619,33.69430093794414
Alabama,AL,Fayetteville,-86.44114679226209,33.1642664384254
Alabama,AL,Fitzpatrick,-85.87839284818891,32.21133940908795
Alabama,AL,Five Points,-85.35159610270046,33.01730342735875
Alabama,AL,Flomaton,-87.25412109810422,31.01273250453694
Alabama,AL,Florala,-86.31378933037196,31.01762179143201
Alabama,AL,Florence,-87.66541595105537,34.83030654666646
Alabama,AL,Foley,-87.66291377124969,30.39917638122395
Alabama,AL,Forestdale,-86.89959623170091,33.57331798749208
Alabama,AL,Forkland,-87.86711873253171,32.64890857004362
Alabama,AL,Fort Deposit,-86.56640613516628,31.986260033333156
Alabama,AL,Fort Payne,-85.6962779173918,34.45537823544108
Alabama,AL,Fort Rucker,-85.71543015130999,31.342846029909662
Alabama,AL,Franklin,-85.78625826073525,32.45134562851831
Alabama,AL,Fredonia,-85.29121090336676,32.986115129439874
Alabama,AL,Frisco City,-87.40369703084119,31.435276798535515
Alabama,AL,Fruitdale,-88.4108631352479,31.34286934657859
Alabama,AL,Fruithurst,-85.43115612156528,33.72966245722388
Alabama,AL,Fulton,-87.73970209438858,31.79161004137743
Alabama,AL,Fultondale,-86.80153531350061,33.61765847375398
Alabama,AL,Fyffe,-85.90493631631688,34.44957669181486
Alabama,AL,Gadsden,-86.01556120336379,34.00899976283593
Alabama,AL,Gainesville,-88.16081414019457,32.81491289415699
Alabama,AL,Gallant,-86.23038822386906,34.001292554732345
Alabama,AL,Gantt,-86.48417770710823,31.409248414398633
Alabama,AL,Garden City,-86.75204690600218,34.015229300603224
Alabama,AL,Gardendale,-86.8054639839635,33.66254433714447
Alabama,AL,Gaylesville,-85.55855700602223,34.26806448038701
Alabama,AL,Geiger,-88.31297461970753,32.86975858619546
Alabama,AL,Geneva,-85.87634617822597,31.043669064492065
Alabama,AL,Georgiana,-86.74675941389867,31.639136984304795
Alabama,AL,Geraldine,-86.00369036914861,34.357730898208516
Alabama,AL,Gilbertown,-88.31952333819889,31.875812914527828
Alabama,AL,Glen Allen,-87.73283458458735,33.8921585711708
Alabama,AL,Glencoe,-85.93192554419969,33.94489059733399
Alabama,AL,Glenwood,-86.1729788268658,31.66752044027259
Alabama,AL,Goldville,-85.78312502501338,33.084122800415706
Alabama,AL,Good Hope,-86.8651039335689,34.10976739805298
Alabama,AL,Goodwater,-86.05164055302095,33.06081397930124
Alabama,AL,Gordo,-87.90400751690039,33.32204098121374
Alabama,AL,Gordon,-85.0921447089907,31.143258865452008
Alabama,AL,Gordonville,-86.71157543225718,32.153112966254284
Alabama,AL,Goshen,-86.12423603383938,31.718219267422025
Alabama,AL,Graham,-85.32305111954116,33.455177762580405
Alabama,AL,Grand Bay,-88.34502616918587,30.47166094555033
Alabama,AL,Grant,-86.24918248538694,34.51893496801786
Alabama,AL,Grayson Valley,-86.64144432037371,33.64687004143356
Alabama,AL,Graysville,-86.96746813563686,33.65836182333594
Alabama,AL,Greensboro,-87.59504195088763,32.70142875267988
Alabama,AL,Greenville,-86.637928632203,31.84365927943335
Alabama,AL,Grimes,-85.45024308038252,31.299915045460782
Alabama,AL,Grove Hill,-87.77484519309348,31.70058604660931
Alabama,AL,Gu-Win,-87.87040829585993,33.944284047586464
Alabama,AL,Guin,-87.90599291913992,33.98177229224615
Alabama,AL,Gulf Shores,-87.70102840731657,30.27564129582489
Alabama,AL,Gulfcrest,-88.2398998077411,30.992477937798537
Alabama,AL,Guntersville,-86.26381207610449,34.36691234794104
Alabama,AL,Gurley,-86.37681405259309,34.707170909653044
Alabama,AL,Hackleburg,-87.83031821005291,34.26934018225728
Alabama,AL,Hackneyville,-85.93121834849832,33.056689622767294
Alabama,AL,Haleburg,-85.1380579238296,31.409933971220006
Alabama,AL,Haleyville,-87.61736197832731,34.23573106571633
Alabama,AL,Hamilton,-87.97547758494497,34.13456928588775
Alabama,AL,Hammondville,-85.63969163129731,34.56851613592714
Alabama,AL,Hanceville,-86.76582615195964,34.06389662601639
Alabama,AL,Harpersville,-86.42726192517512,33.31768740154937
Alabama,AL,Hartford,-85.69157709802985,31.105501887446778
Alabama,AL,Hartselle,-86.94002587559775,34.43905803707395
Alabama,AL,Harvest,-86.75206130517017,34.8558128370771
Alabama,AL,Hatton,-87.4135815169057,34.56104649644749
Alabama,AL,Hayden,-86.764564008312135,33.88954747459461
Alabama,AL,Hayneville,-86.57871498851883,32.18215261283155
Alabama,AL,Hazel Green,-86.56708237162847,34.92367414397633
Alabama,AL,Headland,-85.352252723055,31.350093117442704
Alabama,AL,Heath,-86.46725051211605,31.35789188790435
Alabama,AL,Heflin,-85.56984165613758,33.64708875963495
Alabama,AL,Helena,-86.87324714137718,33.28499570747608
Alabama,AL,Henagar,-85.74048401279904,34.631008348367935
Alabama,AL,Highland Lake,-86.42444109216363,33.887570913033244
Alabama,AL,Highland Lakes,-86.64970855634473,33.39695666028825
Alabama,AL,Hillsboro,-87.18374645772856,34.64077136389189
Alabama,AL,Hissop,-86.11593684246323,32.87457584983061
Alabama,AL,Hobson,-88.15130286434932,31.48358062423434
Alabama,AL,Hobson City,-85.85123902789007,33.61778160618029
Alabama,AL,Hodges,-87.92985467305752,34.33395240240976
Alabama,AL,Hokes Bluff,-85.86397750264437,33.99057604942045
Alabama,AL,Hollins,-86.12902091704169,33.12134747372743
Alabama,AL,Hollis Crossroads,-85.64374762911012,33.52313579553929
Alabama,AL,Holly Pond,-86.61254046982947,34.16961433580257
Alabama,AL,Hollywood,-85.96498691231744,34.71898465672975
Alabama,AL,Holt,-87.48254054512553,33.23019148945175
Alabama,AL,Holtville,-86.32683914515566,32.631393080330206
Alabama,AL,Homewood,-86.8092087616563,33.461711990666274
Alabama,AL,Hoover,-86.82671235311575,33.367923901428846
Alabama,AL,Horn Hill,-86.32112100772545,31.238223985308654
Alabama,AL,Hueytown,-87.02203244240646,33.423710492627215
Alabama,AL,Huguley,-85.23966691677181,32.84305502427025
Alabama,AL,Huntsville,-86.64128438179765,34.698844745776974
Alabama,AL,Hurtsboro,-85.41467189162236,32.240078138445924
Alabama,AL,Hytop,-86.08794610244814,34.89675124404707
Alabama,AL,Ider,-85.66907771933207,34.70216837275959
Alabama,AL,Indian Springs Village,-86.752404973955,33.35746227795162
Alabama,AL,Irondale,-86.6714030792387,33.536411352266875
Alabama,AL,Ivalee,-86.14715282928877,34.03720834770997
Alabama,AL,Jackson,-87.8914910552268,31.531766981439684
Alabama,AL,Jacksons' Gap,-85.8150483797486,32.88307811472603
Alabama,AL,Jacksonville,-85.75452977678619,33.8088177442638
Alabama,AL,Jasper,-87.27084759816084,33.850314769181566
Alabama,AL,Jemison,-86.73390693125901,32.96956447618676
Alabama,AL,Joppa,-86.55063539347779,34.29815787506823
Alabama,AL,Kansas,-87.55675966419692,33.90289385732975
Alabama,AL,Kellyton,-86.03581590198002,32.97905083523431
Alabama,AL,Kennedy,-87.9861565339274,33.58090303688343
Alabama,AL,Killen,-87.52693003790232,34.8607262652015
Alabama,AL,Kimberly,-86.80943295501714,33.7720649448918
Alabama,AL,Kinsey,-85.3353058697165,31.29261245569004
Alabama,AL,Kinston,-86.17045068678281,31.219952445747012
Alabama,AL,La Fayette,-85.4006732504312,32.89967951394503
Alabama,AL,Ladonia,-85.08770740814674,32.46091315330075
Alabama,AL,Lake View,-87.1387647805468,33.28167311499274
Alabama,AL,Lakeview,-85.97607527523046,34.39097795498118
Alabama,AL,Lanett,-85.20625737854299,32.85458969991889
Alabama,AL,Langston,-86.08987702443184,34.53742493941932
Alabama,AL,Leeds,-86.56374027381771,33.54250686146083
Alabama,AL,Leesburg,-85.77496735866852,34.183854787991876
Alabama,AL,Leighton,-87.52821560588389,34.69410442295817
Alabama,AL,Leroy,-87.96899736094495,31.495195253310364
Alabama,AL,Lester,-87.15152073740853,34.98772487648873
Alabama,AL,Level Plains,-85.7686942863181,31.307079063470777
Alabama,AL,Lexington,-87.37351449091159,34.96522377809292
Alabama,AL,Libertyville,-86.4600095140997,31.242790262622396
Alabama,AL,Lillian,-87.43203333387984,30.41222626468168
Alabama,AL,Lincoln,-86.13735467199488,33.592845966742686
Alabama,AL,Linden,-87.79259225372776,32.30008928880598
Alabama,AL,Lineville,-85.7508395167147,33.31296230278193
Alabama,AL,Lipscomb,-86.9259797908309,33.42612058735898
Alabama,AL,Lisman,-88.30017258088421,32.17916012789392
Alabama,AL,Littleville,-87.6719302934513,34.595073239044055
Alabama,AL,Livingston,-88.18908100055633,32.5981965266781
Alabama,AL,Loachapoka,-85.5947812159566,32.604881077044915
Alabama,AL,Lockhart,-86.3505114979913,31.0127508365327
Alabama,AL,Locust Fork,-86.62796285316006,33.90192782658383
Alabama,AL,Lookout Mountain,-85.95852519207419,34.109143284585805
Alabama,AL,Louisville,-85.55834379347233,31.781044402727982
Alabama,AL,Lowndesboro,-86.6108388846682,32.27642505725627
Alabama,AL,Loxley,-87.75203806440236,30.682960896177306
Alabama,AL,Luverne,-86.26866002905463,31.718633478533192
Alabama,AL,Lynn,-87.55547327824023,34.05480239488898
Alabama,AL,Macedonia,-88.2392331680182,33.40313582199359
Alabama,AL,Madison,-86.7625596631225,34.711342771652475
Alabama,AL,Madrid,-85.39923774843064,31.035636158780743
Alabama,AL,Magnolia Springs,-87.7748315765675,30.400320200801904
Alabama,AL,Malcolm,-88.00155357166695,31.19454892601255
Alabama,AL,Malvern,-85.52096328396708,31.142809652484015
Alabama,AL,Maplesville,-86.878302932441,32.78671533611279
Alabama,AL,Marbury,-86.46066598430986,32.679311559639295
Alabama,AL,Margaret,-86.46800035118997,33.673457048964146
Alabama,AL,Marion,-87.31717985296473,32.6318123079601
Alabama,AL,Maytown,-86.99987629388272,33.54893474309942
Alabama,AL,McDonald Chapel,-86.93845428663234,33.5188816412158
Alabama,AL,McIntosh,-88.02836946158538,31.264934922288226
Alabama,AL,McKenzie,-86.7245960030207,31.54284654807954
Alabama,AL,McMullen,-88.17574674068324,33.14811448185397
Alabama,AL,Meadowbrook,-86.704112052205,33.393211909298344
Alabama,AL,Megargel,-87.43068288244854,31.378128370442536
Alabama,AL,Memphis,-88.30082683972952,33.13688551531424
Alabama,AL,Mentone,-85.58423118683599,34.566298848049016
Alabama,AL,Meridianville,-86.57222363547672,34.87293746868134
Alabama,AL,Midfield,-86.922633081623,33.455215372574024
Alabama,AL,Midland City,-85.49369102458972,31.315711289923208
Alabama,AL,Midway,-85.52441291420973,32.076401761961115
Alabama,AL,Mignon,-86.26510757965767,33.19483541550121
Alabama,AL,Millbrook,-86.37366112082843,32.50214625970421
Alabama,AL,Millerville,-85.9302688935318,33.19262570381732
Alabama,AL,Millport,-88.08169123676352,33.55857097622404
Alabama,AL,Millry,-88.31908523487549,31.625595195645552
Alabama,AL,Minor,-86.94024169524353,33.53894797018319
Alabama,AL,Mobile,-88.11623602771448,30.67817719368951
Alabama,AL,Monroeville,-87.32791111166641,31.5161823940682
Alabama,AL,Montevallo,-86.84751617780563,33.124703971902896
Alabama,AL,Montgomery,-86.2685697079155,32.347661407799066
Alabama,AL,Moody,-86.49676517932564,33.598316911382994
Alabama,AL,Moores Mill,-86.52215797490622,34.84908694083066
Alabama,AL,Mooresville,-86.87989458493857,34.627000612354735
Alabama,AL,Morris,-86.80373641119515,33.746694166390355
Alabama,AL,Morrison Crossroads,-85.49025520077646,33.419768394978774
Alabama,AL,Mosses,-86.68881241915935,32.18014418016707
Alabama,AL,Moulton,-87.28307818943242,34.48434565600998
Alabama,AL,Moundville,-87.62721913451581,32.99684324300168
Alabama,AL,Mount Olive,-86.1333761908409,33.07641488230437
Alabama,AL,Mount Olive,-86.87256086979772,33.67778032515619
Alabama,AL,Mount Vernon,-88.0137107670561,31.088315396797437
Alabama,AL,Mountain Brook,-86.74021942443433,33.48720824295949
Alabama,AL,Movico,-88.02661482679471,31.06275303768543
Alabama,AL,Mulga,-86.9734313273377,33.55333394286143
Alabama,AL,Munford,-85.95474214861862,33.526392090403995
Alabama,AL,Muscle Shoals,-87.63471522232592,34.744577276250006
Alabama,AL,Myrtlewood,-87.94923201717306,32.25209220329089
Alabama,AL,Nanafalia,-87.99574927133362,32.11135417601391
Alabama,AL,Nances Creek,-85.67327775910904,33.858801520128374
Alabama,AL,Napier Field,-85.45492133984862,31.314891056508362
Alabama,AL,Natural Bridge,-87.60140895059384,34.09035664269202
Alabama,AL,Nauvoo,-87.48758042054013,33.98733412383677
Alabama,AL,Nectar,-86.6339495787542,33.96837099940746
Alabama,AL,Needham,-88.33655837142076,31.986996950978906
Alabama,AL,New Brockton,-85.92279674878156,31.378425060787528
Alabama,AL,New Hope,-86.41281664890948,34.53702078106429
Alabama,AL,New Market,-86.42263101268345,34.88923056053597
Alabama,AL,New Site,-85.78008972186873,33.028299536305745
Alabama,AL,New Union,-86.22183552007732,34.14224718476437
Alabama,AL,Newbern,-87.53314895207635,32.5919565063016
Alabama,AL,Newton,-85.58934284282871,31.342285934927702
Alabama,AL,Newville,-85.33667691972772,31.42061463520363
Alabama,AL,North Courtland,-87.3083383391588,34.678816320809524
Alabama,AL,North Johns,-87.10081996736514,33.36803896716462
Alabama,AL,Northport,-87.59846397758358,33.25885130128109
Alabama,AL,Notasulga,-85.66954128687266,32.55694340132514
Alabama,AL,Oak Grove,-86.30116495523187,33.18797815234342
Alabama,AL,Oak Hill,-87.0852283018154,31.921629512474976
Alabama,AL,Oakman,-87.38903502127987,33.71412755270182
Alabama,AL,Odenville,-86.41472266745964,33.671450383408256
Alabama,AL,Ohatchee,-86.02687472247798,33.78842074850671
Alabama,AL,Oneonta,-86.49296063895711,33.939185894570684
Alabama,AL,Onycha,-86.27852319175277,31.22459593384835
Alabama,AL,Opelika,-85.37676650470779,32.660633223470725
Alabama,AL,Opp,-86.2569939007842,31.284809049803123
Alabama,AL,Orange Beach,-87.59319630839416,30.287238718075564
Alabama,AL,Orrville,-87.24541221528128,32.30677064711063
Alabama,AL,Our Town,-85.96870650376596,32.83043929269054
Alabama,AL,Owens Cross Roads,-86.45255248526813,34.587924551246296
Alabama,AL,Oxford,-85.8693833700636,33.596624670289046
Alabama,AL,Ozark,-85.64728205052533,31.450777174107237
Alabama,AL,Paint Rock,-86.33067175733864,34.66020316048637
Alabama,AL,Panola,-88.26741550640416,32.94778691215079
Alabama,AL,Parrish,-87.28015133113979,33.73229241072801
Alabama,AL,Pelham,-86.7573292890614,33.311434259281114
Alabama,AL,Pell City,-86.26692142478431,33.56095584521142
Alabama,AL,Pennington,-88.04941443878894,32.19935180437957
Alabama,AL,Penton,-85.4721740627246,33.008995479611926
Alabama,AL,Perdido,-87.63236024416481,31.003337908839296
Alabama,AL,Perdido Beach,-87.50358662715223,30.355374785734625
Alabama,AL,Peterman,-87.26308390437411,31.58370590197667
Alabama,AL,Petrey,-86.2056698268731,31.849485580409905
Alabama,AL,Phenix City,-85.0236938905367,32.458234131893576
Alabama,AL,Phil Campbell,-87.70622630321529,34.35191642257064
Alabama,AL,Pickensville,-88.27434605566202,33.233643614883015
Alabama,AL,Piedmont,-85.61473732555945,33.924997288216495
Alabama,AL,Pike Road,-86.05052579541956,32.319778797424604
Alabama,AL,Pinckard,-85.54304449563548,31.3173034249101
Alabama,AL,Pine Apple,-86.9890616572536,31.87213112418901
Alabama,AL,Pine Hill,-87.58749564565207,31.985788379957352
Alabama,AL,Pine Level,-86.45287584510993,32.57965775125936
Alabama,AL,Pine Ridge,-85.78075014590021,34.448955871398056
Alabama,AL,Pinson,-86.67051772923307,33.703529002545054
Alabama,AL,Pisgah,-85.84600157938611,34.68436719271587
Alabama,AL,Pleasant Grove,-86.97819700979214,33.49364074972983
Alabama,AL,Pleasant Groves,-86.2053920860637,34.73503182760932
Alabama,AL,Point Clear,-87.91710627549283,30.48059650636585
Alabama,AL,Pollard,-87.17357788506233,31.023576095346836
Alabama,AL,Powell,-85.89788305192606,34.53253759094388
Alabama,AL,Prattville,-86.45884439892434,32.46046755487533
Alabama,AL,Priceville,-86.88541897344348,34.52473327863312
Alabama,AL,Prichard,-88.13010432670305,30.773526514333977
Alabama,AL,Providence,-87.77615295150687,32.342387265630826
Alabama,AL,Putnam,-88.0330841558469,32.0180896699526
Alabama,AL,Ragland,-86.13842934664441,33.74687252809335
Alabama,AL,Rainbow City,-86.09222320270464,33.933681661101076
Alabama,AL,Rainsville,-85.84352565728823,34.49385625781982
Alabama,AL,Ranburne,-85.33900705557991,33.525857239524306
Alabama,AL,Ray,-86.03499342695194,32.87896826667991
Alabama,AL,Red Bay,-88.13525794627886,34.436997788712716
Alabama,AL,Red Level,-86.60842992412216,31.405541324524997
Alabama,AL,Redland,-86.1375409476428,32.47536607633232
Alabama,AL,Redstone Arsenal,-86.6470305634945,34.68433804094024
Alabama,AL,Reece City,-86.03453908133604,34.07717328229598
Alabama,AL,Reeltown,-85.81890311156248,32.57879238253421
Alabama,AL,Reform,-88.01726602542477,33.37884438787615
Alabama,AL,Rehobeth,-85.43890614482987,31.122878399659836
Alabama,AL,Repton,-87.2393184980935,31.409663224065447
Alabama,AL,Ridgeville,-86.10285635698233,34.05693151892316
Alabama,AL,River Falls,-86.54121331168251,31.352436150409833
Alabama,AL,Riverside,-86.20420576380886,33.617091726799494
Alabama,AL,Riverview,-87.07089985215086,31.05868872831306
Alabama,AL,Roanoke,-85.36942754382714,33.145301646483595
Alabama,AL,Robertsdale,-87.70228274106297,30.553361380040226
Alabama,AL,Rock Creek,-87.08122200618025,33.47720878107439
Alabama,AL,Rock Mills,-85.28614469287668,33.15627042312131
Alabama,AL,Rockford,-86.21501159152116,32.88955027561253
Alabama,AL,Rockville,-87.84421932184215,31.405858694685904
Alabama,AL,Rogersville,-87.28210230459659,34.825098826744735
Alabama,AL,Rosa,-86.50369748100086,33.98850521369258
Alabama,AL,Russellville,-87.72850492393114,34.50613052529704
Alabama,AL,Rutledge,-86.30199458262267,31.72401749597809
Alabama,AL,Saks,-85.85377921278119,33.71186560318517
Alabama,AL,Samson,-86.04622449144675,31.112358963918698
Alabama,AL,Sand Rock,-85.77122703515633,34.23080190060143
Alabama,AL,Sanford,-86.39754710362406,31.300641483767834
Alabama,AL,Saraland,-88.10035619452341,30.847798315941255
Alabama,AL,Sardis City,-86.11249620242097,34.174925842099526
Alabama,AL,Satsuma,-88.06316279162519,30.85773929975274
Alabama,AL,Scottsboro,-86.04922676969362,34.64348214956186
Alabama,AL,Section,-85.98490208659688,34.58163188890962
Alabama,AL,Selma,-87.03361413389159,32.416579930894464
Alabama,AL,Selmont-West Selmont,-87.00743888190463,32.37841210327567
Alabama,AL,Semmes,-88.23513802592875,30.794219476974803
Alabama,AL,Sheffield,-87.69768885072588,34.75702292638767
Alabama,AL,Shelby,-86.58248445750516,33.10683657871767
Alabama,AL,Shiloh,-85.87508909770318,34.460773741533465
Alabama,AL,Shoal Creek,-86.60713102637553,33.43277598187585
Alabama,AL,Shorter,-85.93504239429411,32.40740411883976
Alabama,AL,Silas,-88.32583730820024,31.767790981657445
Alabama,AL,Silverhill,-87.750473737181,30.545531845550315
Alabama,AL,Sims Chapel,-88.14354366331305,31.23650998736306
Alabama,AL,Sipsey,-87.08341081524226,33.82253731492177
Alabama,AL,Skyline,-86.12286160887052,34.79865774274059
Alabama,AL,Slocomb,-85.59541786576374,31.11032030237375
Alabama,AL,Smiths Station,-85.1007738316403,32.527457948726635
Alabama,AL,Smoke Rise,-86.82403909829885,33.87891010202169
Alabama,AL,Snead,-86.39009879641621,34.116175442061696
Alabama,AL,Somerville,-86.79638627721855,34.46925365443719
Alabama,AL,South Vinemont,-86.86420620846903,34.2348331125719
Alabama,AL,Southside,-86.02427818673479,33.90173644434503
Alabama,AL,Spanish Fort,-87.8304283263053,30.74776071793097
Alabama,AL,Spring Garden,-85.55575503753361,33.972984765154585
Alabama,AL,Springville,-86.47537566788372,33.76450454210461
Alabama,AL,Spruce Pine,-87.72944215166342,34.392751568220646
Alabama,AL,St. Florian,-87.62237133724138,34.871432174491645
Alabama,AL,St. Stephens,-88.05552388060133,31.547366196954055
Alabama,AL,Standing Rock,-85.24493297690856,33.08626566806695
Alabama,AL,Stapleton,-87.79427254694367,30.73943299530481
Alabama,AL,Steele,-86.2004170153264,33.936967626055015
Alabama,AL,Sterrett,-86.4645496211095,33.44903818775626
Alabama,AL,Stevenson,-85.84369801233092,34.84865505611154
Alabama,AL,Stewartville,-86.26576479573588,33.07252878392683
Alabama,AL,Stockton,-87.86000385387898,30.99459342952079
Alabama,AL,Sulligent,-88.12663115924418,33.89118037606982
Alabama,AL,Sumiton,-87.04829709109988,33.75027322763539
Alabama,AL,Summerdale,-87.6967454403531,30.478810912820762
Alabama,AL,Susan Moore,-86.42338301365169,34.07988858494277
Alabama,AL,Sweet Water,-87.86189243316899,32.104618466421265
Alabama,AL,Sylacauga,-86.26380379218804,33.17189733575309
Alabama,AL,Sylvan Springs,-87.03119546715648,33.528651201891975
Alabama,AL,Sylvania,-85.81172239262719,34.565842989265505
Alabama,AL,Talladega,-86.0976110955738,33.432888366797634
Alabama,AL,Talladega Springs,-86.44205041087828,33.119110233207046
Alabama,AL,Tallassee,-85.89022769289018,32.53140667815836
Alabama,AL,Tarrant,-86.76839335845776,33.594459676934534
Alabama,AL,Taylor,-85.46973975604504,31.165838513732762
Alabama,AL,Theodore,-88.18843476568767,30.54082834078898
Alabama,AL,Thomaston,-87.62369975038064,32.26828745433625
Alabama,AL,Thomasville,-87.74186005022999,31.91107989184209
Alabama,AL,Thorsby,-86.7203010302492,32.91697960624748
Alabama,AL,Tibbie,-88.24706784480132,31.362819940734227
Alabama,AL,Tidmore Bend,-85.92540725707629,34.03244779968669
Alabama,AL,Tillmans Corner,-88.21282124150639,30.581844004181576
Alabama,AL,Town Creek,-87.4063347693893,34.671787564581656
Alabama,AL,Toxey,-88.30912200847185,31.910718216350496
Alabama,AL,Trafford,-86.74569102551133,33.81757427123272
Alabama,AL,Triana,-86.74151649437275,34.590326531526664
Alabama,AL,Trinity,-87.08198151132024,34.6015129932412
Alabama,AL,Troy,-85.96646260108737,31.802117426858796
Alabama,AL,Trussville,-86.58238474091897,33.63953295048044
Alabama,AL,Tuscaloosa,-87.52178614966438,33.235503017309156
Alabama,AL,Tuscumbia,-87.70353231356762,34.720357975080745
Alabama,AL,Tuskegee,-85.7139158387052,32.43951778313165
Alabama,AL,Twin,-87.85124954899857,34.00931300497223
Alabama,AL,Underwood-Petersville,-87.69755304845177,34.877023703644554
Alabama,AL,Union,-87.90459889145511,32.999341117472355
Alabama,AL,Union Grove,-86.4482620784598,34.40252466609591
Alabama,AL,Union Springs,-85.71412017873246,32.139530235460136
Alabama,AL,Uniontown,-87.49581510822718,32.448980515915295
Alabama,AL,Uriah,-87.49924324866943,31.307331136327456
Alabama,AL,Valley,-85.18022349545242,32.809498013998066
Alabama,AL,Valley Grande,-87.03052588541179,32.486181958065806
Alabama,AL,Valley Head,-85.62135449528574,34.5575222862837
Alabama,AL,Vance,-87.23274191738646,33.17239221024433
Alabama,AL,Vandiver,-86.52506328854396,33.460068936884674
Alabama,AL,Vernon,-88.11431342901429,33.75883274799078
Alabama,AL,Vestavia Hills,-86.78478254517661,33.43257478512259
Alabama,AL,Vina,-88.06018076395914,34.37566113801316
Alabama,AL,Vincent,-86.40860776236256,33.384829891218644
Alabama,AL,Vinegar Bend,-88.37122871399424,31.25941895817343
Alabama,AL,Vredenburgh,-87.31776912207857,31.823684408816543
Alabama,AL,Wadley,-85.56833081864166,33.12390715984609
Alabama,AL,Waldo,-86.03600623814975,33.38919466427083
Alabama,AL,Walnut Grove,-86.28634570890179,34.06412585631755
Alabama,AL,Warrior,-86.81696306180802,33.814816434780205
Alabama,AL,Waterloo,-88.06543380361745,34.917313126953964
Alabama,AL,Waverly,-85.5761147056759,32.73328861908362
Alabama,AL,Weaver,-85.81138767405929,33.76035552932754
Alabama,AL,Webb,-85.28961600677174,31.257228347024405
Alabama,AL,Wedowee,-85.48639183657694,33.30772085840822
Alabama,AL,Weogufka,-86.31691342566552,33.026741015574046
Alabama,AL,West Blocton,-87.12532693544595,33.118572013492674
Alabama,AL,West End-Cobb Town,-85.87415282143864,33.65261823120376
Alabama,AL,West Jefferson,-87.0647242927131,33.647704285331585
Alabama,AL,West Point,-86.96255127250936,34.2400721452415
Alabama,AL,Westover,-86.53462043384522,33.36847288327467
Alabama,AL,Wetumpka,-86.20444324493214,32.540730167383515
Alabama,AL,Whatley,-87.71082540548733,31.646320597893233
Alabama,AL,White Hall,-86.71484609778743,32.299258519874336
Alabama,AL,White Plains,-85.68796586029876,33.76031880044753
Alabama,AL,Whitesboro,-86.05722644817938,34.16823469776359
Alabama,AL,Wilsonville,-86.48876304522298,33.23415899594723
Alabama,AL,Wilton,-86.8798758227764,33.08133999283021
Alabama,AL,Winfield,-87.79923192018539,33.92622383577055
Alabama,AL,Woodland,-85.39745045295028,33.375614808402844
Alabama,AL,Woodstock,-87.15335982556512,33.20970427367754
Alabama,AL,Woodville,-86.27919718169579,34.62557710733674
Alabama,AL,Yellow Bluff,-87.48076515023769,31.962155211981553
Alabama,AL,York,-88.29378721190022,32.49975640285574
Alaska,AK,Adak,-176.62949359283272,51.88150016352261
Alaska,AK,Akhiok,-154.21512711371616,56.9450102064727
Alaska,AK,Akiachak,-161.40199587998018,60.9208735440048
Alaska,AK,Akiak,-161.21222743058897,60.906141544406886
Alaska,AK,Akutan,-165.8369204065883,54.1482620941123
Alaska,AK,Alakanuk,-164.6305423219264,62.69017598984175
Alaska,AK,Alatna,-152.8385031298326,66.56378636532223
Alaska,AK,Alcan Border,-141.13213688202887,62.67273777005025
Alaska,AK,Aleknagik,-158.68955154339184,59.294596563974274
Alaska,AK,Aleneva,-152.90913881627426,58.05904841525078
Alaska,AK,Allakaket,-152.6269811544729,66.55055373498291
Alaska,AK,Ambler,-157.87247824456557,67.0897052218966
Alaska,AK,Anaktuvuk Pass,-151.71615592396188,68.1499910961236
Alaska,AK,Anchor Point,-151.70521032932464,59.77028689247219
Alaska,AK,Anchorage,-149.10498213856033,61.150825742803775
Alaska,AK,Anderson,-149.1561984386371,64.30739210465397
Alaska,AK,Angoon,-134.49780290194508,57.45503850365589
Alaska,AK,Aniak,-159.54505622416463,61.58171170138176
Alaska,AK,Anvik,-160.21397371952034,62.65411452450892
Alaska,AK,Arctic Village,-145.49568543796468,68.14208658760948
Alaska,AK,Atka,-174.2007293434495,52.222344401195585
Alaska,AK,Atmautluak,-162.2857885692034,60.86222349995115
Alaska,AK,Atqasuk,-157.38350393094854,70.48100917837165
Alaska,AK,Attu Station,173.1230021675258,52.89546490162941
Alaska,AK,Badger,-147.3876918262952,64.80061482226508
Alaska,AK,Bear Creek,-149.35243208858856,60.207071180099035
Alaska,AK,Beaver,-147.3218501309934,66.38302440815562
Alaska,AK,Beluga,-151.16367668641024,61.186850109958634
Alaska,AK,Bethel,-161.79167168177173,60.792788199415895
Alaska,AK,Bettles,-151.53694421568653,66.90842454315509
Alaska,AK,Big Delta,-145.7452935411302,64.14861390697772
Alaska,AK,Big Lake,-149.97203854189863,61.526038249637786
Alaska,AK,Birch Creek,-145.8698472983183,66.26857655383012
Alaska,AK,Brevig Mission,-166.49529833633642,65.34126010094313
Alaska,AK,Buckland,-161.13409002604456,65.97844483808649
Alaska,AK,Buffalo Soapstone,-149.10947268668647,61.707279820561695
Alaska,AK,Butte,-149.00352020939974,61.55390048353334
Alaska,AK,Cantwell,-148.8158129138907,63.379015076307276
Alaska,AK,Central,-144.64092795700952,65.5213026546349
Alaska,AK,Chalkyitsik,-143.78220614538307,66.64678645136466
Alaska,AK,Chase,-149.93705583856743,62.46236584977228
Alaska,AK,Chefornak,-164.25495434572656,60.15504285411592
Alaska,AK,Chena Ridge,-148.03572735636257,64.79408791387316
Alaska,AK,Chenega,-148.01939613163108,60.075699840380125
Alaska,AK,Chevak,-165.59426001191906,61.52951786442793
Alaska,AK,Chickaloon,-148.41032438394083,61.80397401283041
Alaska,AK,Chicken,-141.8283286711331,64.08775477950809
Alaska,AK,Chignik,-158.41315497929986,56.30032322939662
Alaska,AK,Chignik Lagoon,-158.50039371449893,56.304146461037675
Alaska,AK,Chignik Lake,-158.80486225448195,56.26309903429672
Alaska,AK,Chiniak,-152.2742977787749,57.57749237606833
Alaska,AK,Chisana,-142.0340279399338,62.09457669280905
Alaska,AK,Chistochina,-144.81354555177253,62.59213630231937
Alaska,AK,Chitina,-144.29910497174814,61.527612315834396
Alaska,AK,Chuathbaluk,-159.24891314338961,61.574579156542
Alaska,AK,Circle,-144.1813017145977,65.79360955882366
Alaska,AK,Clam Gulch,-151.39393664538187,60.20005661694508
Alaska,AK,Clark's Point,-158.52764800369334,58.832857804587775
Alaska,AK,Coffman Cove,-132.83953591237082,56.005651710196226
Alaska,AK,Cohoe,-151.2843064153509,60.26806157137701
Alaska,AK,Cold Bay,-162.74728528872663,55.212135837350026
Alaska,AK,Coldfoot,-150.10792266041855,67.24746356575959
Alaska,AK,College,-147.8216514763091,64.86938990669005
Alaska,AK,Cooper Landing,-149.8409717824826,60.494522626572405
Alaska,AK,Copper Center,-145.35435945223767,61.98453019409196
Alaska,AK,Cordova,-145.60909690030667,60.53479503351095
Alaska,AK,Covenant Life,-136.0947832395054,59.399813242397954
Alaska,AK,Craig,-133.11649714379107,55.491342108962186
Alaska,AK,Crooked Creek,-158.1082139943481,61.843905201338146
Alaska,AK,Crown Point,-149.35293802647047,60.42670601396121
Alaska,AK,Deering,-162.74367964208602,66.07225569225191
Alaska,AK,Delta Junction,-145.70579393141003,64.06036805882327
Alaska,AK,Deltana,-145.21579421651265,63.8723525147378
Alaska,AK,Denali Park,-148.7106920255281,63.59087030883916
Alaska,AK,Diamond Ridge,-151.55448941690983,59.70235764896782
Alaska,AK,Dillingham,-158.5378506900038,59.05502779183958
Alaska,AK,Diomede,-168.92189320620292,65.75363491874812
Alaska,AK,Dot Lake,-144.1815182906169,63.574911187762275
Alaska,AK,Dot Lake Village,-144.01604530854397,63.66224422322909
Alaska,AK,Dry Creek,-144.63641859480097,63.62550922270469
Alaska,AK,Eagle,-141.19787974276306,64.78129292996157
Alaska,AK,Eagle Village,-141.1138494875368,64.74340244521706
Alaska,AK,Edna Bay,-133.66622177134698,55.96401711895399
Alaska,AK,Eek,-162.0331080452975,60.21644382458712
Alaska,AK,Egegik,-157.40363552318865,58.218133278585114
Alaska,AK,Eielson AFB,-147.06052235591793,64.67409616167872
Alaska,AK,Ekwok,-157.48606426691435,59.34618550735464
Alaska,AK,Elfin Cove,-136.31285487124174,58.191232088535806
Alaska,AK,Elim,-162.27620018813244,64.61840280516866
Alaska,AK,Emmonak,-164.51571921328554,62.77615852891171
Alaska,AK,Ester,-148.09164260889008,64.86458646409395
Alaska,AK,Eureka Roadhouse,-147.15228926814737,61.964762662990864
Alaska,AK,Evansville,-151.4202557181605,66.92054820183532
Alaska,AK,Excursion Inlet,-135.37301540953194,58.435495524491444
Alaska,AK,Fairbanks,-147.65337755185956,64.83527880284859
Alaska,AK,False Pass,-163.39955154602808,54.84323015866781
Alaska,AK,Farm Loop,-149.14710268910852,61.639367317431606
Alaska,AK,Farmers Loop,-147.69570185055372,64.90608780509174
Alaska,AK,Ferry,-148.92051186185688,64.04961001147707
Alaska,AK,Fishhook,-149.2656747442515,61.71098382108932
Alaska,AK,Flat,-158.0404835153934,62.44145959795869
Alaska,AK,Fort Greely,-145.71484948116225,63.96783984300671
Alaska,AK,Fort Yukon,-145.24148353482022,66.58063988780404
Alaska,AK,Four Mile Road,-149.12219581053887,64.60453065254681
Alaska,AK,Fox,-147.6089819543435,64.97486690397234
Alaska,AK,Fox River,-150.99838481555813,59.87225027647972
Alaska,AK,Fritz Creek,-151.2884473347555,59.74696077707585
Alaska,AK,Funny River,-150.78077630254217,60.48726964129535
Alaska,AK,Gakona,-145.26565208320653,62.36085822976527
Alaska,AK,Galena,-156.86350503927946,64.73808253198517
Alaska,AK,Gambell,-171.6881074516835,63.75375336191815
Alaska,AK,Game Creek,-135.50797961810537,58.05534677887883
Alaska,AK,Gateway,-149.23887448971115,61.573744960366305
Alaska,AK,Glacier View,-147.77639564399504,61.851095141632264
Alaska,AK,Glennallen,-145.76929273332988,62.127773709537855
Alaska,AK,Goldstream,-148.00830186694736,64.9339143747871
Alaska,AK,Golovin,-162.99890965176849,64.56396601322774
Alaska,AK,Goodnews Bay,-161.5754207445532,59.12714922967648
Alaska,AK,Grayling,-160.10782092582335,62.899776602451105
Alaska,AK,Gulkana,-145.44485591446866,62.21523823770493
Alaska,AK,Gustavus,-135.7492270715102,58.427484900007016
Alaska,AK,Haines,-135.45493047472328,59.24168531788899
Alaska,AK,Halibut Cove,-151.22959042699213,59.5744270827504
Alaska,AK,Happy Valley,-151.60723048247795,59.91365295531685
Alaska,AK,Harding-Birch Lakes,-146.59992635304724,64.37112674064232
Alaska,AK,Healy,-149.015168068605,63.94542344797807
Alaska,AK,Healy Lake,-144.6330273274528,64.02807807302011
Alaska,AK,Hobart Bay,-133.32304740576268,57.4212496659029
Alaska,AK,Hollis,-132.70226780829466,55.51134168228677
Alaska,AK,Holy Cross,-159.81980277972352,62.186794583696965
Alaska,AK,Homer,-151.52554714667465,59.65302112199971
Alaska,AK,Hoonah,-135.42464410980037,58.111750200614665
Alaska,AK,Hooper Bay,-166.11462045552807,61.52616829239704
Alaska,AK,Hope,-149.63516522719863,60.892459655777934
Alaska,AK,Houston,-149.80034524490003,61.61585588432471
Alaska,AK,Hughes,-154.23759549926785,66.04520471352659
Alaska,AK,Huslia,-156.33856047139636,65.70019547323172
Alaska,AK,Hydaburg,-132.82081070325575,55.20607690185019
Alaska,AK,Hyder,-130.03828491329529,55.98155965135158
Alaska,AK,Igiugig,-155.8737896317162,59.305628333116445
Alaska,AK,Iliamna,-154.8698448295643,59.795732244502084
Alaska,AK,Ivanof Bay,-159.49334747603265,55.918282225863
Alaska,AK,Juneau,-134.15391420470542,58.46759865349575
Alaska,AK,Kachemak,-151.43639281494407,59.674456933220704
Alaska,AK,Kake,-133.91451073487985,56.972709855437685
Alaska,AK,Kaktovik,-143.62621220846034,70.12303411119383
Alaska,AK,Kalifornsky,-151.1971967367029,60.44168180196462
Alaska,AK,Kaltag,-158.7435594201939,64.3222864276297
Alaska,AK,Karluk,-154.32553594738835,57.584490786500226
Alaska,AK,Kasaan,-132.41366106593944,55.55725421802066
Alaska,AK,Kasigluk,-162.52724722555516,60.8784773745117
Alaska,AK,Kasilof,-151.22926284538113,60.331021306885845
Alaska,AK,Kenai,-151.19846037527955,60.56189374446573
Alaska,AK,Kenny Lake,-144.86617967722884,61.664364428858136
Alaska,AK,Ketchikan,-131.66982323340895,55.35563558963579
Alaska,AK,Kiana,-160.43442024942217,66.97255564693624
Alaska,AK,King Cove,-162.2978424363031,55.08581721228569
Alaska,AK,King Salmon,-156.50612950109428,58.75303492717925
Alaska,AK,Kipnuk,-164.06155839672422,59.93729269499958
Alaska,AK,Kivalina,-164.52116196621,67.73297526486142
Alaska,AK,Klawock,-133.0868263670075,55.55561369186593
Alaska,AK,Klukwan,-135.8886021042233,59.39874467070323
Alaska,AK,Knik River,-148.91554986823428,61.46061343440268
Alaska,AK,Knik-Fairview,-149.65346532019205,61.4963528863445
Alaska,AK,Kobuk,-156.89386208435388,66.9310322649213
Alaska,AK,Kodiak,-152.40595928551025,57.79335928449808
Alaska,AK,Kodiak Station,-152.54426801399117,57.74508937643349
Alaska,AK,Kokhanok,-154.74563262626094,59.415845510098485
Alaska,AK,Koliganek,-157.22584007393203,59.697094045712966
Alaska,AK,Kongiganak,-162.8830980603811,59.95798558060977
Alaska,AK,Kotlik,-163.55299712974463,63.030471992936086
Alaska,AK,Kotzebue,-162.5231163941962,66.87656953056413
Alaska,AK,Koyuk,-161.14536364478917,64.94111754855808
Alaska,AK,Koyukuk,-157.69461094121183,64.9008176649136
Alaska,AK,Kupreanof,-132.98892347474342,56.8089267275595
Alaska,AK,Kwethluk,-161.4146937922796,60.79781005307552
Alaska,AK,Kwigillingok,-163.17167568488216,59.8767053177475
Alaska,AK,Lake Louise,-146.56248025466962,62.313103601053804
Alaska,AK,Lake Minchumina,-152.34484473300077,63.79801053501117
Alaska,AK,Lakes,-149.30666283254294,61.605278269705956
Alaska,AK,Larsen Bay,-154.0056133872721,57.5403629659632
Alaska,AK,Lazy Mountain,-148.90199798431897,61.65164978654211
Alaska,AK,Levelock,-156.9009869127393,59.06830885385966
Alaska,AK,Lime Village,-155.31807092563517,61.327042658295134
Alaska,AK,Livengood,-148.41709774454117,65.48169988667446
Alaska,AK,Loring,-131.64051626363027,55.60635378862304
Alaska,AK,Lowell Point,-149.48977621105172,60.0629100228534
Alaska,AK,Lower Kalskag,-160.35563528283524,61.516326240376685
Alaska,AK,Lutak,-135.63138940289923,59.39970872439939
Alaska,AK,Manley Hot Springs,-150.64526497197113,65.01872241965222
Alaska,AK,Manokotak,-158.9298488054333,58.97922489996833
Alaska,AK,Marshall,-162.04875357957727,61.87532368273906
Alaska,AK,McCarthy,-142.8647929741236,61.45394865286716
Alaska,AK,McGrath,-155.56295650718096,62.94236583190331
Alaska,AK,Meadow Lakes,-149.6080184629393,61.638027798353505
Alaska,AK,Mekoryuk,-166.2669718693027,60.3703752159561
Alaska,AK,Mendeltna,-146.53877279012585,62.135855220617074
Alaska,AK,Mentasta Lake,-143.5190877168527,62.986685642359966
Alaska,AK,Mertarvik,-164.49886610337717,60.81097900543838
Alaska,AK,Metlakatla,-131.56886210553338,55.118231336305314
Alaska,AK,Minto,-149.5564568752047,65.10326197032876
Alaska,AK,Moose Creek,-147.16394817769404,64.71402074364666
Alaska,AK,Moose Pass,-149.44637934378102,60.49969346859082
Alaska,AK,Mosquito Lake,-136.14583202672426,59.47097243290823
Alaska,AK,Mountain Village,-163.72089365774636,62.0911173512033
Alaska,AK,Mud Bay,-135.35844943361775,59.151742974933505
Alaska,AK,Nabesna,-143.04022908493585,62.46063193997417
Alaska,AK,Naknek,-156.8967075188787,58.7847310326866
Alaska,AK,Nanwalek,-151.9110250071852,59.33017378658672
Alaska,AK,Napakiak,-161.98223842148178,60.692333291798874
Alaska,AK,Napaskiak,-161.76156776677516,60.701830204565304
Alaska,AK,Naukati Bay,-133.19929041126403,55.88009673336159
Alaska,AK,Nelchina,-146.8111636764753,61.99888926904098
Alaska,AK,Nelson Lagoon,-161.62095035192348,55.84235792605957
Alaska,AK,Nenana,-149.08587603841636,64.5383768950577
Alaska,AK,New Stuyahok,-157.27099160111865,59.47617652087161
Alaska,AK,Newhalen,-154.8969927882823,59.72697831363776
Alaska,AK,Newtok,-164.6385296638145,60.934079288153356
Alaska,AK,Nightmute,-164.81952715163658,60.48738362229143
Alaska,AK,Nikiski,-151.23172674419254,60.71517318022358
Alaska,AK,Nikolaevsk,-151.59640084556352,59.829547755790855
Alaska,AK,Nikolai,-154.3763242708324,63.009525319356975
Alaska,AK,Nikolski,-168.7535944523953,53.013285758002304
Alaska,AK,Ninilchik,-151.3842943466555,60.07447719936567
Alaska,AK,Noatak,-163.03092220038673,67.59866398671262
Alaska,AK,Nome,-165.40527330826103,64.5212584266724
Alaska,AK,Nondalton,-154.86268524467923,59.97109117367572
Alaska,AK,Noorvik,-161.0376211966618,66.8292073229874
Alaska,AK,North Pole,-147.35995328382583,64.7529540274291
Alaska,AK,Northway,-141.8322053468218,62.94788862208313
Alaska,AK,Northway Junction,-141.77253400924877,63.01361389478612
Alaska,AK,Northway Village,-141.92937901528893,62.98210780221871
Alaska,AK,Nuiqsut,-150.98966241953994,70.21348249646535
Alaska,AK,Nulato,-158.23826733348247,64.70522898759062
Alaska,AK,Nunam Iqua,-164.89984192135867,62.5109600272354
Alaska,AK,Nunapitchuk,-162.46152390222463,60.87722177971177
Alaska,AK,Old Harbor,-153.32517274870625,57.2169319553905
Alaska,AK,Oscarville,-161.77281982848712,60.72879559903251
Alaska,AK,Ouzinkie,-152.46738576910116,57.92216663081112
Alaska,AK,Palmer,-149.11471348472685,61.597119317898496
Alaska,AK,Paxson,-145.7311946527777,63.01105924568327
Alaska,AK,Pedro Bay,-154.12362097005334,59.782164519518666
Alaska,AK,Pelican,-136.21765343595092,57.9576676183642
Alaska,AK,Perryville,-159.1559055143682,55.931525441886656
Alaska,AK,Petersburg,-132.87267943111644,56.7566285258263
Alaska,AK,Petersville,-150.8440594737439,62.4227145092827
Alaska,AK,Pilot Point,-157.59934328813844,57.593181994628196
Alaska,AK,Pilot Station,-162.88278261309998,61.94219415871898
Alaska,AK,Pitkas Point,-163.26812260674637,62.037402728722356
Alaska,AK,Platinum,-161.7185292478573,58.97803349543995
Alaska,AK,Pleasant Valley,-146.8985700351095,64.8854687545435
Alaska,AK,Point Baker,-133.6166563810789,56.34815998211736
Alaska,AK,Point Hope,-166.67377135580713,68.34453856268773
Alaska,AK,Point Lay,-162.86755886482797,69.74431373133069
Alaska,AK,Point MacKenzie,-150.0787443205246,61.34626601433234
Alaska,AK,Point Possession,-150.68910160066838,60.922825719022526
Alaska,AK,Pope-Vannoy Landing,-154.46536220446924,59.56490410543809
Alaska,AK,Port Alexander,-134.6531928206632,56.234601291561916
Alaska,AK,Port Alsworth,-154.32327610161306,60.16884043354421
Alaska,AK,Port Clarence,-166.7682886270652,65.1107857447595
Alaska,AK,Port Graham,-151.84635607833167,59.33995156156197
Alaska,AK,Port Heiden,-158.60468240304473,56.94256413412441
Alaska,AK,Port Lions,-152.87446835410543,57.87535614611086
Alaska,AK,Port Protection,-133.59395457600078,56.329271045362255
Alaska,AK,Portage Creek,-157.66951899688098,58.90509202636443
Alaska,AK,Primrose,-149.31985545614214,60.349653562340094
Alaska,AK,Prudhoe Bay,-148.6920588314498,70.31112763378965
Alaska,AK,Quinhagak,-161.89926071999207,59.75105111171003
Alaska,AK,Rampart,-149.9915431420219,65.40873742938506
Alaska,AK,Red Devil,-157.34602427843475,61.77349708065333
Alaska,AK,Red Dog Mine,-162.86674826661866,68.06449524793321
Alaska,AK,Ridgeway,-151.0300716368634,60.53048791136317
Alaska,AK,Ruby,-155.50056341020874,64.72329807964007
Alaska,AK,Russian Mission,-161.3567110746472,61.78247312255519
Alaska,AK,Salamatof,-151.315870435271,60.61539313662611
Alaska,AK,Salcha,-146.90400364175886,64.52718089942911
Alaska,AK,Sand Point,-160.48275190057126,55.32312508820642
Alaska,AK,Savoonga,-170.48308541564776,63.67965403131504
Alaska,AK,Saxman,-131.5890314322791,55.32318559722278
Alaska,AK,Scammon Bay,-165.58334471671307,61.84198567740082
Alaska,AK,Selawik,-159.99954933252388,66.5988197801923
Alaska,AK,Seldovia,-151.71111388148384,59.43958139904711
Alaska,AK,Seldovia Village,-151.59053456179646,59.45298221557501
Alaska,AK,Seward,-149.3925088739791,60.11244172158579
Alaska,AK,Shageluk,-159.56297637009752,62.668425108555816
Alaska,AK,Shaktoolik,-161.19721617530135,64.35671717932718
Alaska,AK,Shishmaref,-166.10271115657414,66.23718801309056
Alaska,AK,Shungnak,-157.14993227262164,66.88052607714465
Alaska,AK,Silver Springs,-145.3583981382652,62.019314223563285
Alaska,AK,Sitka,-135.0525003315776,56.94757649376053
Alaska,AK,Skagway,-135.29274143755373,59.45659654865446
Alaska,AK,Skwentna,-151.20955680398458,61.93143329480502
Alaska,AK,Slana,-143.56698578019402,62.629445305006726
Alaska,AK,Sleetmute,-157.12508735583054,61.651574841126674
Alaska,AK,Soldotna,-151.0671809348488,60.48623287692207
Alaska,AK,South Naknek,-156.99082109565597,58.66375009846259
Alaska,AK,South Van Horn,-147.78547002682038,64.80911680431761
Alaska,AK,St. George,-169.61141235612874,56.57912032238627
Alaska,AK,St. Mary's,-163.28052502545643,62.071769843876396
Alaska,AK,St. Michael,-162.13275099866692,63.46637211779517
Alaska,AK,St. Paul,-170.2742765359378,57.181547908135116
Alaska,AK,Stebbins,-162.25966265221408,63.47064237468955
Alaska,AK,Steele Creek,-147.39551325544272,64.92953802952343
Alaska,AK,Sterling,-150.80890512266177,60.54051574389619
Alaska,AK,Stevens Village,-149.08024914741932,66.02499970780585
Alaska,AK,Stony River,-156.58596539019916,61.79363863095839
Alaska,AK,Sunrise,-149.46777089835018,60.870059753240405
Alaska,AK,Susitna,-150.62206511694745,61.49699633589637
Alaska,AK,Susitna North,-149.8593302699833,62.128135226805135
Alaska,AK,Sutton-Alpine,-148.85422017371928,61.74290726271072
Alaska,AK,Takotna,-156.0841336129862,62.98233507574296
Alaska,AK,Talkeetna,-150.08136308482744,62.27533563853306
Alaska,AK,Tanacross,-143.431817372217,63.35233198104191
Alaska,AK,Tanaina,-149.42720070132881,61.65598602789167
Alaska,AK,Tanana,-152.068635452072,65.17460940023183
Alaska,AK,Tatitlek,-146.67273484043932,60.892060952268885
Alaska,AK,Tazlina,-145.4362462418149,62.053590370528966
Alaska,AK,Teller,-166.34199721267785,65.25308533156884
Alaska,AK,Tenakee Springs,-135.1954776319943,57.791267373391705
Alaska,AK,Tetlin,-142.49470119162476,63.14808122709942
Alaska,AK,Thorne Bay,-132.53373039430176,55.66521500608938
Alaska,AK,Togiak,-160.47283219298018,59.06933352388084
Alaska,AK,Tok,-143.03793973394542,63.32895442433172
Alaska,AK,Toksook Bay,-165.1602766224438,60.53764708081017
Alaska,AK,Tolsona,-146.09198084110935,62.084405966894714
Alaska,AK,Tonsina,-145.06564060339642,61.56167597235525
Alaska,AK,Trapper Creek,-150.3964884882392,62.3189036821052
Alaska,AK,Tuluksak,-160.94933192617066,61.10501315666794
Alaska,AK,Tuntutuliak,-162.68383931305587,60.384344337465635
Alaska,AK,Tununak,-165.20767755798016,60.57901839675005
Alaska,AK,Twin Hills,-160.28258421613683,59.081505142781815
Alaska,AK,Two Rivers,-147.0897908488324,64.8908332918421
Alaska,AK,Tyonek,-151.33307055193265,61.073404870270544
Alaska,AK,Ugashik,-157.12323479814165,57.573560748759334
Alaska,AK,Unalakleet,-160.78601515176828,63.892230265663
Alaska,AK,Unalaska,-166.56796444481137,53.89834592432027
Alaska,AK,Upper Kalskag,-160.33370051284876,61.54159984650683
Alaska,AK,Utqiagvik,-156.75747981273958,71.2727527516013
Alaska,AK,Valdez,-146.25800211419912,61.09660779584329
Alaska,AK,Venetie,-146.37414805988993,67.02062679986349
Alaska,AK,Wainwright,-159.97134047090583,70.6380230137451
Alaska,AK,Wales,-168.0773050411003,65.61192108984606
Alaska,AK,Wasilla,-149.46603931057655,61.577008011721155
Alaska,AK,Whale Pass,-133.13298674485952,56.108975617746545
Alaska,AK,White Mountain,-163.42283712604495,64.68120009501935
Alaska,AK,Whitestone,-145.9061105095729,64.15275915513367
Alaska,AK,Whitestone Logging Camp,-135.42001996397516,58.0652517955947
Alaska,AK,Whittier,-148.64547361750806,60.78517632190576
Alaska,AK,Willow,-149.75299540509,61.81569502700969
Alaska,AK,Willow Creek,-145.18358746176602,61.83361053398603
Alaska,AK,Wiseman,-150.1333552230709,67.4370504349087
Alaska,AK,Womens Bay,-152.6276056411456,57.69599080538566
Alaska,AK,Wrangell,-131.94150761751388,56.33142476391761
Alaska,AK,Yakutat,-139.59659217073022,59.56695852611047
American Samoa,AS,Aasu,-170.7559708433367,-14.303171419217543
American Samoa,AS,Afao,-170.80104154117586,-14.322949089041549
American Samoa,AS,Afono,-170.64968317509556,-14.260739214576928
American Samoa,AS,Agugulu,-170.82012349820582,-14.326449570366815
American Samoa,AS,Alao,-170.56872270368694,-14.262294248446567
American Samoa,AS,Alega,-170.6407466417355,-14.276598445227574
American Samoa,AS,Alofau,-170.60104247461328,-14.276106943202125
American Samoa,AS,Amaluia,-170.78839153612128,-14.32310521618276
American Samoa,AS,Amanave,-170.8340226705804,-14.323417364364364
American Samoa,AS,Amaua,-170.62568702332157,-14.268199542129825
American Samoa,AS,Amouli,-170.58835293634093,-14.273148264094528
American Samoa,AS,Anua,-170.6880497399635,-14.26894835506883
American Samoa,AS,Aoa,-170.58691294357732,-14.26353869580541
American Samoa,AS,Aoloau,-170.78008384791966,-14.303240130441761
American Samoa,AS,Asili,-170.7944479604094,-14.321305302421278
American Samoa,AS,Atu'u,-170.68615787687324,-14.267570207772351
American Samoa,AS,Aua,-170.66177092780222,-14.272756092165261
American Samoa,AS,Auasi,-170.57731253577134,-14.268127067843539
American Samoa,AS,Auma,-170.7859266823901,-14.333038507133532
American Samoa,AS,Aumi,-170.6476565240136,-14.279417574016561
American Samoa,AS,Aunu'u,-170.55354449507948,-14.28382410563011
American Samoa,AS,Auto,-170.63047567868335,-14.272990627447978
American Samoa,AS,Avaio,-170.63512583115715,-14.27477358726396
American Samoa,AS,Faga'alu,-170.6861595998119,-14.290576533851237
American Samoa,AS,Faga'itua,-170.61351663873907,-14.265670974739992
American Samoa,AS,Fagali'i,-170.824638956132,-14.312604228121678
American Samoa,AS,Fagamalo,-170.7995062463232,-14.30090706370601
American Samoa,AS,Faganeanea,-170.69680417390316,-14.299451285660725
American Samoa,AS,Fagasa,-170.72500173332995,-14.288403503472221
American Samoa,AS,Fagatogo,-170.69331672812064,-14.282822418761228
American Samoa,AS,Failolo,-170.82439774044624,-14.32538221427387
American Samoa,AS,Faleasao,-169.49204718377044,-14.225494349888628
American Samoa,AS,Faleniu,-170.743796006314,-14.327581690106909
American Samoa,AS,Fatumafuti,-170.67874234178032,-14.296511143631996
American Samoa,AS,Futiga,-170.75980844006898,-14.35657950359916
American Samoa,AS,Ili'ili,-170.73998829531007,-14.343245745481
American Samoa,AS,Lauli'i,-170.65596224046854,-14.283847830250926
American Samoa,AS,Leloaloa,-170.67794472744717,-14.265993433787157
American Samoa,AS,Leone,-170.77971575636582,-14.331453253509027
American Samoa,AS,Leusoali'i,-169.43551019623126,-14.23954763555145
American Samoa,AS,Luma,-169.5107745203515,-14.226910363028598
American Samoa,AS,Maia,-169.45402270229212,-14.22292582057903
American Samoa,AS,Malaeimi,-170.7364647214124,-14.31142515636598
American Samoa,AS,Malaeloa/Aitulagi,-170.7674596243975,-14.331707268190016
American Samoa,AS,Malaeloa/Ituau,-170.76587662429378,-14.342331334104939
American Samoa,AS,Maloata,-170.81170100857426,-14.30854427237017
American Samoa,AS,Mapusagafou,-170.75539138808557,-14.322642211560112
American Samoa,AS,Masausi,-170.6089909670492,-14.259152676849732
American Samoa,AS,Masefau,-170.63192532604955,-14.259415522755742
American Samoa,AS,Matu'u,-170.69081677794384,-14.295782751547346
American Samoa,AS,Mesepa,-170.7466763751452,-14.322733743444932
American Samoa,AS,Nu'uuli,-170.71455456176625,-14.308270747966455
American Samoa,AS,Nua,-170.8069755839104,-14.32135598374304
American Samoa,AS,Ofu,-169.66414088679977,-14.1719548096745
American Samoa,AS,Olosega,-169.61703519657823,-14.178310943696433
American Samoa,AS,Onenoa,-170.57880215040802,-14.254024780376053
American Samoa,AS,Pagai,-170.60508957647298,-14.26821990452772
American Samoa,AS,Pago Pago,-170.70460373552243,-14.2740145237122
American Samoa,AS,Pava'ia'i,-170.75110381300172,-14.334068742327595
American Samoa,AS,Poloa,-170.83378761852848,-14.318104221275716
American Samoa,AS,Puapua,-170.77218994710213,-14.34496494904581
American Samoa,AS,Sa'ilele,-170.5985129120897,-14.261878429570869
American Samoa,AS,Satala,-170.69185414599957,-14.268501394344067
American Samoa,AS,Se'etaga,-170.81258622154755,-14.321332667152578
American Samoa,AS,Si'ufaga,-169.48619000397187,-14.247806731812199
American Samoa,AS,Sili,-169.6157452956086,-14.165142967831779
American Samoa,AS,Swains,-171.0781738981225,-11.054966987644839
American Samoa,AS,Tafuna,-170.723848304968,-14.329757317424106
American Samoa,AS,Taputimu,-170.77225039164426,-14.355725295885302
American Samoa,AS,Tula,-170.5692169577486,-14.252257234602505
American Samoa,AS,Utulei,-170.68355394412262,-14.283453919020767
American Samoa,AS,Utumea East,-170.57138438138512,-14.267909150953585
American Samoa,AS,Utumea West,-170.81711838240201,-14.323980499556715
American Samoa,AS,Utusia,-170.62107189550775,-14.266375481090089
American Samoa,AS,Vailoatai,-170.78124513157277,-14.35231725753185
American Samoa,AS,Vaitogi,-170.74139766689544,-14.353774924714267
American Samoa,AS,Vatia,-170.67353237097367,-14.253886631951955
Arizona,AZ,Aguila,-113.16646957489644,33.93756742571575
Arizona,AZ,Ajo,-112.8838834794562,32.392291147816486
Arizona,AZ,Ak Chin,-112.00910722619071,32.28718460862072
Arizona,AZ,Ak-Chin Village,-112.08080276848483,33.01969106507319
Arizona,AZ,Alamo Lake,-113.50788098914738,34.2587549438602
Arizona,AZ,Ali Chuk,-112.55837710819475,31.816894745839367
Arizona,AZ,Ali Chukson,-111.80159793172791,31.911530359889145
Arizona,AZ,Ali Molina,-111.78046832464673,31.902501810311133
Arizona,AZ,Alpine,-109.14311208960581,33.84603711171743
Arizona,AZ,Amado,-111.05830375685,31.696755111262323
Arizona,AZ,Anegam,-112.034970023602,32.374204177292164
Arizona,AZ,Antares,-113.80830230046851,35.42294923795078
Arizona,AZ,Anthem,-112.11679012732223,33.85597283844156
Arizona,AZ,Apache Junction,-111.53505781989719,33.398497467165136
Arizona,AZ,Arivaca,-111.29257253316106,31.574969476978303
Arizona,AZ,Arivaca Junction,-111.07377232627239,31.73897921829715
Arizona,AZ,Arizona City,-111.67067492057127,32.75061470997094
Arizona,AZ,Arizona Village,-114.58932651574838,34.85483840357077
Arizona,AZ,Arlington,-112.77473189620541,33.33457931265651
Arizona,AZ,Ash Fork,-112.49122066022149,35.21715222893868
Arizona,AZ,Avenue B and C,-114.65985804812476,32.71920091650239
Arizona,AZ,Avondale,-112.32398737659605,33.38562791508472
Arizona,AZ,Avra Valley,-111.33926234342238,32.41951148213637
Arizona,AZ,Aztec,-113.44281940472699,32.80817018227972
Arizona,AZ,Bagdad,-113.17709810024202,34.577072825374536
Arizona,AZ,Bear Flat,-111.06739634339452,34.29248904816573
Arizona,AZ,Beaver Dam,-113.93633062511799,36.90706944402591
Arizona,AZ,Beaver Valley,-111.29867727958418,34.340944023779436
Arizona,AZ,Benson,-110.32565998358963,31.915685322463027
Arizona,AZ,Beyerville,-110.874781228301,31.3920501696435
Arizona,AZ,Bisbee,-109.9178645026122,31.412628636470508
Arizona,AZ,Bitter Springs,-111.64751288830229,36.61181630047428
Arizona,AZ,Black Canyon City,-112.12196548004698,34.0709482690753
Arizona,AZ,Blackwater,-111.57984054426613,33.03958811590168
Arizona,AZ,Bluewater,-114.26673024110077,34.16814199817577
Arizona,AZ,Bouse,-113.9962102290669,33.898425318058806
Arizona,AZ,Bowie,-109.48425958193775,32.32471414028362
Arizona,AZ,Brenda,-113.9378739166157,33.67207315376151
Arizona,AZ,Bryce,-109.82291861903332,32.925812770972044
Arizona,AZ,Buckeye,-112.64316888511692,33.44019437757193
Arizona,AZ,Buckshot,-114.48289166320421,32.74037996304139
Arizona,AZ,Bullhead City,-114.54603090899862,35.12047009770131
Arizona,AZ,Burnside,-109.62474065958963,35.75335766928821
Arizona,AZ,Bylas,-110.11627000761503,33.12922390153123
Arizona,AZ,Cactus Flats,-109.71730598899241,32.76404891972904
Arizona,AZ,Cactus Forest,-111.31701875917587,32.95781438661673
Arizona,AZ,Cameron,-111.42694854777457,35.85372879251763
Arizona,AZ,Camp Verde,-111.85730847853665,34.56988661223011
Arizona,AZ,Campo Bonito,-110.69840325182525,32.56288536116908
Arizona,AZ,Cane Beds,-112.91180910103357,36.93416303045857
Arizona,AZ,Canyon Day,-110.03278831247214,33.782566043701856
Arizona,AZ,Carefree,-111.91610537490573,33.823408281448856
Arizona,AZ,Carrizo,-110.3314371190933,33.98665204377131
Arizona,AZ,Casa Blanca,-111.90808525733327,33.11541997542577
Arizona,AZ,Casa Grande,-111.76238419203624,32.90683347866358
Arizona,AZ,Casas Adobes,-111.01136192757316,32.34229194912463
Arizona,AZ,Catalina,-110.89981396076648,32.484767006780956
Arizona,AZ,Catalina Foothills,-110.88351526343466,32.304080958187136
Arizona,AZ,Cave Creek,-111.9801305728602,33.85132956356773
Arizona,AZ,Cedar Creek,-110.19291909118996,33.90298413773122
Arizona,AZ,Centennial Park,-112.98130698994001,36.953800008498824
Arizona,AZ,Central,-109.79075378181794,32.86917969142721
Arizona,AZ,Central Heights-Midland City,-110.81526444917529,33.399970548147415
Arizona,AZ,Chandler,-111.8516119780046,33.282554962876304
Arizona,AZ,Charco,-112.60006265159748,32.24736936360387
Arizona,AZ,Chiawuli Tak,-111.77650078920975,31.941009274288124
Arizona,AZ,Chilchinbito,-110.0511939408509,36.502745036759904
Arizona,AZ,Chinle,-109.57935218679619,36.15043744003956
Arizona,AZ,Chino Valley,-112.41068256686572,34.75933547309261
Arizona,AZ,Chloride,-114.19728050597865,35.40968284357842
Arizona,AZ,Christopher Creek,-111.0071559064073,34.32064995075799
Arizona,AZ,Chuichu,-111.78214603682349,32.74032186658531
Arizona,AZ,Cibecue,-110.48536274925048,34.03327022528613
Arizona,AZ,Cibola,-114.67920478409613,33.373257613103995
Arizona,AZ,Cienega Springs,-114.20889974806254,34.200844756985354
Arizona,AZ,Citrus Park,-112.4439627754204,33.5303647811394
Arizona,AZ,Clacks Canyon,-114.07231940378648,35.220329975227656
Arizona,AZ,Clarkdale,-112.05501199557467,34.75032149697479
Arizona,AZ,Clay Springs,-110.30434913016377,34.359225955045424
Arizona,AZ,Claypool,-110.84213489832115,33.405989181791504
Arizona,AZ,Clifton,-109.28828848455461,33.02491844587237
Arizona,AZ,Colorado City,-112.9830011379193,36.9774176950726
Arizona,AZ,Comobabi,-111.80292477050989,32.05383686393386
Arizona,AZ,Concho,-109.61020247673387,34.47440871078671
Arizona,AZ,Congress,-112.86422329496487,34.15255366321197
Arizona,AZ,Coolidge,-111.52605370841846,32.93952923052136
Arizona,AZ,Copper Hill,-110.75160635311644,33.437883928287484
Arizona,AZ,Cordes Lakes,-112.10731795478219,34.3102843681341
Arizona,AZ,Cornfields,-109.67557787006501,35.65145148759594
Arizona,AZ,Cornville,-111.90857062274037,34.73893611268429
Arizona,AZ,Corona de Tucson,-110.78364008941341,31.94947460142215
Arizona,AZ,Cottonwood,-112.00138205479972,34.71919052286236
Arizona,AZ,Cottonwood,-109.89027485610902,36.07238214892006
Arizona,AZ,Cowlic,-111.98768273689427,31.804839559131352
Arizona,AZ,Crozier,-113.6486430778452,35.422720558714
Arizona,AZ,Crystal Beach,-114.3925731996866,34.57138131330178
Arizona,AZ,Cutter,-110.65928493544483,33.35838121538877
Arizona,AZ,Dateland,-113.54168079464102,32.82115329862955
Arizona,AZ,Deer Creek,-111.35051252338036,34.06442588578952
Arizona,AZ,Del Muerto,-109.43478199940554,36.186969018941106
Arizona,AZ,Dennehotso,-109.87899794263035,36.82085977969879
Arizona,AZ,Desert Hills,-114.37544157103524,34.55056955820295
Arizona,AZ,Dewey-Humboldt,-112.24978655871912,34.517455886379935
Arizona,AZ,Dilkon,-110.3155427949461,35.36060814578669
Arizona,AZ,Dolan Springs,-114.28516865096131,35.59045944283391
Arizona,AZ,Doney Park,-111.50532257489063,35.26868703772753
Arizona,AZ,Donovan Estates,-114.67822057972653,32.70935429013197
Arizona,AZ,Douglas,-109.53740698217082,31.356337468356674
Arizona,AZ,Dragoon,-110.03647275388492,32.02632457153723
Arizona,AZ,Drexel Heights,-111.04783177252227,32.14572502342005
Arizona,AZ,Dripping Springs,-110.75513918751682,33.10498113394137
Arizona,AZ,Drysdale,-114.70671663113222,32.64520973143516
Arizona,AZ,Dudleyville,-110.73453156522635,32.91275099101089
Arizona,AZ,Duncan,-109.09722323982055,32.73439808932843
Arizona,AZ,Eagar,-109.2955576480721,34.1057669721471
Arizona,AZ,East Fork,-109.92272700132126,33.808143389505844
Arizona,AZ,East Globe,-110.70606007193595,33.351122513166096
Arizona,AZ,East Verde Estates,-111.36453317686336,34.29826916162458
Arizona,AZ,Ehrenberg,-114.48827661440592,33.61743772907067
Arizona,AZ,El Capitan,-110.78326596501886,33.23834620193431
Arizona,AZ,El Mirage,-112.32712189849435,33.590514205155635
Arizona,AZ,El Prado Estates,-114.52146581773277,32.706191432769685
Arizona,AZ,Elephant Head,-110.99206125173224,31.765912457743077
Arizona,AZ,Elfrida,-109.68960229119008,31.685781963721915
Arizona,AZ,Elgin,-110.53470465089283,31.668018253728913
Arizona,AZ,Eloy,-111.5990577525033,32.74699209430935
Arizona,AZ,First Mesa,-110.36651870997508,35.838909402895005
Arizona,AZ,Flagstaff,-111.61947666176005,35.18721482058051
Arizona,AZ,Florence,-111.42084008270533,33.059028664099685
Arizona,AZ,Flowing Springs,-111.33791235340308,34.31309082154961
Arizona,AZ,Flowing Wells,-111.01098568341484,32.29372266069202
Arizona,AZ,Fort Apache,-109.98728443605151,33.79073327170691
Arizona,AZ,Fort Defiance,-109.06847880331037,35.74688722491645
Arizona,AZ,Fort Mohave,-114.57480430131521,35.000384919189734
Arizona,AZ,Fort Thomas,-109.96648901726458,33.022216118910244
Arizona,AZ,Fort Valley,-111.72528799296722,35.25539434702537
Arizona,AZ,Fortuna Foothills,-114.39734731408403,32.66159189410044
Arizona,AZ,Fountain Hills,-111.73980824399858,33.60727147720565
Arizona,AZ,Franklin,-109.0720226450004,32.67703185648398
Arizona,AZ,Fredonia,-112.5195137080994,36.96172055335791
Arizona,AZ,Freedom Acres,-111.30510881719333,34.31992030328599
Arizona,AZ,Gadsden,-114.78103890047673,32.55639394951061
Arizona,AZ,Ganado,-109.55035848584426,35.701630099357295
Arizona,AZ,Geronimo Estates,-111.3617062842752,34.369523641579576
Arizona,AZ,Gila Bend,-112.71548177456964,32.96623947438606
Arizona,AZ,Gila Crossing,-112.16265911586548,33.27303331051951
Arizona,AZ,Gilbert,-111.74628838380832,33.310070558153186
Arizona,AZ,Gisela,-111.28947724477484,34.10151937287247
Arizona,AZ,Glendale,-112.22910720940177,33.57943689285473
Arizona,AZ,Globe,-110.75145270052599,33.386943068049966
Arizona,AZ,Gold Canyon,-111.43688698040543,33.37147815289332
Arizona,AZ,Golden Shores,-114.47771523860101,34.78188659791205
Arizona,AZ,Golden Valley,-114.23270215619607,35.206043385221825
Arizona,AZ,Goodyear,-112.3621528719782,33.26118174786402
Arizona,AZ,Goodyear Village,-111.87237000339981,33.19730418536024
Arizona,AZ,Grand Canyon Village,-112.15660842118173,36.04920581334926
Arizona,AZ,Grand Canyon West,-113.81025194167128,35.999790379589065
Arizona,AZ,Greasewood,-109.8613723115442,35.52794160929949
Arizona,AZ,Green Valley,-111.01743980661261,31.843561135508253
Arizona,AZ,Greer,-109.46108422393318,34.005382164402334
Arizona,AZ,Gu Oidak,-112.02334000310617,31.92055314773476
Arizona,AZ,Guadalupe,-111.96325046825788,33.366444140112165
Arizona,AZ,Hackberry,-113.72561970464534,35.34013948878368
Arizona,AZ,Haigler Creek,-110.97194980421519,34.21626675098715
Arizona,AZ,Haivana Nakya,-111.71239989351298,32.0051493047871
Arizona,AZ,Hard Rock,-110.50483326333018,36.03090414417288
Arizona,AZ,Hayden,-110.7814447983774,32.999539553424064
Arizona,AZ,Heber-Overgaard,-110.56957267737658,34.414092431321706
Arizona,AZ,Holbrook,-110.16719299727232,34.90437113081887
Arizona,AZ,Hondah,-109.91496039692385,34.0860006869883
Arizona,AZ,Hotevilla-Bacavi,-110.65691005270935,35.92251711894422
Arizona,AZ,Houck,-109.22364773932706,35.27144805799664
Arizona,AZ,Huachuca City,-110.34217504448935,31.630791383759775
Arizona,AZ,Hunter Creek,-111.01593619308177,34.3053607911309
Arizona,AZ,Icehouse Canyon,-110.79651967957486,33.35533974027214
Arizona,AZ,Indian Wells,-110.10613212860324,35.40887395578421
Arizona,AZ,Jakes Corner,-111.32022572375656,34.00830332934897
Arizona,AZ,Jeddito,-110.13045809801392,35.769706082599
Arizona,AZ,Jerome,-112.10723907447493,34.74662601678555
Arizona,AZ,Joseph City,-110.32736254143845,34.96137053268959
Arizona,AZ,Kachina Village,-111.6926732812071,35.094867800628954
Arizona,AZ,Kaibab,-112.72366853720715,36.88148650515897
Arizona,AZ,Kaibito,-111.10708891657816,36.59200407704491
Arizona,AZ,Kaka,-112.31674060951286,32.51131157016157
Arizona,AZ,Katherine,-114.56154695856634,35.220560956152816
Arizona,AZ,Kayenta,-110.25894423096814,36.714374841052816
Arizona,AZ,Keams Canyon,-110.20109777275172,35.82294822170044
Arizona,AZ,Kearny,-110.90738295387669,33.056352050063516
Arizona,AZ,Kingman,-114.01050925018372,35.21700573821613
Arizona,AZ,Kino Springs,-110.80961329338814,31.364172815018676
Arizona,AZ,Klagetoh,-109.52827859385407,35.50106200764312
Arizona,AZ,Ko Vaya,-111.89591509796244,32.0814958062876
Arizona,AZ,Kohatk,-112.00323338143053,32.57814186916799
Arizona,AZ,Kohls Ranch,-111.08380277480953,34.32102348126713
Arizona,AZ,Komatke,-112.16148456549752,33.29526964858551
Arizona,AZ,Kykotsmovi Village,-110.63377347510001,35.85759156055225
Arizona,AZ,La Paz Valley,-114.24344613587402,33.558189636003306
Arizona,AZ,Lake Havasu City,-114.31129420927624,34.50058862574304
Arizona,AZ,Lake Montezuma,-111.79598085551109,34.641410910494166
Arizona,AZ,Lake of the Woods,-109.99362242567149,34.15473512579337
Arizona,AZ,Lazy Y U,-113.96843064691673,35.136865686927386
Arizona,AZ,LeChee,-111.43278320298398,36.87098904671192
Arizona,AZ,Leupp,-111.0027463013252,35.29663231380608
Arizona,AZ,Linden,-110.14241938415908,34.26247719257779
Arizona,AZ,Litchfield Park,-112.35837016572118,33.49955966560188
Arizona,AZ,Littlefield,-113.9357563879086,36.86626235438531
Arizona,AZ,Low Mountain,-110.09810416097027,35.948113910870084
Arizona,AZ,Lower Santan Village,-111.78531511961901,33.14272612640558
Arizona,AZ,Lukachukai,-109.22670149693828,36.41115972161549
Arizona,AZ,Lupton,-109.05281564527577,35.35475594139162
Arizona,AZ,Maish Vaya,-112.13423327895255,32.17032351388209
Arizona,AZ,Mammoth,-110.72921397447024,32.685265675834984
Arizona,AZ,Many Farms,-109.6271347847428,36.35319458990518
Arizona,AZ,Marana,-111.15584141654621,32.435475493061574
Arizona,AZ,Maricopa,-111.99593581128832,33.03878545867316
Arizona,AZ,Maricopa Colony,-112.22678861655795,33.36260725094767
Arizona,AZ,Martinez Lake,-114.4722140636164,32.98429203893936
Arizona,AZ,Mayer,-112.24078991821169,34.42332239628716
Arizona,AZ,McConnico,-114.08975784106099,35.163583678197
Arizona,AZ,McNary,-109.85414827375973,34.09234339071704
Arizona,AZ,McNeal,-109.66987742424081,31.60787162336839
Arizona,AZ,Mead Ranch,-111.14301659303172,34.346074725508636
Arizona,AZ,Meadview,-114.07887046014024,35.9531339168859
Arizona,AZ,Mesa,-111.71818062557816,33.40162523548901
Arizona,AZ,Mesa del Caballo,-111.29521455651867,34.285977577822415
Arizona,AZ,Mescal,-110.43677320897551,31.967460822704517
Arizona,AZ,Mesquite Creek,-114.57136753603858,34.96059702476138
Arizona,AZ,Miami,-110.87211919505059,33.395128626874715
Arizona,AZ,Miracle Valley,-110.14843756406727,31.382891086778486
Arizona,AZ,Moccasin,-112.75460506057033,36.90988202597404
Arizona,AZ,Moenkopi,-111.2212370924259,36.11244167017117
Arizona,AZ,Mohave Valley,-114.57324781490404,34.90084251527585
Arizona,AZ,Mojave Ranch Estates,-114.59065365668457,34.944910103232395
Arizona,AZ,Morenci,-109.33070528458002,33.05310321650118
Arizona,AZ,Morristown,-112.61352269251704,33.8548239940818
Arizona,AZ,Mountainaire,-111.64933020344469,35.0920530016944
Arizona,AZ,Munds Park,-111.63182744494497,34.938196335958786
Arizona,AZ,Naco,-109.93359676048637,31.343050326499142
Arizona,AZ,Nazlini,-109.47255073188516,35.91552483900365
Arizona,AZ,Nelson,-111.26489147017128,32.42982838129127
Arizona,AZ,New Kingman-Butler,-114.00911308897946,35.26447506015318
Arizona,AZ,New River,-112.08582761791325,33.883487148454705
Arizona,AZ,Nogales,-110.93358777177737,31.362359608404116
Arizona,AZ,Nolic,-111.95495437109649,32.034073530497054
Arizona,AZ,North Fork,-109.95927783780212,33.99650892363786
Arizona,AZ,Nutrioso,-109.20578748188963,33.95145189501717
Arizona,AZ,Oak Springs,-109.13183781464672,35.47599937860635
Arizona,AZ,Oatman,-114.38397287529422,35.027450438891485
Arizona,AZ,Oljato-Monument Valley,-110.19104211000865,36.986723487315864
Arizona,AZ,Oracle,-110.78257656938011,32.60849505729541
Arizona,AZ,Orange Grove Mobile Manor,-114.66058638168927,32.59844421995418
Arizona,AZ,Oro Valley,-110.97676221229582,32.420757468211995
Arizona,AZ,Oxbow Estates,-111.34298719100221,34.182405674198485
Arizona,AZ,Padre Ranchitos,-114.64164346722403,32.64969515132774
Arizona,AZ,Page,-111.50710731237996,36.942561464417366
Arizona,AZ,Palominas,-110.1211871348653,31.383827793607992
Arizona,AZ,Paradise Valley,-111.95953785321755,33.54342225896662
Arizona,AZ,Parker,-114.21712780759482,34.01906988296835
Arizona,AZ,Parker Strip,-114.12685808240461,34.28027232996922
Arizona,AZ,Parks,-111.97714012142329,35.29389285178222
Arizona,AZ,Patagonia,-110.74772834481362,31.54358209739743
Arizona,AZ,Paulden,-112.49379930053158,34.889913551384794
Arizona,AZ,Payson,-111.31949595491635,34.24335199897933
Arizona,AZ,Peach Springs,-113.43192024140934,35.53146097665329
Arizona,AZ,Peeples Valley,-112.76535020718711,34.27725427327415
Arizona,AZ,Peoria,-112.2989390764059,33.784395200790804
Arizona,AZ,Peridot,-110.45542007502435,33.30152135988311
Arizona,AZ,Phoenix,-112.08910729038602,33.57224828969942
Arizona,AZ,Picacho,-111.49082500176587,32.70901385768046
Arizona,AZ,Picture Rocks,-111.25574479031417,32.327379503628435
Arizona,AZ,Pima,-109.84370091049242,32.8885555959375
Arizona,AZ,Pimaco Two,-110.46635553062222,31.9666011747759
Arizona,AZ,Pinal,-110.75712007942417,33.37991595357318
Arizona,AZ,Pine,-111.45735427557976,34.378798877286286
Arizona,AZ,Pine Lake,-113.87394059186767,35.088689253980384
Arizona,AZ,Pinedale,-110.25990236831964,34.320755603881395
Arizona,AZ,Pinetop Country Club,-109.89093719938677,34.11634658628961
Arizona,AZ,Pinetop-Lakeside,-109.9657881578481,34.14863833572056
Arizona,AZ,Pinion Pines,-113.90581352753105,35.14663020668697
Arizona,AZ,Pinon,-110.22093099388914,36.09920396459047
Arizona,AZ,Pirtleville,-109.56614174911583,31.36131714855155
Arizona,AZ,Pisinemo,-112.31923841853762,32.034938530740135
Arizona,AZ,Poston,-114.40455479765708,33.9920861561616
Arizona,AZ,Prescott,-112.44750509078013,34.58496631940247
Arizona,AZ,Prescott Valley,-112.31858572961123,34.59686384877734
Arizona,AZ,Quartzsite,-114.21704990208677,33.66748846470031
Arizona,AZ,Queen Creek,-111.62850002478257,33.247457082151
Arizona,AZ,Queen Valley,-111.30495160039268,33.28302929652803
Arizona,AZ,Rainbow City,-109.9763221602053,33.87307429566791
Arizona,AZ,Rancho Mesa Verde,-114.65508142909522,32.59438765178004
Arizona,AZ,Red Mesa,-109.38278794212788,36.96640063430164
Arizona,AZ,Red Rock,-109.0625487980701,36.598924870726904
Arizona,AZ,Red Rock,-111.37448868252623,32.56098096337538
Arizona,AZ,Rillito,-111.15492800000001,32.415692666666665
Arizona,AZ,Rincon Valley,-110.68885273183032,32.1100672406233
Arizona,AZ,Rio Rico,-110.98860574209925,31.495691195596976
Arizona,AZ,Rio Verde,-111.67404644295198,33.72780556520005
Arizona,AZ,Rock House,-110.94564455056269,33.63182005383597
Arizona,AZ,Rock Point,-109.62872619640169,36.7173288794076
Arizona,AZ,Roosevelt,-111.12951874594259,33.66184147940004
Arizona,AZ,Rough Rock,-109.86911969243832,36.41058747478653
Arizona,AZ,Round Rock,-109.46159099910888,36.504375418689435
Arizona,AZ,Round Valley,-111.30178679561519,34.1877497047833
Arizona,AZ,Rye,-111.35425367942194,34.09784386599806
Arizona,AZ,Sacate Village,-111.98108487627177,33.1416379367753
Arizona,AZ,Sacaton,-111.76828131015033,33.07929679373176
Arizona,AZ,Sacaton Flats Village,-111.65899652927024,33.055887191558604
Arizona,AZ,Saddlebrooke,-110.85818148182788,32.538549301283744
Arizona,AZ,Safford,-109.70053350996379,32.831712509255695
Arizona,AZ,Sahuarita,-110.9654016591072,31.932253398546294
Arizona,AZ,Salome,-113.60607581866348,33.77778363570302
Arizona,AZ,San Carlos,-110.46541063041222,33.34996188679781
Arizona,AZ,San Jose,-109.59574696272432,32.816895573404665
Arizona,AZ,San Luis,-114.70894411247207,32.49109880912676
Arizona,AZ,San Manuel,-110.64153869490534,32.60914108758785
Arizona,AZ,San Miguel,-111.78009768533728,31.629507423495095
Arizona,AZ,San Simon,-109.2308343992014,32.26795054900446
Arizona,AZ,San Tan Valley,-111.54724426664855,33.18789844330952
Arizona,AZ,Sanders,-109.32240344675841,35.20954821375821
Arizona,AZ,Santa Cruz,-112.15928952329482,33.232618023394615
Arizona,AZ,Santa Rosa,-112.04641067949039,32.332556491644944
Arizona,AZ,Sawmill,-109.15376171162464,35.892446203270765
Arizona,AZ,Scenic,-114.01511849549969,36.79307962213943
Arizona,AZ,Scottsdale,-111.86506557401385,33.68717434294792
Arizona,AZ,Seba Dalkai,-110.45618474271626,35.48156273744183
Arizona,AZ,Second Mesa,-110.48842517102484,35.822213227455656
Arizona,AZ,Sedona,-111.7951000327368,34.85744386874812
Arizona,AZ,Sehili,-109.1814164170717,36.280709662368224
Arizona,AZ,Seligman,-112.85734331332974,35.32559699851992
Arizona,AZ,Sells,-111.87751725903853,31.920236344619244
Arizona,AZ,Seven Mile,-109.95758967262525,33.78823561655476
Arizona,AZ,Shongopovi,-110.53308915709987,35.81951368332692
Arizona,AZ,Shonto,-110.66071528179498,36.5893181643795
Arizona,AZ,Show Low,-110.03840108501129,34.267123772690766
Arizona,AZ,Sierra Vista,-110.3153281981462,31.563007785062982
Arizona,AZ,Sierra Vista Southeast,-110.2159762570487,31.45245264852925
Arizona,AZ,Six Shooter Canyon,-110.771967226133,33.356847367771365
Arizona,AZ,Snowflake,-110.09129505460824,34.52248334527967
Arizona,AZ,So-Hi,-114.14160002654232,35.252665768191925
Arizona,AZ,Solomon,-109.62892159720494,32.81371506502235
Arizona,AZ,Somerton,-114.69904072149127,32.6008990135411
Arizona,AZ,Sonoita,-110.64260799323287,31.664531519109286
Arizona,AZ,South Komelik,-111.77442902423111,31.71444502426783
Arizona,AZ,South Tucson,-110.96917691579667,32.19552312428273
Arizona,AZ,Spring Valley,-112.15132673741682,34.35311228863309
Arizona,AZ,Springerville,-109.29889064370917,34.15598905029906
Arizona,AZ,St. David,-110.22510448727574,31.89923023530234
Arizona,AZ,St. Johns,-109.37842249837017,34.501784386595936
Arizona,AZ,St. Johns,-112.18864781503227,33.308732856820534
Arizona,AZ,St. Michaels,-109.09621054547053,35.660591160002596
Arizona,AZ,Stanfield,-111.9635696100007,32.87938398199255
Arizona,AZ,Star Valley,-111.21971719325931,34.26105391058621
Arizona,AZ,Steamboat,-109.85038148566984,35.75350756737898
Arizona,AZ,Stotonic Village,-111.81673675333727,33.15279630286237
Arizona,AZ,Strawberry,-111.50021622768782,34.401792786511926
Arizona,AZ,Summerhaven,-110.77657445978393,32.441578418416555
Arizona,AZ,Summit,-110.94831506639056,32.06192592206664
Arizona,AZ,Sun City,-112.28191162367322,33.61648500885288
Arizona,AZ,Sun City West,-112.35748780956416,33.66932425670657
Arizona,AZ,Sun Lakes,-111.86945773366057,33.21718377473831
Arizona,AZ,Sun Valley,-110.0374405242328,34.9834605565438
Arizona,AZ,Sunizona,-109.63283404025726,31.884089449220824
Arizona,AZ,Sunwest,-113.40909860350159,33.65100044444408
Arizona,AZ,Supai,-112.69258725123736,36.22985060565273
Arizona,AZ,Superior,-111.1109393918368,33.285116530947064
Arizona,AZ,Surprise,-112.45240619965047,33.679973340248445
Arizona,AZ,Sweet Water Village,-111.84237871629394,33.12743695358217
Arizona,AZ,Swift Trail Junction,-109.7147088127941,32.7305100928248
Arizona,AZ,Tacna,-113.96182400841361,32.700420587126914
Arizona,AZ,Tanque Verde,-110.74371654005854,32.268743124730385
Arizona,AZ,Tat Momoli,-111.88616369468154,32.601286517334785
Arizona,AZ,Taylor,-110.10181349429382,34.43930206651269
Arizona,AZ,Teec Nos Pos,-109.07529464761537,36.92206495896192
Arizona,AZ,Tees Toh,-110.39891743481249,35.48490210701774
Arizona,AZ,Tempe,-111.93179868333671,33.3881375257247
Arizona,AZ,Thatcher,-109.75950330645175,32.83203872193958
Arizona,AZ,Theba,-112.88986072328633,32.91819155445707
Arizona,AZ,Three Points,-111.28655244785892,32.05962277846038
Arizona,AZ,Tolani Lake,-110.84311476359744,35.4309238361349
Arizona,AZ,Tolleson,-112.25606980316165,33.4484278883415
Arizona,AZ,Tombstone,-110.07978215782084,31.723375767933035
Arizona,AZ,Tonalea,-110.96666729026542,36.321770051715504
Arizona,AZ,Tonopah,-112.9308230633755,33.487988848323894
Arizona,AZ,Tonto Basin,-111.30033719219412,33.83608570276181
Arizona,AZ,Tonto Village,-111.13940681013018,34.31981688471919
Arizona,AZ,Top-of-the-World,-110.99970321246235,33.347685865146936
Arizona,AZ,Topawa,-111.8304611817366,31.807834909036803
Arizona,AZ,Topock,-114.4779806152823,34.72055807052509
Arizona,AZ,Toyei,-109.93703450863829,35.70434510544533
Arizona,AZ,Truxton,-113.56072748250523,35.487000342740195
Arizona,AZ,Tsaile,-109.21568395966446,36.30331727443186
Arizona,AZ,Tuba City,-111.24675446993352,36.12496475353896
Arizona,AZ,Tubac,-111.05847004561421,31.611149755827007
Arizona,AZ,Tucson,-110.87823952978398,32.15446840232309
Arizona,AZ,Tucson Estates,-111.12537363562518,32.17917693758323
Arizona,AZ,Tumacacori-Carmen,-111.04688346176815,31.57710816227245
Arizona,AZ,Turkey Creek,-109.9461209935122,33.80107815346768
Arizona,AZ,Tusayan,-112.12020115455952,35.954956346524646
Arizona,AZ,Upper Santan Village,-111.74184953062539,33.11522656312806
Arizona,AZ,Utting,-113.91285219327344,33.85441617726244
Arizona,AZ,Vail,-110.6936939862719,32.021741829621405
Arizona,AZ,Vaiva Vo,-111.92690567424323,32.716655183092435
Arizona,AZ,Valencia West,-111.1122909353365,32.135461849772206
Arizona,AZ,Valentine,-113.65909164085926,35.38858179762913
Arizona,AZ,Valle,-112.13500014816644,35.624472552763294
Arizona,AZ,Valle Vista,-113.86267104476853,35.41094707125114
Arizona,AZ,Ventana,-112.24341031224634,32.46806447590251
Arizona,AZ,Verde Village,-111.98559999696717,34.71468595891169
Arizona,AZ,Vernon,-109.69263284146545,34.250892061092145
Arizona,AZ,Vicksburg,-113.82544679915918,33.7292788375184
Arizona,AZ,Village of Oak Creek (Big Park),-111.76060477583506,34.781257842770884
Arizona,AZ,Wagon Wheel,-110.02053643644967,34.191453653856925
Arizona,AZ,Wahak Hotrontk,-112.36628799855731,32.174771792783666
Arizona,AZ,Wall Lane,-114.71052500248013,32.657293493084026
Arizona,AZ,Walnut Creek,-114.12665561462738,35.13122349736221
Arizona,AZ,Washington Park,-111.27312566407441,34.39781550782354
Arizona,AZ,Wellton,-114.21397189375392,32.640005543691885
Arizona,AZ,Wellton Hills,-114.14531830391746,32.62315808346243
Arizona,AZ,Wenden,-113.54328380846788,33.832429025985455
Arizona,AZ,Wet Camp Village,-111.90038946842468,33.14131145442102
Arizona,AZ,Wheatfields,-110.8365939316196,33.48049451619582
Arizona,AZ,Whetstone,-110.33981147240252,31.701064419707695
Arizona,AZ,Whispering Pines,-111.28129352579761,34.37282178932092
Arizona,AZ,White Hills,-114.40038021933567,35.72418099559427
Arizona,AZ,White Mountain Lake,-109.98785391521822,34.34411387103227
Arizona,AZ,Whitecone,-110.07910413282845,35.603703407243394
Arizona,AZ,Whiteriver,-109.96164389938289,33.835797623077646
Arizona,AZ,Why,-112.73073736704266,32.25896789163404
Arizona,AZ,Wickenburg,-112.76684130198204,33.98372079208133
Arizona,AZ,Wide Ruins,-109.49947622096491,35.41750559618304
Arizona,AZ,Wikieup,-113.5995438064662,34.69307058271555
Arizona,AZ,Wilhoit,-112.61561744689678,34.408251045057156
Arizona,AZ,Willcox,-109.83589566320384,32.25142404974631
Arizona,AZ,Williams,-112.1832922116259,35.247602619333016
Arizona,AZ,Williamson,-112.53422453903087,34.70822121891175
Arizona,AZ,Willow Canyon,-110.70100282099847,32.38811357232275
Arizona,AZ,Willow Valley,-114.61586950427206,34.929600542306716
Arizona,AZ,Window Rock,-109.06390139660692,35.67049005254774
Arizona,AZ,Winkelman,-110.76175587728287,32.98262767925435
Arizona,AZ,Winslow,-110.70984654811379,35.025250675097304
Arizona,AZ,Winslow West,-110.70690654645641,34.99230136983374
Arizona,AZ,Wintersburg,-112.86656628937264,33.418677232913936
Arizona,AZ,Wittmann,-112.52508880275599,33.77493822016586
Arizona,AZ,Woodruff,-110.0366086109457,34.78430899602748
Arizona,AZ,Yarnell,-112.7630620665844,34.228251507561666
Arizona,AZ,York,-109.19601120524946,32.917480706095894
Arizona,AZ,Young,-110.95590065191521,34.118859070077754
Arizona,AZ,Youngtown,-112.30474879041763,33.58455464005727
Arizona,AZ,Yucca,-114.14613912764017,34.86302287278314
Arizona,AZ,Yuma,-114.54879305436101,32.599185444764984
Arkansas,AR,Adona,-92.89913679528371,35.039930999046526
Arkansas,AR,Alexander,-92.45124610292457,34.618508753724676
Arkansas,AR,Alicia,-91.08345260916211,35.8928914138765
Arkansas,AR,Allport,-91.78403640729572,34.53993170833128
Arkansas,AR,Alma,-94.2165586277042,35.49186431801822
Arkansas,AR,Almyra,-91.41084657855926,34.40568447200102
Arkansas,AR,Alpena,-93.30374029527326,36.289648102730716
Arkansas,AR,Altheimer,-91.84805505297994,34.32421946760626
Arkansas,AR,Altus,-93.7643214863211,35.44653776760605
Arkansas,AR,Amagon,-91.10935113034755,35.56319910787717
Arkansas,AR,Amity,-93.4633963739973,34.266210084928446
Arkansas,AR,Anthonyville,-90.34033348462816,35.03983505677518
Arkansas,AR,Antoine,-93.42263072763758,34.03432776449891
Arkansas,AR,Arkadelphia,-93.07254233681962,34.125526715479715
Arkansas,AR,Arkansas City,-91.20478361328774,33.608955990153916
Arkansas,AR,Ash Flat,-91.60810569710215,36.23567108408432
Arkansas,AR,Ashdown,-94.12644813908422,33.674560737551886
Arkansas,AR,Atkins,-92.94654008128784,35.24142356256058
Arkansas,AR,Aubrey,-90.89759242080103,34.71931627082377
Arkansas,AR,Augusta,-91.36141759039067,35.28655331886692
Arkansas,AR,Austin,-91.98946975909847,35.006093756274474
Arkansas,AR,Avilla,-92.58131000655138,34.698843446334315
Arkansas,AR,Avoca,-94.07095869450984,36.39801172682018
Arkansas,AR,Bald Knob,-91.57089621844881,35.312332140987095
Arkansas,AR,Banks,-92.2671183116552,33.575793740523814
Arkansas,AR,Barling,-94.27922449321566,35.32843616594947
Arkansas,AR,Bassett,-90.1294308030041,35.53555706049097
Arkansas,AR,Batesville,-91.62255816328324,35.76869785472902
Arkansas,AR,Bauxite,-92.4987684911572,34.56019889423291
Arkansas,AR,Bay,-90.55468196090985,35.74616868294422
Arkansas,AR,Bearden,-92.61866233737082,33.72764158819003
Arkansas,AR,Beaver,-93.772722885799,36.47520436371498
Arkansas,AR,Beebe,-91.89957802040308,35.07120205530267
Arkansas,AR,Beedeville,-91.11074633580355,35.4291917008268
Arkansas,AR,Bella Vista,-94.27072263772155,36.46668798273695
Arkansas,AR,Bellefonte,-93.04701694343599,36.199807250434986
Arkansas,AR,Belleville,-93.44578507270403,35.0915290790245
Arkansas,AR,Ben Lomond,-94.11766566323216,33.83354416918425
Arkansas,AR,Benton,-92.57124086957336,34.57754430455583
Arkansas,AR,Bentonville,-94.23043717288768,36.35484103750418
Arkansas,AR,Bergman,-93.0115390427403,36.31282518729823
Arkansas,AR,Berryville,-93.57037743179164,36.371268073727045
Arkansas,AR,Bethel Heights,-94.12817283408532,36.22620922233466
Arkansas,AR,Big Flat,-92.40663021062925,36.00556214859581
Arkansas,AR,Bigelow,-92.63123783077599,34.997700168249864
Arkansas,AR,Biggers,-90.80518645855476,36.33189963440531
Arkansas,AR,Birdsong,-90.25969620404716,35.461178079299806
Arkansas,AR,Black Oak,-90.36765816631473,35.83647729276094
Arkansas,AR,Black Rock,-91.10741135669475,36.10696676539322
Arkansas,AR,Black Springs,-93.7123320184358,34.46073239639697
Arkansas,AR,Blevins,-93.57781801999165,33.87156344376732
Arkansas,AR,Blue Eye,-93.3977164218463,36.496642464235464
Arkansas,AR,Blue Mountain,-93.71622150653452,35.13109909975407
Arkansas,AR,Bluff City,-93.13156137615464,33.72238313573712
Arkansas,AR,Blytheville,-89.90510694509742,35.93213748191185
Arkansas,AR,Bodcaw,-93.40129266933533,33.560709388405456
Arkansas,AR,Bonanza,-94.41679263166988,35.23348064850153
Arkansas,AR,Bono,-90.80085818463087,35.91115879468955
Arkansas,AR,Booneville,-93.91790266251517,35.13926401529417
Arkansas,AR,Bradford,-91.45524629395025,35.42198372460927
Arkansas,AR,Bradley,-93.65692503738622,33.09934249603294
Arkansas,AR,Branch,-93.95564512354024,35.30749775874579
Arkansas,AR,Briarcliff,-92.28236373152866,36.27213797912417
Arkansas,AR,Brinkley,-91.19024478426738,34.88999855498368
Arkansas,AR,Brookland,-90.57685210138854,35.89877610901914
Arkansas,AR,Bryant,-92.49137042366013,34.61517097696965
Arkansas,AR,Buckner,-93.43579688274109,33.357193467967775
Arkansas,AR,Bull Shoals,-92.59026697549646,36.37473119704272
Arkansas,AR,Burdette,-89.9456741246296,35.81532549279185
Arkansas,AR,Cabot,-92.02737773147214,34.97679524185721
Arkansas,AR,Caddo Valley,-93.06728169563117,34.18985438852713
Arkansas,AR,Caldwell,-90.81359084190024,35.078837339611106
Arkansas,AR,Cale,-93.23477983390127,33.62786344380931
Arkansas,AR,Calico Rock,-92.13374215173167,36.13990189170857
Arkansas,AR,Calion,-92.54020365858639,33.32847083940607
Arkansas,AR,Camden,-92.84667315355122,33.56721494986033
Arkansas,AR,Cammack Village,-92.34494712058651,34.780758159353184
Arkansas,AR,Campbell Station,-91.25382680277015,35.6677902847144
Arkansas,AR,Caraway,-90.32244289830149,35.75982567513663
Arkansas,AR,Carlisle,-91.73613858685495,34.79470023137846
Arkansas,AR,Carthage,-92.55531553473163,34.072619665890976
Arkansas,AR,Casa,-93.04482581205887,35.02530776350264
Arkansas,AR,Cash,-90.93147192126862,35.80130566200468
Arkansas,AR,Caulksville,-93.86804775935077,35.30172754837575
Arkansas,AR,Cave City,-91.54675721349751,35.94814938655869
Arkansas,AR,Cave Springs,-94.22327613262651,36.26303867089239
Arkansas,AR,Cedarville,-94.36154777510956,35.58304874616487
Arkansas,AR,Center Ridge,-92.57022995617055,35.38059181602832
Arkansas,AR,Centerton,-94.29740590446501,36.35575034436954
Arkansas,AR,Central City,-94.23469349948537,35.33003406801901
Arkansas,AR,Charleston,-94.04608842377758,35.29535169396796
Arkansas,AR,Cherokee City,-94.5768578194162,36.294686454584124
Arkansas,AR,Cherokee Village,-91.56958967214412,36.29585872808699
Arkansas,AR,Cherry Valley,-90.75453656675053,35.40207019615256
Arkansas,AR,Chester,-94.17784699151875,35.677790927399535
Arkansas,AR,Chidester,-93.02380242656166,33.70196551976379
Arkansas,AR,Clarendon,-91.30616108364624,34.69352346638001
Arkansas,AR,Clarkedale,-90.21027203462103,35.29703837757947
Arkansas,AR,Clarksville,-93.4803131999757,35.45695881126921
Arkansas,AR,Clinton,-92.4543309998646,35.57962860381095
Arkansas,AR,Coal Hill,-93.66469445260995,35.43745560019297
Arkansas,AR,College Station,-92.22963957332712,34.704969241358
Arkansas,AR,Colt,-90.8129533353093,35.132878659413045
Arkansas,AR,Concord,-91.8489770141426,35.66248651572492
Arkansas,AR,Conway,-92.46940623591621,35.075445147409006
Arkansas,AR,Corinth,-93.42352211648249,35.06927828848996
Arkansas,AR,Corning,-90.58605080673627,36.41107133836077
Arkansas,AR,Cotter,-92.5212162248735,36.28185245465528
Arkansas,AR,Cotton Plant,-91.25200285138695,35.00593695717498
Arkansas,AR,Cove,-94.41604913216015,34.43657206202307
Arkansas,AR,Coy,-91.87131717023213,34.54051714886893
Arkansas,AR,Crawfordsville,-90.32412289850984,35.22667533730462
Arkansas,AR,Crossett,-91.96309765411267,33.12798280965703
Arkansas,AR,Cushman,-91.77808600007434,35.86584695213527
Arkansas,AR,Daisy,-93.74056068920302,34.234912056213375
Arkansas,AR,Damascus,-92.41075146003638,35.36710901560678
Arkansas,AR,Danville,-93.39018325815921,35.05296763688079
Arkansas,AR,Dardanelle,-93.16494946100273,35.22633994639073
Arkansas,AR,Datto,-90.72851016276323,36.39246327934249
Arkansas,AR,De Queen,-94.34197686795825,34.04259206096923
Arkansas,AR,De Valls Bluff,-91.46020594601458,34.78592191533253
Arkansas,AR,Decatur,-94.4577946590433,36.34017640800021
Arkansas,AR,Delaplaine,-90.7256495678861,36.23036918010171
Arkansas,AR,Delight,-93.50565849426843,34.029852593967135
Arkansas,AR,Dell,-90.02596576582931,35.85915592676121
Arkansas,AR,Dennard,-92.53935883282318,35.74982656028699
Arkansas,AR,Denning,-93.75675411000803,35.425151497789074
Arkansas,AR,Dermott,-91.43238236132972,33.527094507469165
Arkansas,AR,Des Arc,-91.5067824623933,34.977673150861676
Arkansas,AR,DeWitt,-91.33830162001077,34.28732702693126
Arkansas,AR,Diamond City,-92.9129124226613,36.457462486261726
Arkansas,AR,Diaz,-91.26201957216797,35.647832375862485
Arkansas,AR,Dierks,-94.01732926928644,34.120763053607426
Arkansas,AR,Donaldson,-92.91947885784415,34.234966100223645
Arkansas,AR,Dover,-93.11428061254827,35.39103586613357
Arkansas,AR,Dumas,-91.48609091346617,33.88487080595167
Arkansas,AR,Dyer,-94.13880999415461,35.494373746470615
Arkansas,AR,Dyess,-90.2132897669641,35.589353783114774
Arkansas,AR,Earle,-90.46424697486374,35.273407654905725
Arkansas,AR,East Camden,-92.7435500452063,33.60823643656976
Arkansas,AR,East End,-92.32612780647459,34.555426927709334
Arkansas,AR,Edmondson,-90.30522389550367,35.104052701514
Arkansas,AR,Egypt,-90.94566945130083,35.86759042310085
Arkansas,AR,El Dorado,-92.66404753033574,33.21835268777315
Arkansas,AR,Elaine,-90.85352565935013,34.308592568823045
Arkansas,AR,Elkins,-94.02499622393783,36.01634890238232
Arkansas,AR,Elm Springs,-94.23670756912662,36.20693138330174
Arkansas,AR,Emerson,-93.19597378401849,33.097320516821185
Arkansas,AR,Emmet,-93.46573491342235,33.72269734447449
Arkansas,AR,England,-91.96898793270617,34.54604386177189
Arkansas,AR,Enola,-92.2067828324723,35.19582064005801
Arkansas,AR,Etowah,-90.23204241689332,35.72251788875191
Arkansas,AR,Eudora,-91.26401446823381,33.118993689520146
Arkansas,AR,Eureka Springs,-93.7451659696066,36.410307258585696
Arkansas,AR,Evening Shade,-91.62182047146759,36.07007225014979
Arkansas,AR,Everton,-92.90954094208543,36.15413661652105
Arkansas,AR,Fairfield Bay,-92.26582503366903,35.60501108672321
Arkansas,AR,Fargo,-91.1764422329799,34.953671116336096
Arkansas,AR,Farmington,-94.25367960319417,36.03702161375304
Arkansas,AR,Fayetteville,-94.16628852228176,36.07202331832929
Arkansas,AR,Felsenthal,-92.15333124174904,33.05883608720477
Arkansas,AR,Fifty-Six,-92.23008666476436,35.96203072584153
Arkansas,AR,Fisher,-90.97249377673702,35.4914627812692
Arkansas,AR,Flippin,-92.59347834191081,36.27736440172264
Arkansas,AR,Fordyce,-92.41737915730187,33.818128449681474
Arkansas,AR,Foreman,-94.39793586647745,33.71982502873751
Arkansas,AR,Forrest City,-90.79311714218052,35.013472894892764
Arkansas,AR,Fort Smith,-94.36951314511025,35.349321218721535
Arkansas,AR,Fouke,-93.88520412036009,33.262211446710346
Arkansas,AR,Fountain Hill,-91.85114625924706,33.35755111183084
Arkansas,AR,Fountain Lake,-92.92325062453934,34.61214128555973
Arkansas,AR,Fourche,-92.6189460564695,34.99329502142507
Arkansas,AR,Franklin,-91.76913401314944,36.173389890378346
Arkansas,AR,Fredonia (Biscoe),-91.410222935333607,34.81971914829526
Arkansas,AR,Friendship,-93.00366368481508,34.22434403765961
Arkansas,AR,Fulton,-93.81374578741597,33.61255997986341
Arkansas,AR,Garfield,-93.97574424953193,36.45544751042393
Arkansas,AR,Garland,-93.71419199972479,33.3608731657241
Arkansas,AR,Garner,-91.78097159201101,35.14178247696846
Arkansas,AR,Gassville,-92.48677401865525,36.28498362045006
Arkansas,AR,Gateway,-93.93650056186452,36.485405066813925
Arkansas,AR,Gentry,-94.49291080249043,36.256889429263666
Arkansas,AR,Georgetown,-91.45390090135663,35.126714334266644
Arkansas,AR,Gibson,-92.23410323925688,34.89233049578124
Arkansas,AR,Gilbert,-92.71655897151977,35.99051895430076
Arkansas,AR,Gillett,-91.3789415774218,34.11927615268567
Arkansas,AR,Gillham,-94.3144782070343,34.16862610774283
Arkansas,AR,Gilmore,-90.29731036182159,35.41310509005068
Arkansas,AR,Glenwood,-93.53090513485844,34.32787509946112
Arkansas,AR,Goshen,-94.00493634977768,36.10501565714247
Arkansas,AR,Gosnell,-89.9721054439003,35.96449814448945
Arkansas,AR,Gould,-91.56404919555726,33.987194540075066
Arkansas,AR,Grady,-91.69806067701879,34.07897386159983
Arkansas,AR,Grannis,-94.32196924975945,34.23977700682967
Arkansas,AR,Gravette,-94.37135610527675,36.429061423026496
Arkansas,AR,Green Forest,-93.42857631311706,36.334430481000446
Arkansas,AR,Greenbrier,-92.38358659498675,35.22889855932318
Arkansas,AR,Greenland,-94.19031501706152,35.99653713897196
Arkansas,AR,Greenway,-90.22226019894073,36.34055756189684
Arkansas,AR,Greenwood,-94.24075672559535,35.21342073452981
Arkansas,AR,Greers Ferry,-92.16877082050735,35.56742766857525
Arkansas,AR,Griffithville,-91.64473794082676,35.12332235302389
Arkansas,AR,Grubbs,-91.07547717022393,35.654009747569255
Arkansas,AR,Guion,-91.93899997147705,35.92689027034434
Arkansas,AR,Gum Springs,-93.09571611634433,34.06391240261371
Arkansas,AR,Gurdon,-93.15437281569939,33.915460410586654
Arkansas,AR,Guy,-92.33655214445612,35.32721937014651
Arkansas,AR,Hackett,-94.41059202160854,35.18776261016229
Arkansas,AR,Hagarville,-93.33348612633803,35.515108522819354
Arkansas,AR,Hamburg,-91.7972266311997,33.22475934268901
Arkansas,AR,Hampton,-92.4661251362835,33.53629009074566
Arkansas,AR,Hardy,-91.47888191458864,36.31946915968649
Arkansas,AR,Harrell,-92.40105574332173,33.51024070032605
Arkansas,AR,Harrisburg,-90.72161488122379,35.5636617613422
Arkansas,AR,Harrison,-93.11980007098083,36.243793457219105
Arkansas,AR,Hartford,-94.37992187387836,35.023631267567275
Arkansas,AR,Hartman,-93.62352922967479,35.4352573149234
Arkansas,AR,Haskell,-92.6406017818111,34.50952350617451
Arkansas,AR,Hatfield,-94.37926725076909,34.48593273342451
Arkansas,AR,Havana,-93.5260091833327,35.10975529520802
Arkansas,AR,Haynes,-90.79266124779215,34.890918931381655
Arkansas,AR,Hazen,-91.57249941566155,34.796647262425104
Arkansas,AR,Heber Springs,-92.03317003705756,35.50025533544151
Arkansas,AR,Hector,-92.97604653768687,35.46442231739391
Arkansas,AR,Helena-West Helena,-90.62011153974892,34.53135789521534
Arkansas,AR,Hensley,-92.206906439125,34.50681170196706
Arkansas,AR,Hermitage,-92.17118961054298,33.44711727205595
Arkansas,AR,Hickory Ridge,-90.99457640160982,35.40304503687424
Arkansas,AR,Higden,-92.20468569754355,35.566567189804026
Arkansas,AR,Higginson,-91.71517771967818,35.19681637558907
Arkansas,AR,Highfill,-94.32300313740076,36.27664042943238
Arkansas,AR,Highland,-91.51856209807055,36.26567604236514
Arkansas,AR,Hindsville,-93.86273300300418,36.14583159683846
