{"totalResultsCount":9,"geonames":[{"adminCode1":"NM","lng":"-107.5625","geonameId":7315621,"toponymName":"South Acomita Village","countryId":"6252001","fcl":"P","population":105,"countryCode":"US","name":"South Acomita Village","fclName":"city, village,...","adminCodes1":{"ISO3166_2":"NM"},"countryName":"United States","fcodeName":"populated place","adminName1":"New Mexico","lat":"35.05278","fcode":"PPL"},{"adminCode1":"NM","lng":"-107.61366","geonameId":5454228,"toponymName":"Acomita Lake","countryId":"6252001","fcl":"P","population":416,"countryCode":"US","name":"Acomita Lake","fclName":"city, village,...","adminCodes1":{"ISO3166_2":"NM"},"countryName":"United States","fcodeName":"populated place","adminName1":"New Mexico","lat":"35.07032","fcode":"PPL"},{"adminCode1":"NM","lng":"-107.56588","geonameId":5481465,"toponymName":"North Acomita Village","countryId":"6252001","fcl":"P","population":303,"countryCode":"US","name":"North Acomita Village","fclName":"city, village,...","adminCodes1":{"ISO3166_2":"NM"},"countryName":"United States","fcodeName":"populated place","adminName1":"New Mexico","lat":"35.06338","fcode":"PPL"},{"adminCode1":"NM","lng":"-107.60061","geonameId":5454231,"toponymName":"Acomita Reservoir Dam","countryId":"6252001","fcl":"S","population":0,"countryCode":"US","name":"Acomita Reservoir Dam","fclName":"spot, building, farm","adminCodes1":{"ISO3166_2":"NM"},"countryName":"United States","fcodeName":"dam","adminName1":"New Mexico","lat":"35.05004","fcode":"DAM"},{"adminCode1":"NM","lng":"-107.57172","geonameId":5454226,"toponymName":"Acomita","countryId":"6252001","fcl":"P","population":0,"countryCode":"US","name":"Acomita","fclName":"city, village,...","adminCodes1":{"ISO3166_2":"NM"},"countryName":"United States","fcodeName":"populated place","adminName1":"New Mexico","lat":"35.05532","fcode":"PPL"},{"adminCode1":"NM","lng":"-107.59588","geonameId":5454227,"toponymName":"Acomita Dam","countryId":"6252001","fcl":"S","population":0,"countryCode":"US","name":"Acomita Dam","fclName":"spot, building, farm","adminCodes1":{"ISO3166_2":"NM"},"countryName":"United States","fcodeName":"dam","adminName1":"New Mexico","lat":"35.06115","fcode":"DAM"},{"adminCode1":"NM","lng":"-107.51616","geonameId":5454229,"toponymName":"Acomita Pit","countryId":"6252001","fcl":"S","population":0,"countryCode":"US","name":"Acomita Pit","fclName":"spot, building, farm","adminCodes1":{"ISO3166_2":"NM"},"countryName":"United States","fcodeName":"mine(s)","adminName1":"New Mexico","lat":"34.96088","fcode":"MN"},{"adminCode1":"NM","lng":"-107.57172","geonameId":5454230,"toponymName":"Acomita Post Office (historical)","countryId":"6252001","fcl":"S","population":0,"countryCode":"US","name":"Acomita Post Office (historical)","fclName":"spot, building, farm","adminCodes1":{"ISO3166_2":"NM"},"countryName":"United States","fcodeName":"post office","adminName1":"New Mexico","lat":"35.05532","fcode":"PO"},{"adminCode1":"NM","lng":"-107.57755","geonameId":5454232,"toponymName":"Acomita School","countryId":"6252001","fcl":"S","population":0,"countryCode":"US","name":"Acomita School","fclName":"spot, building, farm","adminCodes1":{"ISO3166_2":"NM"},"countryName":"United States","fcodeName":"school","adminName1":"New Mexico","lat":"35.05254","fcode":"SCH"}]}
