{"totalResultsCount":1442,"geonames":[{"adminCode1":"VT","lng":"-73.25401","geonameId":5242224,"toponymName":"Vergennes","countryId":"6252001","fcl":"P","population":2631,"countryCode":"US","name":"Vergennes","fclName":"city, village,...","adminCodes1":{"ISO3166_2":"VT"},"countryName":"United States","fcodeName":"populated place","adminName1":"Vermont","lat":"44.16728","fcode":"PPL"},{"adminCode1":"VT","lng":"-73.14094","geonameId":5233146,"toponymName":"Addison County","countryId":"6252001","fcl":"A","population":36821,"countryCode":"US","name":"Addison","fclName":"country, state, region,...","adminCodes1":{"ISO3166_2":"VT"},"countryName":"United States","fcodeName":"second-order administrative division","adminName1":"Vermont","lat":"44.03091","fcode":"ADM2"},{"adminCode1":"VT","lng":"-73.41818","geonameId":5234844,"toponymName":"Chimney Point","countryId":"6252001","fcl":"P","population":0,"countryCode":"US","name":"Chimney Point","fclName":"city, village,...","adminCodes1":{"ISO3166_2":"VT"},"countryName":"United States","fcodeName":"populated place","adminName1":"Vermont","lat":"44.03617","fcode":"PPL"},{"adminCode1":"VT","lng":"-73.30262","geonameId":5233143,"toponymName":"Addison","countryId":"6252001","fcl":"P","population":1361,"countryCode":"US","name":"Addison","fclName":"city, village,...","adminCodes1":{"ISO3166_2":"VT"},"countryName":"United States","fcodeName":"populated place","adminName1":"Vermont","lat":"44.08867","fcode":"PPL"},{"adminCode1":"IL","lng":"-87.98896","geonameId":4882920,"toponymName":"Addison","countryId":"6252001","fcl":"P","population":37208,"countryCode":"US","name":"Addison","fclName":"city, village,...","adminCodes1":{"ISO3166_2":"IL"},"countryName":"United States","fcodeName":"populated place","adminName1":"Illinois","lat":"41.9317","fcode":"PPL"},{"adminCode1":"VT","lng":"-73.16937","geonameId":5238499,"toponymName":"Middlebury (village)","countryId":"6252001","fcl":"P","population":6588,"countryCode":"US","name":"Middlebury (village)","fclName":"city, village,...","adminCodes1":{"ISO3166_2":"VT"},"countryName":"United States","fcodeName":"seat of a second-order administrative division","adminName1":"Vermont","lat":"44.01553","fcode":"PPLA2"},{"adminCode1":"VT","lng":"-72.95595","geonameId":5238504,"toponymName":"Middlebury College Snow Bowl","countryId":"6252001","fcl":"L","population":0,"countryCode":"US","name":"Middlebury College Snow Bowl","fclName":"parks,area, ...","adminCodes1":{"ISO3166_2":"VT"},"countryName":"United States","fcodeName":"area","adminName1":"Vermont","lat":"43.93062","fcode":"AREA"},{"adminCode1":"VT","lng":"-73.15373","geonameId":5239021,"toponymName":"New Haven","countryId":"6252001","fcl":"P","population":0,"countryCode":"US","name":"New Haven","fclName":"city, village,...","adminCodes1":{"ISO3166_2":"VT"},"countryName":"United States","fcodeName":"populated place","adminName1":"Vermont","lat":"44.1245","fcode":"PPL"},{"adminCode1":"VT","lng":"-73.09984","geonameId":5240760,"toponymName":"Salisbury","countryId":"6252001","fcl":"P","population":1131,"countryCode":"US","name":"Salisbury","fclName":"city, village,...","adminCodes1":{"ISO3166_2":"VT"},"countryName":"United States","fcodeName":"populated place","adminName1":"Vermont","lat":"43.89645","fcode":"PPL"},{"adminCode1":"VT","lng":"-73.05734","geonameId":5241507,"toponymName":"Starksboro","countryId":"6252001","fcl":"P","population":1776,"countryCode":"US","name":"Starksboro","fclName":"city, village,...","adminCodes1":{"ISO3166_2":"VT"},"countryName":"United States","fcodeName":"populated place","adminName1":"Vermont","lat":"44.22728","fcode":"PPL"},{"adminCode1":"VT","lng":"-73.07901","geonameId":5234183,"toponymName":"Bristol","countryId":"6252001","fcl":"P","population":2030,"countryCode":"US","name":"Bristol","fclName":"city, village,...","adminCodes1":{"ISO3166_2":"VT"},"countryName":"United States","fcodeName":"populated place","adminName1":"Vermont","lat":"44.13339","fcode":"PPL"},{"adminCode1":"VT","lng":"-73.07524","geonameId":5235587,"toponymName":"Lake Dunmore","countryId":"6252001","fcl":"H","population":0,"countryCode":"US","name":"Lake Dunmore","fclName":"stream, lake, ...","adminCodes1":{"ISO3166_2":"VT"},"countryName":"United States","fcodeName":"lake","adminName1":"Vermont","lat":"43.90257","fcode":"LK"},{"adminCode1":"VT","lng":"-73.31262","geonameId":5233864,"toponymName":"Bridport","countryId":"6252001","fcl":"P","population":1215,"countryCode":"US","name":"Bridport","fclName":"city, village,...","adminCodes1":{"ISO3166_2":"VT"},"countryName":"United States","fcodeName":"populated place","adminName1":"Vermont","lat":"43.98506","fcode":"PPL"},{"adminCode1":"VT","lng":"-73.09643","geonameId":5238511,"toponymName":"Middlebury State Airport","countryId":"6252001","fcl":"S","population":0,"countryCode":"US","name":"Middlebury State Airport","fclName":"spot, building, farm","adminCodes1":{"ISO3166_2":"VT"},"countryName":"United States","fcodeName":"airport","adminName1":"Vermont","lat":"43.98541","fcode":"AIRP"},{"adminCode1":"VT","lng":"-73.29789","geonameId":5239533,"toponymName":"Orwell","countryId":"6252001","fcl":"P","population":0,"countryCode":"US","name":"Orwell","fclName":"city, village,...","adminCodes1":{"ISO3166_2":"VT"},"countryName":"United States","fcodeName":"populated place","adminName1":"Vermont","lat":"43.80395","fcode":"PPL"},{"adminCode1":"VT","lng":"-73.034","geonameId":5240304,"toponymName":"Ripton","countryId":"6252001","fcl":"P","population":593,"countryCode":"US","name":"Ripton","fclName":"city, village,...","adminCodes1":{"ISO3166_2":"VT"},"countryName":"United States","fcodeName":"populated place","adminName1":"Vermont","lat":"43.97367","fcode":"PPL"},{"adminCode1":"VT","lng":"-73.31595","geonameId":5241076,"toponymName":"Shoreham","countryId":"6252001","fcl":"P","population":0,"countryCode":"US","name":"Shoreham","fclName":"city, village,...","adminCodes1":{"ISO3166_2":"VT"},"countryName":"United States","fcodeName":"populated place","adminName1":"Vermont","lat":"43.89367","fcode":"PPL"},{"adminCode1":"VT","lng":"-73.20039","geonameId":5242922,"toponymName":"Whiting","countryId":"6252001","fcl":"P","population":0,"countryCode":"US","name":"Whiting","fclName":"city, village,...","adminCodes1":{"ISO3166_2":"VT"},"countryName":"United States","fcodeName":"populated place","adminName1":"Vermont","lat":"43.86395","fcode":"PPL"},{"adminCode1":"VT","lng":"-73.31707","geonameId":5235397,"toponymName":"Dead Creek Wildlife Management Area","countryId":"6252001","fcl":"L","population":0,"countryCode":"US","name":"Dead Creek Wildlife Management Area","fclName":"parks,area, ...","adminCodes1":{"ISO3166_2":"VT"},"countryName":"United States","fcodeName":"park","adminName1":"Vermont","lat":"44.16255","fcode":"PRK"},{"adminCode1":"VT","lng":"-73.10623","geonameId":5235739,"toponymName":"East Middlebury","countryId":"6252001","fcl":"P","population":425,"countryCode":"US","name":"East Middlebury","fclName":"city, village,...","adminCodes1":{"ISO3166_2":"VT"},"countryName":"United States","fcodeName":"populated place","adminName1":"Vermont","lat":"43.97339","fcode":"PPL"},{"adminCode1":"VT","lng":"-73.24623","geonameId":5236108,"toponymName":"Ferrisburgh","countryId":"6252001","fcl":"P","population":2764,"countryCode":"US","name":"Ferrisburgh","fclName":"city, village,...","adminCodes1":{"ISO3166_2":"VT"},"countryName":"United States","fcodeName":"populated place","adminName1":"Vermont","lat":"44.20561","fcode":"PPL"},{"adminCode1":"VT","lng":"-72.84622","geonameId":5236565,"toponymName":"Granville","countryId":"6252001","fcl":"P","population":302,"countryCode":"US","name":"Granville","fclName":"city, village,...","adminCodes1":{"ISO3166_2":"VT"},"countryName":"United States","fcodeName":"populated place","adminName1":"Vermont","lat":"43.98479","fcode":"PPL"},{"adminCode1":"VT","lng":"-72.83372","geonameId":5236567,"toponymName":"Granville State Reservation","countryId":"6252001","fcl":"L","population":0,"countryCode":"US","name":"Granville State Reservation","fclName":"parks,area, ...","adminCodes1":{"ISO3166_2":"VT"},"countryName":"United States","fcodeName":"park","adminName1":"Vermont","lat":"44.02784","fcode":"PRK"},{"adminCode1":"VT","lng":"-72.84122","geonameId":5236790,"toponymName":"Hancock","countryId":"6252001","fcl":"P","population":326,"countryCode":"US","name":"Hancock","fclName":"city, village,...","adminCodes1":{"ISO3166_2":"VT"},"countryName":"United States","fcodeName":"populated place","adminName1":"Vermont","lat":"43.92618","fcode":"PPL"},{"adminCode1":"VT","lng":"-73.10789","geonameId":5237906,"toponymName":"Leicester","countryId":"6252001","fcl":"P","population":1114,"countryCode":"US","name":"Leicester","fclName":"city, village,...","adminCodes1":{"ISO3166_2":"VT"},"countryName":"United States","fcodeName":"populated place","adminName1":"Vermont","lat":"43.86673","fcode":"PPL"},{"adminCode1":"VT","lng":"-72.99706","geonameId":5237960,"toponymName":"Lincoln","countryId":"6252001","fcl":"P","population":1268,"countryCode":"US","name":"Lincoln","fclName":"city, village,...","adminCodes1":{"ISO3166_2":"VT"},"countryName":"United States","fcodeName":"populated place","adminName1":"Vermont","lat":"44.10589","fcode":"PPL"},{"adminCode1":"VT","lng":"-73.08798","geonameId":5243079,"toponymName":"Bristol Pond","countryId":"6252001","fcl":"H","population":0,"countryCode":"US","name":"Bristol Pond","fclName":"stream, lake, ...","adminCodes1":{"ISO3166_2":"VT"},"countryName":"United States","fcodeName":"lake","adminName1":"Vermont","lat":"44.17239","fcode":"LK"},{"adminCode1":"VT","lng":"-73.2804","geonameId":5241189,"toponymName":"Snake Mountain","countryId":"6252001","fcl":"T","population":0,"countryCode":"US","name":"Snake Mountain","fclName":"mountain,hill,rock,... ","adminCodes1":{"ISO3166_2":"VT"},"countryName":"United States","fcodeName":"mountain","adminName1":"Vermont","lat":"44.06145","fcode":"MT"},{"adminCode1":"TX","lng":"-96.82917","geonameId":4669828,"toponymName":"Addison","countryId":"6252001","fcl":"P","population":15518,"countryCode":"US","name":"Addison","fclName":"city, village,...","adminCodes1":{"ISO3166_2":"TX"},"countryName":"United States","fcodeName":"populated place","adminName1":"Texas","lat":"32.96179","fcode":"PPL"},{"adminCode1":"TX","lng":"-96.83667","geonameId":4669829,"toponymName":"Addison Airport","countryId":"6252001","fcl":"S","population":0,"countryCode":"US","name":"Addison Airport","fclName":"spot, building, farm","adminCodes1":{"ISO3166_2":"TX"},"countryName":"United States","fcodeName":"airport","adminName1":"Texas","lat":"32.96846","fcode":"AIRP"},{"adminCode1":"ME","lng":"-67.74416","geonameId":4956485,"toponymName":"Addison","countryId":"6252001","fcl":"P","population":1257,"countryCode":"US","name":"Addison","fclName":"city, village,...","adminCodes1":{"ISO3166_2":"ME"},"countryName":"United States","fcodeName":"populated place","adminName1":"Maine","lat":"44.61841","fcode":"PPL"},{"adminCode1":"VT","lng":"-72.93567","geonameId":5233115,"toponymName":"Mount Abraham","countryId":"6252001","fcl":"T","population":0,"countryCode":"US","name":"Mount Abraham","fclName":"mountain,hill,rock,... ","adminCodes1":{"ISO3166_2":"VT"},"countryName":"United States","fcodeName":"mountain","adminName1":"Vermont","lat":"44.12006","fcode":"MT"},{"adminCode1":"VT","lng":"-73.0519","geonameId":5233425,"toponymName":"Baldwin Pond","countryId":"6252001","fcl":"H","population":0,"countryCode":"US","name":"Baldwin Pond","fclName":"stream, lake, ...","adminCodes1":{"ISO3166_2":"VT"},"countryName":"United States","fcodeName":"lake","adminName1":"Vermont","lat":"44.22745","fcode":"LK"},{"adminCode1":"VT","lng":"-72.94928","geonameId":5238506,"toponymName":"Middlebury Gap","countryId":"6252001","fcl":"T","population":0,"countryCode":"US","name":"Middlebury Gap","fclName":"mountain,hill,rock,... ","adminCodes1":{"ISO3166_2":"VT"},"countryName":"United States","fcodeName":"gap","adminName1":"Vermont","lat":"43.93645","fcode":"GAP"},{"adminCode1":"VT","lng":"-73.14401","geonameId":5238665,"toponymName":"Monkton Boro","countryId":"6252001","fcl":"P","population":0,"countryCode":"US","name":"Monkton Boro","fclName":"city, village,...","adminCodes1":{"ISO3166_2":"VT"},"countryName":"United States","fcodeName":"populated place","adminName1":"Vermont","lat":"44.23755","fcode":"PPL"},{"adminCode1":"VT","lng":"-73.3404","geonameId":5239607,"toponymName":"Panton","countryId":"6252001","fcl":"P","population":0,"countryCode":"US","name":"Panton","fclName":"city, village,...","adminCodes1":{"ISO3166_2":"VT"},"countryName":"United States","fcodeName":"populated place","adminName1":"Vermont","lat":"44.14867","fcode":"PPL"},{"adminCode1":"VT","lng":"-72.95831","geonameId":5239898,"toponymName":"Pleiad Lake","countryId":"6252001","fcl":"H","population":0,"countryCode":"US","name":"Pleiad Lake","fclName":"stream, lake, ...","adminCodes1":{"ISO3166_2":"VT"},"countryName":"United States","fcodeName":"lake","adminName1":"Vermont","lat":"43.93393","fcode":"LK"},{"adminCode1":"VT","lng":"-73.00845","geonameId":5240364,"toponymName":"Robert Frost Wayside","countryId":"6252001","fcl":"L","population":0,"countryCode":"US","name":"Robert Frost Wayside","fclName":"parks,area, ...","adminCodes1":{"ISO3166_2":"VT"},"countryName":"United States","fcodeName":"park","adminName1":"Vermont","lat":"43.95978","fcode":"PRK"},{"adminCode1":"VT","lng":"-73.06428","geonameId":5240814,"toponymName":"Satans Kingdom","countryId":"6252001","fcl":"P","population":0,"countryCode":"US","name":"Satans Kingdom","fclName":"city, village,...","adminCodes1":{"ISO3166_2":"VT"},"countryName":"United States","fcodeName":"populated place","adminName1":"Vermont","lat":"43.87645","fcode":"PPL"},{"adminCode1":"VT","lng":"-73.21568","geonameId":5242832,"toponymName":"Weybridge","countryId":"6252001","fcl":"P","population":0,"countryCode":"US","name":"Weybridge","fclName":"city, village,...","adminCodes1":{"ISO3166_2":"VT"},"countryName":"United States","fcodeName":"populated place","adminName1":"Vermont","lat":"44.06645","fcode":"PPL"},{"adminCode1":"VT","lng":"-72.99261","geonameId":5234136,"toponymName":"Bread Loaf","countryId":"6252001","fcl":"P","population":0,"countryCode":"US","name":"Bread Loaf","fclName":"city, village,...","adminCodes1":{"ISO3166_2":"VT"},"countryName":"United States","fcodeName":"populated place","adminName1":"Vermont","lat":"43.9534","fcode":"PPL"},{"adminCode1":"VT","lng":"-72.9415","geonameId":5234137,"toponymName":"Bread Loaf Mountain","countryId":"6252001","fcl":"T","population":0,"countryCode":"US","name":"Bread Loaf Mountain","fclName":"mountain,hill,rock,... ","adminCodes1":{"ISO3166_2":"VT"},"countryName":"United States","fcodeName":"mountain","adminName1":"Vermont","lat":"44.00228","fcode":"MT"},{"adminCode1":"VT","lng":"-73.35901","geonameId":5234447,"toponymName":"Button Bay State Park","countryId":"6252001","fcl":"L","population":0,"countryCode":"US","name":"Button Bay State Park","fclName":"parks,area, ...","adminCodes1":{"ISO3166_2":"VT"},"countryName":"United States","fcodeName":"park","adminName1":"Vermont","lat":"44.18061","fcode":"PRK"},{"adminCode1":"VT","lng":"-73.13339","geonameId":5234694,"toponymName":"Cedar Lake","countryId":"6252001","fcl":"H","population":0,"countryCode":"US","name":"Cedar Lake","fclName":"stream, lake, ...","adminCodes1":{"ISO3166_2":"VT"},"countryName":"United States","fcodeName":"lake","adminName1":"Vermont","lat":"44.25039","fcode":"LK"},{"adminCode1":"VT","lng":"-73.37512","geonameId":5234849,"toponymName":"Chipman Point","countryId":"6252001","fcl":"T","population":0,"countryCode":"US","name":"Chipman Point","fclName":"mountain,hill,rock,... ","adminCodes1":{"ISO3166_2":"VT"},"countryName":"United States","fcodeName":"cape","adminName1":"Vermont","lat":"43.80062","fcode":"CAPE"},{"adminCode1":"VT","lng":"-73.2104","geonameId":5235178,"toponymName":"Cornwall","countryId":"6252001","fcl":"P","population":0,"countryCode":"US","name":"Cornwall","fclName":"city, village,...","adminCodes1":{"ISO3166_2":"VT"},"countryName":"United States","fcodeName":"populated place","adminName1":"Vermont","lat":"43.96089","fcode":"PPL"},{"adminCode1":"VT","lng":"-73.33707","geonameId":5235404,"toponymName":"Dead Creek Wildlife Management Area","countryId":"6252001","fcl":"L","population":0,"countryCode":"US","name":"Dead Creek Wildlife Management Area","fclName":"parks,area, ...","adminCodes1":{"ISO3166_2":"VT"},"countryName":"United States","fcodeName":"park","adminName1":"Vermont","lat":"44.00922","fcode":"PRK"},{"adminCode1":"VT","lng":"-73.06981","geonameId":5236104,"toponymName":"Fern Lake","countryId":"6252001","fcl":"H","population":0,"countryCode":"US","name":"Fern Lake","fclName":"stream, lake, ...","adminCodes1":{"ISO3166_2":"VT"},"countryName":"United States","fcodeName":"lake","adminName1":"Vermont","lat":"43.86701","fcode":"LK"},{"adminCode1":"VT","lng":"-73.02206","geonameId":5236483,"toponymName":"Goshen","countryId":"6252001","fcl":"P","population":164,"countryCode":"US","name":"Goshen","fclName":"city, village,...","adminCodes1":{"ISO3166_2":"VT"},"countryName":"United States","fcodeName":"populated place","adminName1":"Vermont","lat":"43.84951","fcode":"PPL"},{"adminCode1":"VT","lng":"-72.92595","geonameId":5236564,"toponymName":"Mount Grant","countryId":"6252001","fcl":"T","population":0,"countryCode":"US","name":"Mount Grant","fclName":"mountain,hill,rock,... ","adminCodes1":{"ISO3166_2":"VT"},"countryName":"United States","fcodeName":"mountain","adminName1":"Vermont","lat":"44.05228","fcode":"MT"},{"adminCode1":"VT","lng":"-72.83206","geonameId":5236566,"toponymName":"Granville Notch","countryId":"6252001","fcl":"T","population":0,"countryCode":"US","name":"Granville Notch","fclName":"mountain,hill,rock,... ","adminCodes1":{"ISO3166_2":"VT"},"countryName":"United States","fcodeName":"gap","adminName1":"Vermont","lat":"44.03228","fcode":"GAP"},{"adminCode1":"VT","lng":"-73.3804","geonameId":5237297,"toponymName":"Mount Independence","countryId":"6252001","fcl":"T","population":0,"countryCode":"US","name":"Mount Independence","fclName":"mountain,hill,rock,... ","adminCodes1":{"ISO3166_2":"VT"},"countryName":"United States","fcodeName":"mountain","adminName1":"Vermont","lat":"43.82645","fcode":"MT"},{"adminCode1":"VT","lng":"-72.929","geonameId":5237966,"toponymName":"Lincoln Gap","countryId":"6252001","fcl":"T","population":0,"countryCode":"US","name":"Lincoln Gap","fclName":"mountain,hill,rock,... ","adminCodes1":{"ISO3166_2":"VT"},"countryName":"United States","fcodeName":"gap","adminName1":"Vermont","lat":"44.09506","fcode":"GAP"},{"adminCode1":"VT","lng":"-72.92845","geonameId":5237973,"toponymName":"Lincoln Peak","countryId":"6252001","fcl":"T","population":0,"countryCode":"US","name":"Lincoln Peak","fclName":"mountain,hill,rock,... ","adminCodes1":{"ISO3166_2":"VT"},"countryName":"United States","fcodeName":"mountain","adminName1":"Vermont","lat":"44.12728","fcode":"MT"},{"adminCode1":"VT","lng":"-73.27318","geonameId":5238031,"toponymName":"Little Otter Creek Wildlife Management Area","countryId":"6252001","fcl":"L","population":0,"countryCode":"US","name":"Little Otter Creek Wildlife Management Area","fclName":"parks,area, ...","adminCodes1":{"ISO3166_2":"VT"},"countryName":"United States","fcodeName":"park","adminName1":"Vermont","lat":"44.23339","fcode":"PRK"},{"adminCode1":"VT","lng":"-73.28179","geonameId":5238078,"toponymName":"Long Point","countryId":"6252001","fcl":"T","population":0,"countryCode":"US","name":"Long Point","fclName":"mountain,hill,rock,... ","adminCodes1":{"ISO3166_2":"VT"},"countryName":"United States","fcodeName":"cape","adminName1":"Vermont","lat":"44.25561","fcode":"CAPE"},{"adminCode1":"VT","lng":"-72.92595","geonameId":5243044,"toponymName":"Mount Wilson","countryId":"6252001","fcl":"T","population":0,"countryCode":"US","name":"Mount Wilson","fclName":"mountain,hill,rock,... ","adminCodes1":{"ISO3166_2":"VT"},"countryName":"United States","fcodeName":"mountain","adminName1":"Vermont","lat":"44.00478","fcode":"MT"},{"adminCode1":"VT","lng":"-73.34501","geonameId":5233148,"toponymName":"Town of Addison","countryId":"6252001","fcl":"A","population":1361,"countryCode":"US","name":"Town of Addison","fclName":"country, state, region,...","adminCodes1":{"ISO3166_2":"VT"},"countryName":"United States","fcodeName":"third-order administrative division","adminName1":"Vermont","lat":"44.07142","fcode":"ADM3"},{"adminCode1":"IL","lng":"-87.94007","geonameId":4884509,"toponymName":"Bensenville","countryId":"6252001","fcl":"P","population":18440,"countryCode":"US","name":"Bensenville","fclName":"city, village,...","adminCodes1":{"ISO3166_2":"IL"},"countryName":"United States","fcodeName":"populated place","adminName1":"Illinois","lat":"41.95503","fcode":"PPL"},{"adminCode1":"VT","lng":"-73.32485","geonameId":5239563,"toponymName":"Otter Creek","countryId":"6252001","fcl":"H","population":0,"countryCode":"US","name":"Otter Creek","fclName":"stream, lake, ...","adminCodes1":{"ISO3166_2":"VT"},"countryName":"United States","fcodeName":"stream","adminName1":"Vermont","lat":"44.22561","fcode":"STM"},{"adminCode1":"WI","lng":"-88.37454","geonameId":5243582,"toponymName":"Addison","countryId":"6252001","fcl":"P","population":3439,"countryCode":"US","name":"Addison","fclName":"city, village,...","adminCodes1":{"ISO3166_2":"WI"},"countryName":"United States","fcodeName":"populated place","adminName1":"Wisconsin","lat":"43.42278","fcode":"PPL"},{"adminCode1":"VT","lng":"-73.05976","geonameId":5233112,"toponymName":"Abbey Pond","countryId":"6252001","fcl":"H","population":0,"countryCode":"US","name":"Abbey Pond","fclName":"stream, lake, ...","adminCodes1":{"ISO3166_2":"VT"},"countryName":"United States","fcodeName":"lake","adminName1":"Vermont","lat":"44.03325","fcode":"LK"},{"adminCode1":"VT","lng":"-73.16345","geonameId":5233496,"toponymName":"Barnumtown","countryId":"6252001","fcl":"P","population":0,"countryCode":"US","name":"Barnumtown","fclName":"city, village,...","adminCodes1":{"ISO3166_2":"VT"},"countryName":"United States","fcodeName":"populated place","adminName1":"Vermont","lat":"44.20811","fcode":"PPL"},{"adminCode1":"VT","lng":"-72.95789","geonameId":5233564,"toponymName":"Battell Park","countryId":"6252001","fcl":"L","population":0,"countryCode":"US","name":"Battell Park","fclName":"parks,area, ...","adminCodes1":{"ISO3166_2":"VT"},"countryName":"United States","fcodeName":"park","adminName1":"Vermont","lat":"43.91895","fcode":"PRK"},{"adminCode1":"VT","lng":"-73.17614","geonameId":5238501,"toponymName":"Middlebury College","countryId":"6252001","fcl":"S","population":0,"countryCode":"US","name":"Middlebury College","fclName":"spot, building, farm","adminCodes1":{"ISO3166_2":"VT"},"countryName":"United States","fcodeName":"school","adminName1":"Vermont","lat":"44.00849","fcode":"SCH"},{"adminCode1":"VT","lng":"-73.16651","geonameId":5238516,"toponymName":"Middlebury Village Historic District","countryId":"6252001","fcl":"L","population":0,"countryCode":"US","name":"Middlebury Village Historic District","fclName":"parks,area, ...","adminCodes1":{"ISO3166_2":"VT"},"countryName":"United States","fcodeName":"park","adminName1":"Vermont","lat":"44.01423","fcode":"PRK"},{"adminCode1":"VT","lng":"-73.12237","geonameId":5238519,"toponymName":"Town of Middlebury","countryId":"6252001","fcl":"A","population":8557,"countryCode":"US","name":"Town of Middlebury","fclName":"country, state, region,...","adminCodes1":{"ISO3166_2":"VT"},"countryName":"United States","fcodeName":"third-order administrative division","adminName1":"Vermont","lat":"44.00427","fcode":"ADM3"},{"adminCode1":"VT","lng":"-73.13232","geonameId":5238669,"toponymName":"Town of Monkton","countryId":"6252001","fcl":"A","population":2071,"countryCode":"US","name":"Town of Monkton","fclName":"country, state, region,...","adminCodes1":{"ISO3166_2":"VT"},"countryName":"United States","fcodeName":"third-order administrative division","adminName1":"Vermont","lat":"44.22762","fcode":"ADM3"},{"adminCode1":"VT","lng":"-73.38067","geonameId":5238828,"toponymName":"Mount Independence State Historic Site","countryId":"6252001","fcl":"L","population":0,"countryCode":"US","name":"Mount Independence State Historic Site","fclName":"parks,area, ...","adminCodes1":{"ISO3166_2":"VT"},"countryName":"United States","fcodeName":"park","adminName1":"Vermont","lat":"43.82645","fcode":"PRK"},{"adminCode1":"VT","lng":"-73.2697","geonameId":5238913,"toponymName":"Mud Pond","countryId":"6252001","fcl":"H","population":0,"countryCode":"US","name":"Mud Pond","fclName":"stream, lake, ...","adminCodes1":{"ISO3166_2":"VT"},"countryName":"United States","fcodeName":"lake","adminName1":"Vermont","lat":"43.76551","fcode":"LK"},{"adminCode1":"VT","lng":"-73.16461","geonameId":5239028,"toponymName":"Town of New Haven","countryId":"6252001","fcl":"A","population":1738,"countryCode":"US","name":"Town of New Haven","fclName":"country, state, region,...","adminCodes1":{"ISO3166_2":"VT"},"countryName":"United States","fcodeName":"third-order administrative division","adminName1":"Vermont","lat":"44.10411","fcode":"ADM3"},{"adminCode1":"VT","lng":"-73.04694","geonameId":5239221,"toponymName":"North Pond","countryId":"6252001","fcl":"H","population":0,"countryCode":"US","name":"North Pond","fclName":"stream, lake, ...","adminCodes1":{"ISO3166_2":"VT"},"countryName":"United States","fcodeName":"lake","adminName1":"Vermont","lat":"44.10357","fcode":"LK"},{"adminCode1":"VT","lng":"-73.29315","geonameId":5239537,"toponymName":"Town of Orwell","countryId":"6252001","fcl":"A","population":1247,"countryCode":"US","name":"Town of Orwell","fclName":"country, state, region,...","adminCodes1":{"ISO3166_2":"VT"},"countryName":"United States","fcodeName":"third-order administrative division","adminName1":"Vermont","lat":"43.80621","fcode":"ADM3"},{"adminCode1":"VT","lng":"-73.33655","geonameId":5239609,"toponymName":"Town of Panton","countryId":"6252001","fcl":"A","population":682,"countryCode":"US","name":"Town of Panton","fclName":"country, state, region,...","adminCodes1":{"ISO3166_2":"VT"},"countryName":"United States","fcodeName":"third-order administrative division","adminName1":"Vermont","lat":"44.13682","fcode":"ADM3"},{"adminCode1":"VT","lng":"-72.99762","geonameId":5239895,"toponymName":"Mount Pleasant","countryId":"6252001","fcl":"T","population":0,"countryCode":"US","name":"Mount Pleasant","fclName":"mountain,hill,rock,... ","adminCodes1":{"ISO3166_2":"VT"},"countryName":"United States","fcodeName":"mountain","adminName1":"Vermont","lat":"44.14867","fcode":"MT"},{"adminCode1":"VT","lng":"-73.27095","geonameId":5239947,"toponymName":"Pond Woods Wildlife Management Area","countryId":"6252001","fcl":"L","population":0,"countryCode":"US","name":"Pond Woods Wildlife Management Area","fclName":"parks,area, ...","adminCodes1":{"ISO3166_2":"VT"},"countryName":"United States","fcodeName":"park","adminName1":"Vermont","lat":"43.77034","fcode":"PRK"},{"adminCode1":"VT","lng":"-73.06011","geonameId":5240168,"toponymName":"Rattlesnake Point","countryId":"6252001","fcl":"T","population":0,"countryCode":"US","name":"Rattlesnake Point","fclName":"mountain,hill,rock,... ","adminCodes1":{"ISO3166_2":"VT"},"countryName":"United States","fcodeName":"cliff(s)","adminName1":"Vermont","lat":"43.91451","fcode":"CLF"},{"adminCode1":"VT","lng":"-73.27178","geonameId":5240283,"toponymName":"Richville","countryId":"6252001","fcl":"P","population":0,"countryCode":"US","name":"Richville","fclName":"city, village,...","adminCodes1":{"ISO3166_2":"VT"},"countryName":"United States","fcodeName":"populated place","adminName1":"Vermont","lat":"43.87395","fcode":"PPL"},{"adminCode1":"VT","lng":"-73.239","geonameId":5240287,"toponymName":"Richville Wildlife Management Area","countryId":"6252001","fcl":"L","population":0,"countryCode":"US","name":"Richville Wildlife Management Area","fclName":"parks,area, ...","adminCodes1":{"ISO3166_2":"VT"},"countryName":"United States","fcodeName":"park","adminName1":"Vermont","lat":"43.85034","fcode":"PRK"},{"adminCode1":"VT","lng":"-73.09345","geonameId":5240303,"toponymName":"Riley Bostwick Wildlife Management Area","countryId":"6252001","fcl":"L","population":0,"countryCode":"US","name":"Riley Bostwick Wildlife Management Area","fclName":"parks,area, ...","adminCodes1":{"ISO3166_2":"VT"},"countryName":"United States","fcodeName":"park","adminName1":"Vermont","lat":"43.92562","fcode":"PRK"},{"adminCode1":"VT","lng":"-72.99151","geonameId":5240306,"toponymName":"Town of Ripton","countryId":"6252001","fcl":"A","population":593,"countryCode":"US","name":"Town of Ripton","fclName":"country, state, region,...","adminCodes1":{"ISO3166_2":"VT"},"countryName":"United States","fcodeName":"third-order administrative division","adminName1":"Vermont","lat":"43.98852","fcode":"ADM3"},{"adminCode1":"VT","lng":"-72.98428","geonameId":5240425,"toponymName":"Romance Mountain","countryId":"6252001","fcl":"T","population":0,"countryCode":"US","name":"Romance Mountain","fclName":"mountain,hill,rock,... ","adminCodes1":{"ISO3166_2":"VT"},"countryName":"United States","fcodeName":"mountain","adminName1":"Vermont","lat":"43.88145","fcode":"MT"},{"adminCode1":"VT","lng":"-73.11136","geonameId":5240768,"toponymName":"Town of Salisbury","countryId":"6252001","fcl":"A","population":1131,"countryCode":"US","name":"Town of Salisbury","fclName":"country, state, region,...","adminCodes1":{"ISO3166_2":"VT"},"countryName":"United States","fcodeName":"third-order administrative division","adminName1":"Vermont","lat":"43.92311","fcode":"ADM3"},{"adminCode1":"VT","lng":"-73.36207","geonameId":5241069,"toponymName":"Ship Point","countryId":"6252001","fcl":"T","population":0,"countryCode":"US","name":"Ship Point","fclName":"mountain,hill,rock,... ","adminCodes1":{"ISO3166_2":"VT"},"countryName":"United States","fcodeName":"island","adminName1":"Vermont","lat":"44.1795","fcode":"ISL"},{"adminCode1":"VT","lng":"-73.31355","geonameId":5241082,"toponymName":"Town of Shoreham","countryId":"6252001","fcl":"A","population":1268,"countryCode":"US","name":"Town of Shoreham","fclName":"country, state, region,...","adminCodes1":{"ISO3166_2":"VT"},"countryName":"United States","fcodeName":"third-order administrative division","adminName1":"Vermont","lat":"43.89461","fcode":"ADM3"},{"adminCode1":"VT","lng":"-72.9358","geonameId":5241145,"toponymName":"Skylight Pond","countryId":"6252001","fcl":"H","population":0,"countryCode":"US","name":"Skylight Pond","fclName":"stream, lake, ...","adminCodes1":{"ISO3166_2":"VT"},"countryName":"United States","fcodeName":"lake","adminName1":"Vermont","lat":"43.98671","fcode":"LK"},{"adminCode1":"VT","lng":"-73.27789","geonameId":5241458,"toponymName":"Spruce Pond","countryId":"6252001","fcl":"H","population":0,"countryCode":"US","name":"Spruce Pond","fclName":"stream, lake, ...","adminCodes1":{"ISO3166_2":"VT"},"countryName":"United States","fcodeName":"lake","adminName1":"Vermont","lat":"43.76292","fcode":"LK"},{"adminCode1":"VT","lng":"-73.01561","geonameId":5241509,"toponymName":"Town of Starksboro","countryId":"6252001","fcl":"A","population":1776,"countryCode":"US","name":"Town of Starksboro","fclName":"country, state, region,...","adminCodes1":{"ISO3166_2":"VT"},"countryName":"United States","fcodeName":"third-order administrative division","adminName1":"Vermont","lat":"44.22868","fcode":"ADM3"},{"adminCode1":"VT","lng":"-73.14801","geonameId":5241766,"toponymName":"Swamp Pond","countryId":"6252001","fcl":"H","population":0,"countryCode":"US","name":"Swamp Pond","fclName":"stream, lake, ...","adminCodes1":{"ISO3166_2":"VT"},"countryName":"United States","fcodeName":"lake","adminName1":"Vermont","lat":"43.85424","fcode":"LK"},{"adminCode1":"VT","lng":"-73.25561","geonameId":5242237,"toponymName":"City of Vergennes","countryId":"6252001","fcl":"A","population":2588,"countryCode":"US","name":"City of Vergennes","fclName":"country, state, region,...","adminCodes1":{"ISO3166_2":"VT"},"countryName":"United States","fcodeName":"third-order administrative division","adminName1":"Vermont","lat":"44.1669","fcode":"ADM3"},{"adminCode1":"VT","lng":"-73.23449","geonameId":5242479,"toponymName":"Town of Waltham","countryId":"6252001","fcl":"A","population":441,"countryCode":"US","name":"Town of Waltham","fclName":"country, state, region,...","adminCodes1":{"ISO3166_2":"VT"},"countryName":"United States","fcodeName":"third-order administrative division","adminName1":"Vermont","lat":"44.13154","fcode":"ADM3"},{"adminCode1":"VT","lng":"-73.16456","geonameId":5242537,"toponymName":"Washington Street Plaza","countryId":"6252001","fcl":"L","population":0,"countryCode":"US","name":"Washington Street Plaza","fclName":"parks,area, ...","adminCodes1":{"ISO3166_2":"VT"},"countryName":"United States","fcodeName":"park","adminName1":"Vermont","lat":"44.01423","fcode":"PRK"},{"adminCode1":"VT","lng":"-73.20234","geonameId":5242833,"toponymName":"Weybridge Cave Natural Area","countryId":"6252001","fcl":"L","population":0,"countryCode":"US","name":"Weybridge Cave Natural Area","fclName":"parks,area, ...","adminCodes1":{"ISO3166_2":"VT"},"countryName":"United States","fcodeName":"park","adminName1":"Vermont","lat":"44.05811","fcode":"PRK"},{"adminCode1":"VT","lng":"-73.22716","geonameId":5242840,"toponymName":"Town of Weybridge","countryId":"6252001","fcl":"A","population":828,"countryCode":"US","name":"Town of Weybridge","fclName":"country, state, region,...","adminCodes1":{"ISO3166_2":"VT"},"countryName":"United States","fcodeName":"third-order administrative division","adminName1":"Vermont","lat":"44.04684","fcode":"ADM3"},{"adminCode1":"VT","lng":"-73.19974","geonameId":5242917,"toponymName":"Town of Whiting","countryId":"6252001","fcl":"A","population":420,"countryCode":"US","name":"Town of Whiting","fclName":"country, state, region,...","adminCodes1":{"ISO3166_2":"VT"},"countryName":"United States","fcodeName":"third-order administrative division","adminName1":"Vermont","lat":"43.872","fcode":"ADM3"},{"adminCode1":"VT","lng":"-73.0715","geonameId":5234086,"toponymName":"Branbury State Park","countryId":"6252001","fcl":"L","population":0,"countryCode":"US","name":"Branbury State Park","fclName":"parks,area, ...","adminCodes1":{"ISO3166_2":"VT"},"countryName":"United States","fcodeName":"park","adminName1":"Vermont","lat":"43.9059","fcode":"PRK"},{"adminCode1":"VT","lng":"-72.91632","geonameId":5234139,"toponymName":"Breadloaf Wilderness","countryId":"6252001","fcl":"L","population":0,"countryCode":"US","name":"Breadloaf Wilderness","fclName":"parks,area, ...","adminCodes1":{"ISO3166_2":"VT"},"countryName":"United States","fcodeName":"reserve","adminName1":"Vermont","lat":"44.0142","fcode":"RES"},{"adminCode1":"VT","lng":"-73.33262","geonameId":5234166,"toponymName":"Bridport","countryId":"6252001","fcl":"A","population":0,"countryCode":"US","name":"Bridport","fclName":"country, state, region,...","adminCodes1":{"ISO3166_2":"VT"},"countryName":"United States","fcodeName":"administrative division","adminName1":"Vermont","lat":"43.98172","fcode":"ADMD"},{"adminCode1":"VT","lng":"-73.04956","geonameId":5234186,"toponymName":"Bristol Cliffs Wilderness","countryId":"6252001","fcl":"L","population":0,"countryCode":"US","name":"Bristol Cliffs Wilderness","fclName":"parks,area, ...","adminCodes1":{"ISO3166_2":"VT"},"countryName":"United States","fcodeName":"reserve","adminName1":"Vermont","lat":"44.10367","fcode":"RES"},{"adminCode1":"VT","lng":"-73.07845","geonameId":5234187,"toponymName":"Bristol Downtown Historic District","countryId":"6252001","fcl":"L","population":0,"countryCode":"US","name":"Bristol Downtown Historic District","fclName":"parks,area, ...","adminCodes1":{"ISO3166_2":"VT"},"countryName":"United States","fcodeName":"park","adminName1":"Vermont","lat":"44.13339","fcode":"PRK"}]}
