{"totalResultsCount":5,"geonames":[{"adminCode1":"MI","lng":"-83.3166","geonameId":4998516,"toponymName":"Lake Angelus","countryId":"6252001","fcl":"P","population":297,"countryCode":"US","name":"Lake Angelus","fclName":"city, village,...","adminCodes1":{"ISO3166_2":"MI"},"countryName":"United States","fcodeName":"populated place","adminName1":"Michigan","lat":"42.69864","fcode":"PPL"},{"adminCode1":"MI","lng":"-83.32146","geonameId":4998517,"toponymName":"City of Lake Angelus","countryId":"6252001","fcl":"A","population":290,"countryCode":"US","name":"City of Lake Angelus","fclName":"country, state, region,...","adminCodes1":{"ISO3166_2":"MI"},"countryName":"United States","fcodeName":"third-order administrative division","adminName1":"Michigan","lat":"42.69211","fcode":"ADM3"},{"adminCode1":"MI","lng":"-83.3191","geonameId":5001503,"toponymName":"McMath-Hulbert Observatory","countryId":"6252001","fcl":"S","population":0,"countryCode":"US","name":"McMath-Hulbert Observatory","fclName":"spot, building, farm","adminCodes1":{"ISO3166_2":"MI"},"countryName":"United States","fcodeName":"","adminName1":"Michigan","lat":"42.69753"},{"adminCode1":"MI","lng":"-83.3073","geonameId":7145508,"toponymName":"Lake Angelus City Hall","countryId":"6252001","fcl":"S","population":0,"countryCode":"US","name":"Lake Angelus City Hall","fclName":"spot, building, farm","adminCodes1":{"ISO3166_2":"MI"},"countryName":"United States","fcodeName":"building(s)","adminName1":"Michigan","lat":"42.6911","fcode":"BLDG"},{"adminCode1":"MI","lng":"-83.30584","geonameId":9679217,"toponymName":"Lake Angelus Police Department","countryId":"6252001","fcl":"S","population":0,"countryCode":"US","name":"Lake Angelus Police Department","fclName":"spot, building, farm","adminCodes1":{"ISO3166_2":"MI"},"countryName":"United States","fcodeName":"building(s)","adminName1":"Michigan","lat":"42.69583","fcode":"BLDG"}]}
