{"totalResultsCount":931,"geonames":[{"adminCode1":"TX","lng":"-98.49363","geonameId":4726206,"toponymName":"San Antonio","countryId":"6252001","fcl":"P","population":1469845,"countryCode":"US","name":"San Antonio","fclName":"city, village,...","adminCodes1":{"ISO3166_2":"TX"},"countryName":"United States","fcodeName":"seat of a second-order administrative division","adminName1":"Texas","lat":"29.42412","fcode":"PPLA2"},{"adminCode1":"TX","lng":"-98.47002","geonameId":4726234,"toponymName":"San Antonio International Airport","countryId":"6252001","fcl":"S","population":0,"countryCode":"US","name":"San Antonio International Airport","fclName":"spot, building, farm","adminCodes1":{"ISO3166_2":"TX"},"countryName":"United States","fcodeName":"airport","adminName1":"Texas","lat":"29.53384","fcode":"AIRP"},{"adminCode1":"FL","lng":"-82.27453","geonameId":4171771,"toponymName":"San Antonio","countryId":"6252001","fcl":"P","population":1308,"countryCode":"US","name":"San Antonio","fclName":"city, village,...","adminCodes1":{"ISO3166_2":"FL"},"countryName":"United States","fcodeName":"populated place","adminName1":"Florida","lat":"28.33611","fcode":"PPL"},{"adminCode1":"TX","lng":"-98.45467","geonameId":4726238,"toponymName":"San Antonio Missions National Historical Park","countryId":"6252001","fcl":"L","population":0,"countryCode":"US","name":"San Antonio Missions National Historical Park","fclName":"parks,area, ...","adminCodes1":{"ISO3166_2":"TX"},"countryName":"United States","fcodeName":"park","adminName1":"Texas","lat":"29.33273","fcode":"PRK"},{"adminCode1":"TX","lng":"-98.45807","geonameId":4726213,"toponymName":"San Antonio Botanical Garden","countryId":"6252001","fcl":"L","population":0,"countryCode":"US","name":"San Antonio Botanical Garden","fclName":"parks,area, ...","adminCodes1":{"ISO3166_2":"TX"},"countryName":"United States","fcodeName":"park","adminName1":"Texas","lat":"29.45829","fcode":"PRK"},{"adminCode1":"TX","lng":"-98.55585","geonameId":4698465,"toponymName":"Holy Cross of San Antonio School Baseball Field","countryId":"6252001","fcl":"L","population":0,"countryCode":"US","name":"Holy Cross of San Antonio School Baseball Field","fclName":"parks,area, ...","adminCodes1":{"ISO3166_2":"TX"},"countryName":"United States","fcodeName":"park","adminName1":"Texas","lat":"29.4419","fcode":"PRK"},{"adminCode1":"TX","lng":"-98.6998","geonameId":7729819,"toponymName":"SeaWorld San Antonio","countryId":"6252001","fcl":"L","population":0,"countryCode":"US","name":"SeaWorld San Antonio","fclName":"parks,area, ...","adminCodes1":{"ISO3166_2":"TX"},"countryName":"United States","fcodeName":"park","adminName1":"Texas","lat":"29.4584","fcode":"PRK"},{"adminCode1":"WA","lng":"-121.76037","geonameId":5789316,"toponymName":"Cascade Range","countryId":"6252001","fcl":"T","population":0,"countryCode":"US","name":"Cascade Range","fclName":"mountain,hill,rock,... ","adminCodes1":{"ISO3166_2":"WA"},"countryName":"United States","fcodeName":"mountains","adminName1":"Washington","lat":"46.85289","fcode":"MTS"},{"adminCode1":"CA","lng":"-119.78014","geonameId":5391634,"toponymName":"San Antonio Canyon Park","countryId":"6252001","fcl":"L","population":0,"countryCode":"US","name":"San Antonio Canyon Park","fclName":"parks,area, ...","adminCodes1":{"ISO3166_2":"CA"},"countryName":"United States","fcodeName":"park","adminName1":"California","lat":"34.45722","fcode":"PRK"},{"adminCode1":"CA","lng":"-117.65644","geonameId":5391648,"toponymName":"San Antonio Heights","countryId":"6252001","fcl":"P","population":3371,"countryCode":"US","name":"San Antonio Heights","fclName":"city, village,...","adminCodes1":{"ISO3166_2":"CA"},"countryName":"United States","fcodeName":"populated place","adminName1":"California","lat":"34.15556","fcode":"PPL"},{"adminCode1":"NM","lng":"-106.86586","geonameId":5489463,"toponymName":"San Antonio","countryId":"6252001","fcl":"P","population":165,"countryCode":"US","name":"San Antonio","fclName":"city, village,...","adminCodes1":{"ISO3166_2":"NM"},"countryName":"United States","fcodeName":"populated place","adminName1":"New Mexico","lat":"33.91784","fcode":"PPL"},{"adminCode1":"CA","lng":"-122.09274","geonameId":5386050,"toponymName":"Rancho San Antonio County Park","countryId":"6252001","fcl":"L","population":0,"countryCode":"US","name":"Rancho San Antonio County Park","fclName":"parks,area, ...","adminCodes1":{"ISO3166_2":"CA"},"countryName":"United States","fcodeName":"park","adminName1":"California","lat":"37.33105","fcode":"PRK"},{"adminCode1":"TX","lng":"-96.8911","geonameId":4726245,"toponymName":"San Antonio River","countryId":"6252001","fcl":"H","population":0,"countryCode":"US","name":"San Antonio River","fclName":"stream, lake, ...","adminCodes1":{"ISO3166_2":"TX"},"countryName":"United States","fcodeName":"stream","adminName1":"Texas","lat":"28.50722","fcode":"STM"},{"adminCode1":"CA","lng":"-117.64672","geonameId":5391677,"toponymName":"Mount San Antonio","countryId":"6252001","fcl":"T","population":0,"countryCode":"US","name":"Mount San Antonio","fclName":"mountain,hill,rock,... ","adminCodes1":{"ISO3166_2":"CA"},"countryName":"United States","fcodeName":"mountain","adminName1":"California","lat":"34.28889","fcode":"MT"},{"adminCode1":"NV","lng":"-117.19508","geonameId":5511718,"toponymName":"San Antonio Mountains","countryId":"6252001","fcl":"T","population":0,"countryCode":"US","name":"San Antonio Mountains","fclName":"mountain,hill,rock,... ","adminCodes1":{"ISO3166_2":"NV"},"countryName":"United States","fcodeName":"mountains","adminName1":"Nevada","lat":"38.06716","fcode":"MTS"},{"adminCode1":"MO","lng":"-94.68357","geonameId":4407500,"toponymName":"San Antonio","countryId":"6252001","fcl":"P","population":0,"countryCode":"US","name":"San Antonio","fclName":"city, village,...","adminCodes1":{"ISO3166_2":"MO"},"countryName":"United States","fcodeName":"populated place","adminName1":"Missouri","lat":"39.77694","fcode":"PPL"},{"adminCode1":"CO","lng":"-106.00863","geonameId":5411988,"toponymName":"Antonito","countryId":"6252001","fcl":"P","population":759,"countryCode":"US","name":"Antonito","fclName":"city, village,...","adminCodes1":{"ISO3166_2":"CO"},"countryName":"United States","fcodeName":"populated place","adminName1":"Colorado","lat":"37.07918","fcode":"PPL"},{"adminCode1":"CA","lng":"-122.97944","geonameId":5391675,"toponymName":"Estero de San Antonio","countryId":"6252001","fcl":"H","population":0,"countryCode":"US","name":"Estero de San Antonio","fclName":"stream, lake, ...","adminCodes1":{"ISO3166_2":"CA"},"countryName":"United States","fcodeName":"stream","adminName1":"California","lat":"38.26992","fcode":"STM"},{"adminCode1":"CA","lng":"-121.45299","geonameId":5391670,"toponymName":"San Antonio Valley","countryId":"6252001","fcl":"T","population":0,"countryCode":"US","name":"San Antonio Valley","fclName":"mountain,hill,rock,... ","adminCodes1":{"ISO3166_2":"CA"},"countryName":"United States","fcodeName":"valley","adminName1":"California","lat":"37.34355","fcode":"VAL"},{"adminCode1":"CA","lng":"-122.7487","geonameId":5364319,"toponymName":"Laguna Lake","countryId":"6252001","fcl":"H","population":0,"countryCode":"US","name":"Laguna Lake","fclName":"stream, lake, ...","adminCodes1":{"ISO3166_2":"CA"},"countryName":"United States","fcodeName":"lake","adminName1":"California","lat":"38.21477","fcode":"LK"},{"adminCode1":"NM","lng":"-106.01891","geonameId":5489487,"toponymName":"San Antonio Mountain","countryId":"6252001","fcl":"T","population":0,"countryCode":"US","name":"San Antonio Mountain","fclName":"mountain,hill,rock,... ","adminCodes1":{"ISO3166_2":"NM"},"countryName":"United States","fcodeName":"mountain","adminName1":"New Mexico","lat":"36.85974","fcode":"MT"},{"adminCode1":"FL","lng":"-82.27884","geonameId":7170777,"toponymName":"City of San Antonio","countryId":"6252001","fcl":"A","population":1138,"countryCode":"US","name":"City of San Antonio","fclName":"country, state, region,...","adminCodes1":{"ISO3166_2":"FL"},"countryName":"United States","fcodeName":"third-order administrative division","adminName1":"Florida","lat":"28.33967","fcode":"ADM3"},{"adminCode1":"NV","lng":"-117.2937","geonameId":5511713,"toponymName":"San Antonio (historical)","countryId":"6252001","fcl":"P","population":0,"countryCode":"US","name":"San Antonio (historical)","fclName":"city, village,...","adminCodes1":{"ISO3166_2":"NV"},"countryName":"United States","fcodeName":"abandoned populated place","adminName1":"Nevada","lat":"38.46104","fcode":"PPLQ"},{"adminCode1":"TX","lng":"-98.52468","geonameId":11788957,"toponymName":"City of San Antonio","countryId":"6252001","fcl":"A","population":0,"countryCode":"US","name":"City of San Antonio","fclName":"country, state, region,...","adminCodes1":{"ISO3166_2":"TX"},"countryName":"United States","fcodeName":"third-order administrative division","adminName1":"Texas","lat":"29.47215","fcode":"ADM3"},{"adminCode1":"CA","lng":"-122.59137","geonameId":5391627,"toponymName":"San Antonio","countryId":"6252001","fcl":"P","population":0,"countryCode":"US","name":"San Antonio","fclName":"city, village,...","adminCodes1":{"ISO3166_2":"CA"},"countryName":"United States","fcodeName":"populated place","adminName1":"California","lat":"38.18381","fcode":"PPL"},{"adminCode1":"NM","lng":"-106.68086","geonameId":5472890,"toponymName":"Isleta Pueblo","countryId":"6252001","fcl":"P","population":0,"countryCode":"US","name":"Isleta Pueblo","fclName":"city, village,...","adminCodes1":{"ISO3166_2":"NM"},"countryName":"United States","fcodeName":"populated place","adminName1":"New Mexico","lat":"34.907","fcode":"PPL"},{"adminCode1":"NM","lng":"-105.59501","geonameId":5485658,"toponymName":"Questa","countryId":"6252001","fcl":"P","population":1753,"countryCode":"US","name":"Questa","fclName":"city, village,...","adminCodes1":{"ISO3166_2":"NM"},"countryName":"United States","fcodeName":"populated place","adminName1":"New Mexico","lat":"36.70391","fcode":"PPL"},{"adminCode1":"NM","lng":"-106.57197","geonameId":5490112,"toponymName":"Sandia Pueblo","countryId":"6252001","fcl":"P","population":0,"countryCode":"US","name":"Sandia Pueblo","fclName":"city, village,...","adminCodes1":{"ISO3166_2":"NM"},"countryName":"United States","fcodeName":"populated place","adminName1":"New Mexico","lat":"35.25587","fcode":"PPL"},{"adminCode1":"NY","lng":"-74.0282","geonameId":5121521,"toponymName":"Hudson River","countryId":"6252001","fcl":"H","population":0,"countryCode":"US","name":"Hudson River","fclName":"stream, lake, ...","adminCodes1":{"ISO3166_2":"NY"},"countryName":"United States","fcodeName":"stream","adminName1":"New York","lat":"40.69677","fcode":"STM"},{"adminCode1":"NM","lng":"-105.37057","geonameId":5462321,"toponymName":"Cleveland","countryId":"6252001","fcl":"P","population":0,"countryCode":"US","name":"Cleveland","fclName":"city, village,...","adminCodes1":{"ISO3166_2":"NM"},"countryName":"United States","fcodeName":"populated place","adminName1":"New Mexico","lat":"35.99337","fcode":"PPL"},{"adminCode1":"TX","lng":"-98.4982","geonameId":4698780,"toponymName":"Horizon Airport","countryId":"6252001","fcl":"S","population":0,"countryCode":"US","name":"Horizon Airport","fclName":"spot, building, farm","adminCodes1":{"ISO3166_2":"TX"},"countryName":"United States","fcodeName":"airport","adminName1":"Texas","lat":"29.28597","fcode":"AIRP"},{"adminCode1":"NM","lng":"-106.61642","geonameId":5489512,"toponymName":"Valle San Antonio","countryId":"6252001","fcl":"T","population":0,"countryCode":"US","name":"Valle San Antonio","fclName":"mountain,hill,rock,... ","adminCodes1":{"ISO3166_2":"NM"},"countryName":"United States","fcodeName":"valley","adminName1":"New Mexico","lat":"35.96391","fcode":"VAL"},{"adminCode1":"TX","lng":"-98.6998","geonameId":6957016,"toponymName":"Sea World San Antonio","countryId":"6252001","fcl":"L","population":0,"countryCode":"US","name":"Sea World San Antonio","fclName":"parks,area, ...","adminCodes1":{"ISO3166_2":"TX"},"countryName":"United States","fcodeName":"amusement park","adminName1":"Texas","lat":"29.45907","fcode":"AMUS"},{"adminCode1":"TX","lng":"-98.62641","geonameId":4726211,"toponymName":"San Antonio Baseball Field - University of Texas","countryId":"6252001","fcl":"L","population":0,"countryCode":"US","name":"San Antonio Baseball Field - University of Texas","fclName":"parks,area, ...","adminCodes1":{"ISO3166_2":"TX"},"countryName":"United States","fcodeName":"park","adminName1":"Texas","lat":"29.58301","fcode":"PRK"},{"adminCode1":"TX","lng":"-98.62169","geonameId":4726225,"toponymName":"San Antonio Convocation Center - University of Texas","countryId":"6252001","fcl":"L","population":0,"countryCode":"US","name":"San Antonio Convocation Center - University of Texas","fclName":"parks,area, ...","adminCodes1":{"ISO3166_2":"TX"},"countryName":"United States","fcodeName":"park","adminName1":"Texas","lat":"29.58273","fcode":"PRK"},{"adminCode1":"TX","lng":"-96.23001","geonameId":4726236,"toponymName":"San Antonio Lake","countryId":"6252001","fcl":"H","population":0,"countryCode":"US","name":"San Antonio Lake","fclName":"stream, lake, ...","adminCodes1":{"ISO3166_2":"TX"},"countryName":"United States","fcodeName":"lake","adminName1":"Texas","lat":"30.97885","fcode":"LK"},{"adminCode1":"TX","lng":"-98.62335","geonameId":4726247,"toponymName":"San Antonio Softball Field - University of Texas","countryId":"6252001","fcl":"L","population":0,"countryCode":"US","name":"San Antonio Softball Field - University of Texas","fclName":"parks,area, ...","adminCodes1":{"ISO3166_2":"TX"},"countryName":"United States","fcodeName":"park","adminName1":"Texas","lat":"29.58328","fcode":"PRK"},{"adminCode1":"FL","lng":"-87.26581","geonameId":4146141,"toponymName":"Antonio Collin Grant","countryId":"6252001","fcl":"A","population":0,"countryCode":"US","name":"Antonio Collin Grant","fclName":"country, state, region,...","adminCodes1":{"ISO3166_2":"FL"},"countryName":"United States","fcodeName":"administrative division","adminName1":"Florida","lat":"30.46797","fcode":"ADMD"},{"adminCode1":"FL","lng":"-81.49062","geonameId":4146142,"toponymName":"Antonio Huertas Grant","countryId":"6252001","fcl":"A","population":0,"countryCode":"US","name":"Antonio Huertas Grant","fclName":"country, state, region,...","adminCodes1":{"ISO3166_2":"FL"},"countryName":"United States","fcodeName":"administrative division","adminName1":"Florida","lat":"29.07859","fcode":"ADMD"},{"adminCode1":"FL","lng":"-81.66119","geonameId":4146143,"toponymName":"Antonio J Triay Grant","countryId":"6252001","fcl":"A","population":0,"countryCode":"US","name":"Antonio J Triay Grant","fclName":"country, state, region,...","adminCodes1":{"ISO3166_2":"FL"},"countryName":"United States","fcodeName":"administrative division","adminName1":"Florida","lat":"29.46414","fcode":"ADMD"},{"adminCode1":"CA","lng":"-122.15191","geonameId":5391625,"toponymName":"San Antonio","countryId":"6252001","fcl":"A","population":0,"countryCode":"US","name":"San Antonio","fclName":"country, state, region,...","adminCodes1":{"ISO3166_2":"CA"},"countryName":"United States","fcodeName":"administrative division","adminName1":"California","lat":"37.7616","fcode":"ADMD"},{"adminCode1":"CA","lng":"-118.19118","geonameId":5391626,"toponymName":"San Antonio","countryId":"6252001","fcl":"A","population":0,"countryCode":"US","name":"San Antonio","fclName":"country, state, region,...","adminCodes1":{"ISO3166_2":"CA"},"countryName":"United States","fcodeName":"administrative division","adminName1":"California","lat":"33.9564","fcode":"ADMD"},{"adminCode1":"CA","lng":"-122.39386","geonameId":5391673,"toponymName":"San Antonio or Pescadero","countryId":"6252001","fcl":"A","population":0,"countryCode":"US","name":"San Antonio or Pescadero","fclName":"country, state, region,...","adminCodes1":{"ISO3166_2":"CA"},"countryName":"United States","fcodeName":"administrative division","adminName1":"California","lat":"37.27828","fcode":"ADMD"},{"adminCode1":"AK","lng":"-147.92105","geonameId":5867206,"toponymName":"Latouche Island","countryId":"6252001","fcl":"T","population":0,"countryCode":"US","name":"Latouche Island","fclName":"mountain,hill,rock,... ","adminCodes1":{"ISO3166_2":"AK"},"countryName":"United States","fcodeName":"island","adminName1":"Alaska","lat":"60.00487","fcode":"ISL"},{"adminCode1":"CA","lng":"-121.80356","geonameId":5391313,"toponymName":"Salinas River","countryId":"6252001","fcl":"H","population":0,"countryCode":"US","name":"Salinas River","fclName":"stream, lake, ...","adminCodes1":{"ISO3166_2":"CA"},"countryName":"United States","fcodeName":"stream","adminName1":"California","lat":"36.7494","fcode":"STM"},{"adminCode1":"NM","lng":"-105.60557","geonameId":5455409,"toponymName":"Antonio Martinez or Godoi Grant","countryId":"6252001","fcl":"A","population":0,"countryCode":"US","name":"Antonio Martinez or Godoi Grant","fclName":"country, state, region,...","adminCodes1":{"ISO3166_2":"NM"},"countryName":"United States","fcodeName":"administrative division","adminName1":"New Mexico","lat":"36.46391","fcode":"ADMD"},{"adminCode1":"AK","lng":"-133.43583","geonameId":5846213,"toponymName":"Cape Felix","countryId":"6252001","fcl":"T","population":0,"countryCode":"US","name":"Cape Felix","fclName":"mountain,hill,rock,... ","adminCodes1":{"ISO3166_2":"AK"},"countryName":"United States","fcodeName":"cape","adminName1":"Alaska","lat":"55.21222","fcode":"CAPE"},{"adminCode1":"NM","lng":"-105.96113","geonameId":5466750,"toponymName":"Embudo","countryId":"6252001","fcl":"P","population":0,"countryCode":"US","name":"Embudo","fclName":"city, village,...","adminCodes1":{"ISO3166_2":"NM"},"countryName":"United States","fcodeName":"populated place","adminName1":"New Mexico","lat":"36.20752","fcode":"PPL"},{"adminCode1":"NM","lng":"-105.5839","geonameId":5496302,"toponymName":"Valdez","countryId":"6252001","fcl":"P","population":0,"countryCode":"US","name":"Valdez","fclName":"city, village,...","adminCodes1":{"ISO3166_2":"NM"},"countryName":"United States","fcodeName":"populated place","adminName1":"New Mexico","lat":"36.53447","fcode":"PPL"},{"adminCode1":"NM","lng":"-105.33001","geonameId":5285666,"toponymName":"Mora","countryId":"6252001","fcl":"P","population":656,"countryCode":"US","name":"Mora","fclName":"city, village,...","adminCodes1":{"ISO3166_2":"NM"},"countryName":"United States","fcodeName":"seat of a second-order administrative division","adminName1":"New Mexico","lat":"35.9742","fcode":"PPLA2"},{"adminCode1":"CA","lng":"-118.40091","geonameId":5391674,"toponymName":"San Antonio or Rodeo De Las Aguas","countryId":"6252001","fcl":"A","population":0,"countryCode":"US","name":"San Antonio or Rodeo De Las Aguas","fclName":"country, state, region,...","adminCodes1":{"ISO3166_2":"CA"},"countryName":"United States","fcodeName":"administrative division","adminName1":"California","lat":"34.07529","fcode":"ADMD"},{"adminCode1":"TX","lng":"-98.6228","geonameId":4738632,"toponymName":"University of Texas at San Antonio","countryId":"6252001","fcl":"S","population":0,"countryCode":"US","name":"University of Texas at San Antonio","fclName":"spot, building, farm","adminCodes1":{"ISO3166_2":"TX"},"countryName":"United States","fcodeName":"school","adminName1":"Texas","lat":"29.57717","fcode":"SCH"},{"adminCode1":"NM","lng":"-107.08559","geonameId":5455411,"toponymName":"Antonio Sedillo Grant","countryId":"6252001","fcl":"A","population":0,"countryCode":"US","name":"Antonio Sedillo Grant","fclName":"country, state, region,...","adminCodes1":{"ISO3166_2":"NM"},"countryName":"United States","fcodeName":"administrative division","adminName1":"New Mexico","lat":"34.92088","fcode":"ADMD"},{"adminCode1":"NM","lng":"-106.61587","geonameId":5489488,"toponymName":"San Antonio Mountain","countryId":"6252001","fcl":"T","population":0,"countryCode":"US","name":"San Antonio Mountain","fclName":"mountain,hill,rock,... ","adminCodes1":{"ISO3166_2":"NM"},"countryName":"United States","fcodeName":"mountain","adminName1":"New Mexico","lat":"35.93752","fcode":"MT"},{"adminCode1":"CA","lng":"-122.21747","geonameId":5391623,"toponymName":"San Antonio","countryId":"6252001","fcl":"A","population":0,"countryCode":"US","name":"San Antonio","fclName":"country, state, region,...","adminCodes1":{"ISO3166_2":"CA"},"countryName":"United States","fcodeName":"administrative division","adminName1":"California","lat":"37.78021","fcode":"ADMD"},{"adminCode1":"CA","lng":"-122.25552","geonameId":5391624,"toponymName":"San Antonio","countryId":"6252001","fcl":"A","population":0,"countryCode":"US","name":"San Antonio","fclName":"country, state, region,...","adminCodes1":{"ISO3166_2":"CA"},"countryName":"United States","fcodeName":"administrative division","adminName1":"California","lat":"37.8577","fcode":"ADMD"},{"adminCode1":"CA","lng":"-122.09468","geonameId":5391628,"toponymName":"San Antonio","countryId":"6252001","fcl":"A","population":0,"countryCode":"US","name":"San Antonio","fclName":"country, state, region,...","adminCodes1":{"ISO3166_2":"CA"},"countryName":"United States","fcodeName":"administrative division","adminName1":"California","lat":"37.34077","fcode":"ADMD"},{"adminCode1":"CA","lng":"-122.24052","geonameId":5391652,"toponymName":"San Antonio Park","countryId":"6252001","fcl":"L","population":0,"countryCode":"US","name":"San Antonio Park","fclName":"parks,area, ...","adminCodes1":{"ISO3166_2":"CA"},"countryName":"United States","fcodeName":"park","adminName1":"California","lat":"37.79021","fcode":"PRK"},{"adminCode1":"CA","lng":"-118.01423","geonameId":5391653,"toponymName":"San Antonio Park","countryId":"6252001","fcl":"L","population":0,"countryCode":"US","name":"San Antonio Park","fclName":"parks,area, ...","adminCodes1":{"ISO3166_2":"CA"},"countryName":"United States","fcodeName":"park","adminName1":"California","lat":"33.83529","fcode":"PRK"},{"adminCode1":"CA","lng":"-117.65978","geonameId":5391654,"toponymName":"San Antonio Park","countryId":"6252001","fcl":"L","population":0,"countryCode":"US","name":"San Antonio Park","fclName":"parks,area, ...","adminCodes1":{"ISO3166_2":"CA"},"countryName":"United States","fcodeName":"park","adminName1":"California","lat":"34.06862","fcode":"PRK"},{"adminCode1":"CA","lng":"-117.672","geonameId":5391655,"toponymName":"San Antonio Park","countryId":"6252001","fcl":"L","population":0,"countryCode":"US","name":"San Antonio Park","fclName":"parks,area, ...","adminCodes1":{"ISO3166_2":"CA"},"countryName":"United States","fcodeName":"park","adminName1":"California","lat":"34.15112","fcode":"PRK"},{"adminCode1":"CA","lng":"-122.05718","geonameId":5391656,"toponymName":"San Antonio Park","countryId":"6252001","fcl":"L","population":0,"countryCode":"US","name":"San Antonio Park","fclName":"parks,area, ...","adminCodes1":{"ISO3166_2":"CA"},"countryName":"United States","fcodeName":"park","adminName1":"California","lat":"37.34911","fcode":"PRK"},{"adminCode1":"CA","lng":"-120.46239","geonameId":5402805,"toponymName":"Todos Santos Y San Antonio","countryId":"6252001","fcl":"A","population":0,"countryCode":"US","name":"Todos Santos Y San Antonio","fclName":"country, state, region,...","adminCodes1":{"ISO3166_2":"CA"},"countryName":"United States","fcodeName":"administrative division","adminName1":"California","lat":"34.80165","fcode":"ADMD"},{"adminCode1":"CA","lng":"-122.74666","geonameId":5364300,"toponymName":"Laguna De San Antonio","countryId":"6252001","fcl":"A","population":0,"countryCode":"US","name":"Laguna De San Antonio","fclName":"country, state, region,...","adminCodes1":{"ISO3166_2":"CA"},"countryName":"United States","fcodeName":"administrative division","adminName1":"California","lat":"38.22603","fcode":"ADMD"},{"adminCode1":"TX","lng":"-99.61921","geonameId":4671043,"toponymName":"Antonio Santos Colonia","countryId":"6252001","fcl":"P","population":0,"countryCode":"US","name":"Antonio Santos Colonia","fclName":"city, village,...","adminCodes1":{"ISO3166_2":"TX"},"countryName":"United States","fcodeName":"populated place","adminName1":"Texas","lat":"27.6514","fcode":"PPL"},{"adminCode1":"AK","lng":"-133.23361","geonameId":5556967,"toponymName":"Point San Antonio","countryId":"6252001","fcl":"T","population":0,"countryCode":"US","name":"Point San Antonio","fclName":"mountain,hill,rock,... ","adminCodes1":{"ISO3166_2":"AK"},"countryName":"United States","fcodeName":"cape","adminName1":"Alaska","lat":"55.28611","fcode":"CAPE"},{"adminCode1":"NV","lng":"-116.89423","geonameId":5508528,"toponymName":"Monitor Hills","countryId":"6252001","fcl":"T","population":0,"countryCode":"US","name":"Monitor Hills","fclName":"mountain,hill,rock,... ","adminCodes1":{"ISO3166_2":"NV"},"countryName":"United States","fcodeName":"mountains","adminName1":"Nevada","lat":"37.94688","fcode":"MTS"},{"adminCode1":"CA","lng":"-121.80967","geonameId":5380541,"toponymName":"Pajaro River","countryId":"6252001","fcl":"H","population":0,"countryCode":"US","name":"Pajaro River","fclName":"stream, lake, ...","adminCodes1":{"ISO3166_2":"CA"},"countryName":"United States","fcodeName":"stream","adminName1":"California","lat":"36.84995","fcode":"STM"},{"adminCode1":"CA","lng":"-120.97638","geonameId":5364661,"toponymName":"Lake San Antonio","countryId":"6252001","fcl":"H","population":0,"countryCode":"US","name":"Lake San Antonio","fclName":"stream, lake, ...","adminCodes1":{"ISO3166_2":"CA"},"countryName":"United States","fcodeName":"reservoir(s)","adminName1":"California","lat":"35.85648","fcode":"RSV"},{"adminCode1":"NM","lng":"-104.93833","geonameId":5455410,"toponymName":"Antonio Ortiz Grant","countryId":"6252001","fcl":"A","population":0,"countryCode":"US","name":"Antonio Ortiz Grant","fclName":"country, state, region,...","adminCodes1":{"ISO3166_2":"NM"},"countryName":"United States","fcodeName":"administrative division","adminName1":"New Mexico","lat":"35.32699","fcode":"ADMD"},{"adminCode1":"NM","lng":"-106.0578","geonameId":5455415,"toponymName":"Antonio de Abeyta Grant","countryId":"6252001","fcl":"A","population":0,"countryCode":"US","name":"Antonio de Abeyta Grant","fclName":"country, state, region,...","adminCodes1":{"ISO3166_2":"NM"},"countryName":"United States","fcodeName":"administrative division","adminName1":"New Mexico","lat":"36.20613","fcode":"ADMD"},{"adminCode1":"NM","lng":"-106.41502","geonameId":5489495,"toponymName":"San Antonio De Las Huertas Grant","countryId":"6252001","fcl":"A","population":0,"countryCode":"US","name":"San Antonio De Las Huertas Grant","fclName":"country, state, region,...","adminCodes1":{"ISO3166_2":"NM"},"countryName":"United States","fcodeName":"administrative division","adminName1":"New Mexico","lat":"35.31476","fcode":"ADMD"},{"adminCode1":"NM","lng":"-106.06613","geonameId":5489498,"toponymName":"San Antonio Wilderness Study Area","countryId":"6252001","fcl":"L","population":0,"countryCode":"US","name":"San Antonio Wilderness Study Area","fclName":"parks,area, ...","adminCodes1":{"ISO3166_2":"NM"},"countryName":"United States","fcodeName":"park","adminName1":"New Mexico","lat":"36.9589","fcode":"PRK"},{"adminCode1":"NM","lng":"-106.85475","geonameId":5489506,"toponymName":"San Antonio on the Camino Real Historic Marker","countryId":"6252001","fcl":"L","population":0,"countryCode":"US","name":"San Antonio on the Camino Real Historic Marker","fclName":"parks,area, ...","adminCodes1":{"ISO3166_2":"NM"},"countryName":"United States","fcodeName":"park","adminName1":"New Mexico","lat":"33.91784","fcode":"PRK"},{"adminCode1":"CA","lng":"-122.28941","geonameId":5378552,"toponymName":"Oakland Inner Harbor","countryId":"6252001","fcl":"H","population":0,"countryCode":"US","name":"Oakland Inner Harbor","fclName":"stream, lake, ...","adminCodes1":{"ISO3166_2":"CA"},"countryName":"United States","fcodeName":"bay","adminName1":"California","lat":"37.79326","fcode":"BAY"},{"adminCode1":"CA","lng":"-122.30469","geonameId":5322856,"toponymName":"Albany Hill","countryId":"6252001","fcl":"T","population":0,"countryCode":"US","name":"Albany Hill","fclName":"mountain,hill,rock,... ","adminCodes1":{"ISO3166_2":"CA"},"countryName":"United States","fcodeName":"mountain","adminName1":"California","lat":"37.89493","fcode":"MT"},{"adminCode1":"CA","lng":"-120.88574","geonameId":5391662,"toponymName":"San Antonio Dam","countryId":"6252001","fcl":"S","population":0,"countryCode":"US","name":"San Antonio Dam","fclName":"spot, building, farm","adminCodes1":{"ISO3166_2":"CA"},"countryName":"United States","fcodeName":"dam","adminName1":"California","lat":"35.79858","fcode":"DAM"},{"adminCode1":"TX","lng":"-98.45777","geonameId":7207580,"toponymName":"San Antonio Christian School","countryId":"6252001","fcl":"S","population":0,"countryCode":"US","name":"San Antonio Christian School","fclName":"spot, building, farm","adminCodes1":{"ISO3166_2":"TX"},"countryName":"United States","fcodeName":"school","adminName1":"Texas","lat":"29.61871","fcode":"SCH"},{"adminCode1":"TX","lng":"-98.54696","geonameId":4733161,"toponymName":"South San Antonio High School","countryId":"6252001","fcl":"S","population":0,"countryCode":"US","name":"South San Antonio High School","fclName":"spot, building, farm","adminCodes1":{"ISO3166_2":"TX"},"countryName":"United States","fcodeName":"school","adminName1":"Texas","lat":"29.3494","fcode":"SCH"},{"adminCode1":"TX","lng":"-98.49252","geonameId":4726207,"toponymName":"San Antonio Academy","countryId":"6252001","fcl":"S","population":0,"countryCode":"US","name":"San Antonio Academy","fclName":"spot, building, farm","adminCodes1":{"ISO3166_2":"TX"},"countryName":"United States","fcodeName":"school","adminName1":"Texas","lat":"29.45079","fcode":"SCH"},{"adminCode1":"TX","lng":"-96.73804","geonameId":4726212,"toponymName":"San Antonio Bay","countryId":"6252001","fcl":"H","population":0,"countryCode":"US","name":"San Antonio Bay","fclName":"stream, lake, ...","adminCodes1":{"ISO3166_2":"TX"},"countryName":"United States","fcodeName":"bay","adminName1":"Texas","lat":"28.30528","fcode":"BAY"},{"adminCode1":"TX","lng":"-98.4978","geonameId":4726224,"toponymName":"San Antonio College","countryId":"6252001","fcl":"S","population":0,"countryCode":"US","name":"San Antonio College","fclName":"spot, building, farm","adminCodes1":{"ISO3166_2":"TX"},"countryName":"United States","fcodeName":"school","adminName1":"Texas","lat":"29.44634","fcode":"SCH"},{"adminCode1":"TX","lng":"-98.49196","geonameId":4726248,"toponymName":"San Antonio Springs","countryId":"6252001","fcl":"H","population":0,"countryCode":"US","name":"San Antonio Springs","fclName":"stream, lake, ...","adminCodes1":{"ISO3166_2":"TX"},"countryName":"United States","fcodeName":"spring(s)","adminName1":"Texas","lat":"29.47523","fcode":"SPNG"},{"adminCode1":"TX","lng":"-98.27029","geonameId":4701853,"toponymName":"KABB-TV (San Antonio)","countryId":"6252001","fcl":"S","population":0,"countryCode":"US","name":"KABB-TV (San Antonio)","fclName":"spot, building, farm","adminCodes1":{"ISO3166_2":"TX"},"countryName":"United States","fcodeName":"tower","adminName1":"Texas","lat":"29.29107","fcode":"TOWR"},{"adminCode1":"TX","lng":"-98.61835","geonameId":4701945,"toponymName":"KCOR-AM (San Antonio)","countryId":"6252001","fcl":"S","population":0,"countryCode":"US","name":"KCOR-AM (San Antonio)","fclName":"spot, building, farm","adminCodes1":{"ISO3166_2":"TX"},"countryName":"United States","fcodeName":"tower","adminName1":"Texas","lat":"29.5244","fcode":"TOWR"},{"adminCode1":"TX","lng":"-98.72391","geonameId":4701956,"toponymName":"KCYY-FM (San Antonio)","countryId":"6252001","fcl":"S","population":0,"countryCode":"US","name":"KCYY-FM (San Antonio)","fclName":"spot, building, farm","adminCodes1":{"ISO3166_2":"TX"},"countryName":"United States","fcodeName":"tower","adminName1":"Texas","lat":"29.52384","fcode":"TOWR"},{"adminCode1":"TX","lng":"-98.35724","geonameId":4702184,"toponymName":"KLRN-TV (San Antonio)","countryId":"6252001","fcl":"S","population":0,"countryCode":"US","name":"KLRN-TV (San Antonio)","fclName":"spot, building, farm","adminCodes1":{"ISO3166_2":"TX"},"countryName":"United States","fcodeName":"tower","adminName1":"Texas","lat":"29.32607","fcode":"TOWR"},{"adminCode1":"TX","lng":"-98.25862","geonameId":4702487,"toponymName":"KVDA-TV (San Antonio)","countryId":"6252001","fcl":"S","population":0,"countryCode":"US","name":"KVDA-TV (San Antonio)","fclName":"spot, building, farm","adminCodes1":{"ISO3166_2":"TX"},"countryName":"United States","fcodeName":"tower","adminName1":"Texas","lat":"29.29441","fcode":"TOWR"},{"adminCode1":"NV","lng":"-117.23397","geonameId":5511717,"toponymName":"San Antonio Mountain","countryId":"6252001","fcl":"T","population":0,"countryCode":"US","name":"San Antonio Mountain","fclName":"mountain,hill,rock,... ","adminCodes1":{"ISO3166_2":"NV"},"countryName":"United States","fcodeName":"mountain","adminName1":"Nevada","lat":"38.25493","fcode":"MT"},{"adminCode1":"TX","lng":"-105.54914","geonameId":5530044,"toponymName":"San Antonio Mountain","countryId":"6252001","fcl":"T","population":0,"countryCode":"US","name":"San Antonio Mountain","fclName":"mountain,hill,rock,... ","adminCodes1":{"ISO3166_2":"TX"},"countryName":"United States","fcodeName":"mountain","adminName1":"Texas","lat":"31.99483","fcode":"MT"},{"adminCode1":"TX","lng":"-98.46714","geonameId":8123891,"toponymName":"San Antonio National Cemetery","countryId":"6252001","fcl":"S","population":0,"countryCode":"US","name":"San Antonio National Cemetery","fclName":"spot, building, farm","adminCodes1":{"ISO3166_2":"TX"},"countryName":"United States","fcodeName":"cemetery","adminName1":"Texas","lat":"29.42161","fcode":"CMTY"},{"adminCode1":"TX","lng":"-98.49157","geonameId":7536007,"toponymName":"San Antonio River Walk","countryId":"6252001","fcl":"S","population":0,"countryCode":"US","name":"San Antonio River Walk","fclName":"spot, building, farm","adminCodes1":{"ISO3166_2":"TX"},"countryName":"United States","fcodeName":"square","adminName1":"Texas","lat":"29.4252","fcode":"SQR"},{"adminCode1":"TX","lng":"-98.41568","geonameId":4676515,"toponymName":"San Antonio Military Medical Center - Brooke Army Medical Center","countryId":"6252001","fcl":"S","population":0,"countryCode":"US","name":"San Antonio Military Medical Center - Brooke Army Medical Center","fclName":"spot, building, farm","adminCodes1":{"ISO3166_2":"TX"},"countryName":"United States","fcodeName":"hospital","adminName1":"Texas","lat":"29.46042","fcode":"HSP"},{"adminCode1":"TX","lng":"-98.48224","geonameId":4726239,"toponymName":"San Antonio Museum of Art","countryId":"6252001","fcl":"S","population":0,"countryCode":"US","name":"San Antonio Museum of Art","fclName":"spot, building, farm","adminCodes1":{"ISO3166_2":"TX"},"countryName":"United States","fcodeName":"museum","adminName1":"Texas","lat":"29.43745","fcode":"MUS"},{"adminCode1":"TX","lng":"-98.60141","geonameId":4714024,"toponymName":"Nelson W Wolff San Antonio Municipal Stadium","countryId":"6252001","fcl":"S","population":0,"countryCode":"US","name":"Nelson W Wolff San Antonio Municipal Stadium","fclName":"spot, building, farm","adminCodes1":{"ISO3166_2":"TX"},"countryName":"United States","fcodeName":"stadium","adminName1":"Texas","lat":"29.4094","fcode":"STDM"},{"adminCode1":"NM","lng":"-106.07419","geonameId":5470276,"toponymName":"Guique","countryId":"6252001","fcl":"P","population":0,"countryCode":"US","name":"Guique","fclName":"city, village,...","adminCodes1":{"ISO3166_2":"NM"},"countryName":"United States","fcodeName":"populated place","adminName1":"New Mexico","lat":"36.0878","fcode":"PPL"},{"adminCode1":"NM","lng":"-106.51447","geonameId":5473303,"toponymName":"Jemez River","countryId":"6252001","fcl":"H","population":0,"countryCode":"US","name":"Jemez River","fclName":"stream, lake, ...","adminCodes1":{"ISO3166_2":"NM"},"countryName":"United States","fcodeName":"stream","adminName1":"New Mexico","lat":"35.3692","fcode":"STM"},{"adminCode1":"NM","lng":"-106.80753","geonameId":5488864,"toponymName":"Sabinal","countryId":"6252001","fcl":"P","population":0,"countryCode":"US","name":"Sabinal","fclName":"city, village,...","adminCodes1":{"ISO3166_2":"NM"},"countryName":"United States","fcodeName":"populated place","adminName1":"New Mexico","lat":"34.49367","fcode":"PPL"},{"adminCode1":"AK","lng":"-133.5775","geonameId":5556969,"toponymName":"Port San Antonio","countryId":"6252001","fcl":"H","population":0,"countryCode":"US","name":"Port San Antonio","fclName":"stream, lake, ...","adminCodes1":{"ISO3166_2":"AK"},"countryName":"United States","fcodeName":"bay","adminName1":"Alaska","lat":"55.345","fcode":"BAY"},{"adminCode1":"CA","lng":"-117.07503","geonameId":5325035,"toponymName":"Asistencia de San Antonio de Pala","countryId":"6252001","fcl":"S","population":0,"countryCode":"US","name":"Asistencia de San Antonio de Pala","fclName":"spot, building, farm","adminCodes1":{"ISO3166_2":"CA"},"countryName":"United States","fcodeName":"church","adminName1":"California","lat":"33.36587","fcode":"CH"}]}
