{"totalResultsCount":19,"geonames":[{"adminCode1":"MO","lng":"-90.39289","geonameId":4404233,"toponymName":"Poplar Bluff","countryId":"6252001","fcl":"P","population":17266,"countryCode":"US","name":"Poplar Bluff","fclName":"city, village,...","adminCodes1":{"ISO3166_2":"MO"},"countryName":"United States","fcodeName":"seat of a second-order administrative division","adminName1":"Missouri","lat":"36.757","fcode":"PPLA2"},{"adminCode1":"VA","lng":"-78.43584","geonameId":4744902,"toponymName":"Ashcroft","countryId":"6252001","fcl":"P","population":0,"countryCode":"US","name":"Ashcroft","fclName":"city, village,...","adminCodes1":{"ISO3166_2":"VA"},"countryName":"United States","fcodeName":"populated place","adminName1":"Virginia","lat":"38.03125","fcode":"PPL"},{"adminCode1":"CO","lng":"-106.79976","geonameId":5412212,"toponymName":"Ashcroft","countryId":"6252001","fcl":"P","population":0,"countryCode":"US","name":"Ashcroft","fclName":"city, village,...","adminCodes1":{"ISO3166_2":"CO"},"countryName":"United States","fcodeName":"populated place","adminName1":"Colorado","lat":"39.0536","fcode":"PPL"},{"adminCode1":"CO","lng":"-106.77782","geonameId":5412214,"toponymName":"Ashcroft Mountain","countryId":"6252001","fcl":"T","population":0,"countryCode":"US","name":"Ashcroft Mountain","fclName":"mountain,hill,rock,... ","adminCodes1":{"ISO3166_2":"CO"},"countryName":"United States","fcodeName":"mountain","adminName1":"Colorado","lat":"39.04277","fcode":"MT"},{"adminCode1":"MO","lng":"-90.38955","geonameId":4375195,"toponymName":"Ashcroft Addition","countryId":"6252001","fcl":"P","population":0,"countryCode":"US","name":"Ashcroft Addition","fclName":"city, village,...","adminCodes1":{"ISO3166_2":"MO"},"countryName":"United States","fcodeName":"populated place","adminName1":"Missouri","lat":"36.74422","fcode":"PPL"},{"adminCode1":"CO","lng":"-104.73802","geonameId":5574393,"toponymName":"Ashcroft Draw","countryId":"6252001","fcl":"T","population":0,"countryCode":"US","name":"Ashcroft Draw","fclName":"mountain,hill,rock,... ","adminCodes1":{"ISO3166_2":"CO"},"countryName":"United States","fcodeName":"valley","adminName1":"Colorado","lat":"40.36081","fcode":"VAL"},{"adminCode1":"MA","lng":"-71.1495","geonameId":4929273,"toponymName":"Ashcroft","countryId":"6252001","fcl":"P","population":0,"countryCode":"US","name":"Ashcroft","fclName":"city, village,...","adminCodes1":{"ISO3166_2":"MA"},"countryName":"United States","fcodeName":"populated place","adminName1":"Massachusetts","lat":"42.23343","fcode":"PPL"},{"adminCode1":"IL","lng":"-88.34208","geonameId":11392712,"toponymName":"Ashcroft","countryId":"6252001","fcl":"P","population":0,"countryCode":"US","name":"Ashcroft","fclName":"city, village,...","adminCodes1":{"ISO3166_2":"IL"},"countryName":"United States","fcodeName":"populated place","adminName1":"Illinois","lat":"41.6664","fcode":"PPL"},{"adminCode1":"IL","lng":"-88.3293","geonameId":11392713,"toponymName":"Ashcroft Place","countryId":"6252001","fcl":"P","population":0,"countryCode":"US","name":"Ashcroft Place","fclName":"city, village,...","adminCodes1":{"ISO3166_2":"IL"},"countryName":"United States","fcodeName":"populated place","adminName1":"Illinois","lat":"41.6657","fcode":"PPL"},{"adminCode1":"MD","lng":"-76.50246","geonameId":4347520,"toponymName":"Ashcroft","countryId":"6252001","fcl":"P","population":0,"countryCode":"US","name":"Ashcroft","fclName":"city, village,...","adminCodes1":{"ISO3166_2":"MD"},"countryName":"United States","fcodeName":"populated place","adminName1":"Maryland","lat":"39.02428","fcode":"PPL"},{"adminCode1":"SD","lng":"-103.29904","geonameId":5762501,"toponymName":"Ashcroft Butte","countryId":"6252001","fcl":"T","population":0,"countryCode":"US","name":"Ashcroft Butte","fclName":"mountain,hill,rock,... ","adminCodes1":{"ISO3166_2":"SD"},"countryName":"United States","fcodeName":"mountain","adminName1":"South Dakota","lat":"45.76284","fcode":"MT"},{"adminCode1":"TN","lng":"-85.53664","geonameId":4603217,"toponymName":"Ashcroft Subdivision","countryId":"6252001","fcl":"P","population":0,"countryCode":"US","name":"Ashcroft Subdivision","fclName":"city, village,...","adminCodes1":{"ISO3166_2":"TN"},"countryName":"United States","fcodeName":"section of populated place","adminName1":"Tennessee","lat":"36.17923","fcode":"PPLX"},{"adminCode1":"NM","lng":"-108.49174","geonameId":5455852,"toponymName":"Ashcroft-Merrill Historic District","countryId":"6252001","fcl":"S","population":0,"countryCode":"US","name":"Ashcroft-Merrill Historic District","fclName":"spot, building, farm","adminCodes1":{"ISO3166_2":"NM"},"countryName":"United States","fcodeName":"","adminName1":"New Mexico","lat":"35.13309"},{"adminCode1":"MI","lng":"-83.3087","geonameId":7143662,"toponymName":"Elementary Day Treatment at Ashcroft","countryId":"6252001","fcl":"S","population":0,"countryCode":"US","name":"Elementary Day Treatment at Ashcroft","fclName":"spot, building, farm","adminCodes1":{"ISO3166_2":"MI"},"countryName":"United States","fcodeName":"school","adminName1":"Michigan","lat":"42.3627","fcode":"SCH"},{"adminCode1":"CO","lng":"-106.80004","geonameId":5412213,"toponymName":"Ashcroft Mine","countryId":"6252001","fcl":"S","population":0,"countryCode":"US","name":"Ashcroft Mine","fclName":"spot, building, farm","adminCodes1":{"ISO3166_2":"CO"},"countryName":"United States","fcodeName":"mine(s)","adminName1":"Colorado","lat":"39.05471","fcode":"MN"},{"adminCode1":"MI","lng":"-83.30993","geonameId":4984451,"toponymName":"Ashcroft School","countryId":"6252001","fcl":"S","population":0,"countryCode":"US","name":"Ashcroft School","fclName":"spot, building, farm","adminCodes1":{"ISO3166_2":"MI"},"countryName":"United States","fcodeName":"school","adminName1":"Michigan","lat":"42.36281","fcode":"SCH"},{"adminCode1":"MI","lng":"-83.26021","geonameId":4984452,"toponymName":"Ashcroft-Sherwood Drain","countryId":"6252001","fcl":"H","population":0,"countryCode":"US","name":"Ashcroft-Sherwood Drain","fclName":"stream, lake, ...","adminCodes1":{"ISO3166_2":"MI"},"countryName":"United States","fcodeName":"stream","adminName1":"Michigan","lat":"42.35837","fcode":"STM"},{"adminCode1":"NM","lng":"-108.38729","geonameId":5455855,"toponymName":"Ashcroft Reservoir Dam","countryId":"6252001","fcl":"S","population":0,"countryCode":"US","name":"Ashcroft Reservoir Dam","fclName":"spot, building, farm","adminCodes1":{"ISO3166_2":"NM"},"countryName":"United States","fcodeName":"dam","adminName1":"New Mexico","lat":"34.95837","fcode":"DAM"},{"adminCode1":"SD","lng":"-103.94049","geonameId":5762500,"toponymName":"Ashcroft (historical)","countryId":"6252001","fcl":"S","population":0,"countryCode":"US","name":"Ashcroft (historical)","fclName":"spot, building, farm","adminCodes1":{"ISO3166_2":"SD"},"countryName":"United States","fcodeName":"","adminName1":"South Dakota","lat":"45.6475"}]}
