{"totalResultsCount":9,"geonames":[{"adminCode1":"SC","lng":"-80.42371","geonameId":4569660,"toponymName":"Ashepoo River","countryId":"6252001","fcl":"H","population":0,"countryCode":"US","name":"Ashepoo River","fclName":"stream, lake, ...","adminCodes1":{"ISO3166_2":"SC"},"countryName":"United States","fcodeName":"stream","adminName1":"South Carolina","lat":"32.49019","fcode":"STM"},{"adminCode1":"SC","lng":"-80.55038","geonameId":4569655,"toponymName":"Ashepoo","countryId":"6252001","fcl":"P","population":0,"countryCode":"US","name":"Ashepoo","fclName":"city, village,...","adminCodes1":{"ISO3166_2":"SC"},"countryName":"United States","fcodeName":"populated place","adminName1":"South Carolina","lat":"32.74018","fcode":"PPL"},{"adminCode1":"SC","lng":"-80.61899","geonameId":4569657,"toponymName":"Ashepoo Crossing","countryId":"6252001","fcl":"P","population":0,"countryCode":"US","name":"Ashepoo Crossing","fclName":"city, village,...","adminCodes1":{"ISO3166_2":"SC"},"countryName":"United States","fcodeName":"populated place","adminName1":"South Carolina","lat":"32.75768","fcode":"PPL"},{"adminCode1":"SC","lng":"-80.50066","geonameId":4569704,"toponymName":"Ashepoo Siding","countryId":"6252001","fcl":"P","population":0,"countryCode":"US","name":"Ashepoo Siding","fclName":"city, village,...","adminCodes1":{"ISO3166_2":"SC"},"countryName":"United States","fcodeName":"populated place","adminName1":"South Carolina","lat":"32.63685","fcode":"PPL"},{"adminCode1":"SC","lng":"-80.49927","geonameId":4569126,"toponymName":"Airy Hall","countryId":"6252001","fcl":"S","population":0,"countryCode":"US","name":"Airy Hall","fclName":"spot, building, farm","adminCodes1":{"ISO3166_2":"SC"},"countryName":"United States","fcodeName":"","adminName1":"South Carolina","lat":"32.63602"},{"adminCode1":"SC","lng":"-80.55649","geonameId":4569658,"toponymName":"Ashepoo Ferry (historical)","countryId":"6252001","fcl":"R","population":0,"countryCode":"US","name":"Ashepoo Ferry (historical)","fclName":"road, railroad ","adminCodes1":{"ISO3166_2":"SC"},"countryName":"United States","fcodeName":"road junction","adminName1":"South Carolina","lat":"32.74379","fcode":"RDJCT"},{"adminCode1":"SC","lng":"-80.41455","geonameId":4585632,"toponymName":"Long Ashepoo Creek","countryId":"6252001","fcl":"H","population":0,"countryCode":"US","name":"Long Ashepoo Creek","fclName":"stream, lake, ...","adminCodes1":{"ISO3166_2":"SC"},"countryName":"United States","fcodeName":"stream","adminName1":"South Carolina","lat":"32.50269","fcode":"STM"},{"adminCode1":"SC","lng":"-80.47205","geonameId":4569656,"toponymName":"Ashepoo Coosaw Cutoff","countryId":"6252001","fcl":"H","population":0,"countryCode":"US","name":"Ashepoo Coosaw Cutoff","fclName":"stream, lake, ...","adminCodes1":{"ISO3166_2":"SC"},"countryName":"United States","fcodeName":"channel","adminName1":"South Carolina","lat":"32.51963","fcode":"CHN"},{"adminCode1":"SC","lng":"-80.50149","geonameId":4569659,"toponymName":"Ashepoo Plantation Pond Dam D-2387","countryId":"6252001","fcl":"S","population":0,"countryCode":"US","name":"Ashepoo Plantation Pond Dam D-2387","fclName":"spot, building, farm","adminCodes1":{"ISO3166_2":"SC"},"countryName":"United States","fcodeName":"dam","adminName1":"South Carolina","lat":"32.61018","fcode":"DAM"}]}
