{"totalResultsCount":1164,"geonames":[{"adminCode1":"TX","lng":"-102.82987","geonameId":5516581,"toponymName":"Bailey County","countryId":"6252001","fcl":"A","population":7165,"countryCode":"US","name":"Bailey","fclName":"country, state, region,...","adminCodes1":{"ISO3166_2":"TX"},"countryName":"United States","fcodeName":"second-order administrative division","adminName1":"Texas","lat":"34.06852","fcode":"ADM2"},{"adminCode1":"TX","lng":"-102.75527","geonameId":5526801,"toponymName":"Muleshoe National Wildlife Refuge","countryId":"6252001","fcl":"L","population":0,"countryCode":"US","name":"Muleshoe National Wildlife Refuge","fclName":"parks,area, ...","adminCodes1":{"ISO3166_2":"TX"},"countryName":"United States","fcodeName":"park","adminName1":"Texas","lat":"33.96037","fcode":"PRK"},{"adminCode1":"TX","lng":"-102.72383","geonameId":5526805,"toponymName":"Muleshoe","countryId":"6252001","fcl":"P","population":5185,"countryCode":"US","name":"Muleshoe","fclName":"city, village,...","adminCodes1":{"ISO3166_2":"TX"},"countryName":"United States","fcodeName":"seat of a second-order administrative division","adminName1":"Texas","lat":"34.22647","fcode":"PPLA2"},{"adminCode1":"TX","lng":"-102.75993","geonameId":5521126,"toponymName":"Enochs","countryId":"6252001","fcl":"P","population":0,"countryCode":"US","name":"Enochs","fclName":"city, village,...","adminCodes1":{"ISO3166_2":"TX"},"countryName":"United States","fcodeName":"populated place","adminName1":"Texas","lat":"33.87315","fcode":"PPL"},{"adminCode1":"TX","lng":"-102.89855","geonameId":5525751,"toponymName":"Maple","countryId":"6252001","fcl":"P","population":0,"countryCode":"US","name":"Maple","fclName":"city, village,...","adminCodes1":{"ISO3166_2":"TX"},"countryName":"United States","fcodeName":"populated place","adminName1":"Texas","lat":"33.8487","fcode":"PPL"},{"adminCode1":"CO","lng":"-104.97446","geonameId":7126267,"toponymName":"Bailey House","countryId":"6252001","fcl":"L","population":0,"countryCode":"US","name":"Bailey House","fclName":"parks,area, ...","adminCodes1":{"ISO3166_2":"CO"},"countryName":"United States","fcodeName":"park","adminName1":"Colorado","lat":"39.74192","fcode":"PRK"},{"adminCode1":"TX","lng":"-102.73744","geonameId":5526920,"toponymName":"Needmore","countryId":"6252001","fcl":"P","population":0,"countryCode":"US","name":"Needmore","fclName":"city, village,...","adminCodes1":{"ISO3166_2":"TX"},"countryName":"United States","fcodeName":"populated place","adminName1":"Texas","lat":"34.03314","fcode":"PPL"},{"adminCode1":"TX","lng":"-102.63798","geonameId":5517836,"toponymName":"Bula","countryId":"6252001","fcl":"P","population":0,"countryCode":"US","name":"Bula","fclName":"city, village,...","adminCodes1":{"ISO3166_2":"TX"},"countryName":"United States","fcodeName":"populated place","adminName1":"Texas","lat":"33.91148","fcode":"PPL"},{"adminCode1":"TX","lng":"-102.71986","geonameId":5525542,"toponymName":"Lower Pauls Lake","countryId":"6252001","fcl":"H","population":0,"countryCode":"US","name":"Lower Pauls Lake","fclName":"stream, lake, ...","adminCodes1":{"ISO3166_2":"TX"},"countryName":"United States","fcodeName":"lake","adminName1":"Texas","lat":"33.97961","fcode":"LK"},{"adminCode1":"TX","lng":"-102.7291","geonameId":5516556,"toponymName":"Babe Ruth Park","countryId":"6252001","fcl":"L","population":0,"countryCode":"US","name":"Babe Ruth Park","fclName":"parks,area, ...","adminCodes1":{"ISO3166_2":"TX"},"countryName":"United States","fcodeName":"park","adminName1":"Texas","lat":"34.21563","fcode":"PRK"},{"adminCode1":"TX","lng":"-102.82063","geonameId":5516588,"toponymName":"Baileyboro Lake","countryId":"6252001","fcl":"H","population":0,"countryCode":"US","name":"Baileyboro Lake","fclName":"stream, lake, ...","adminCodes1":{"ISO3166_2":"TX"},"countryName":"United States","fcodeName":"lake","adminName1":"Texas","lat":"34.00436","fcode":"LK"},{"adminCode1":"TX","lng":"-102.72049","geonameId":5526798,"toponymName":"Muleshoe City Park","countryId":"6252001","fcl":"L","population":0,"countryCode":"US","name":"Muleshoe City Park","fclName":"parks,area, ...","adminCodes1":{"ISO3166_2":"TX"},"countryName":"United States","fcodeName":"park","adminName1":"Texas","lat":"34.21925","fcode":"PRK"},{"adminCode1":"TX","lng":"-102.71021","geonameId":5533858,"toponymName":"Willow Lake","countryId":"6252001","fcl":"H","population":0,"countryCode":"US","name":"Willow Lake","fclName":"stream, lake, ...","adminCodes1":{"ISO3166_2":"TX"},"countryName":"United States","fcodeName":"lake","adminName1":"Texas","lat":"34.19175","fcode":"LK"},{"adminCode1":"TX","lng":"-102.72105","geonameId":5519010,"toponymName":"City Park","countryId":"6252001","fcl":"L","population":0,"countryCode":"US","name":"City Park","fclName":"parks,area, ...","adminCodes1":{"ISO3166_2":"TX"},"countryName":"United States","fcodeName":"park","adminName1":"Texas","lat":"34.21925","fcode":"PRK"},{"adminCode1":"TX","lng":"-103.04383","geonameId":5519044,"toponymName":"Clark Monument Number 4","countryId":"6252001","fcl":"L","population":0,"countryCode":"US","name":"Clark Monument Number 4","fclName":"parks,area, ...","adminCodes1":{"ISO3166_2":"TX"},"countryName":"United States","fcodeName":"park","adminName1":"Texas","lat":"33.99981","fcode":"PRK"},{"adminCode1":"TX","lng":"-102.88112","geonameId":5519627,"toponymName":"Coyote Lake","countryId":"6252001","fcl":"H","population":0,"countryCode":"US","name":"Coyote Lake","fclName":"stream, lake, ...","adminCodes1":{"ISO3166_2":"TX"},"countryName":"United States","fcodeName":"lake","adminName1":"Texas","lat":"34.10494","fcode":"LK"},{"adminCode1":"TX","lng":"-102.72838","geonameId":11788683,"toponymName":"City of Muleshoe","countryId":"6252001","fcl":"A","population":0,"countryCode":"US","name":"City of Muleshoe","fclName":"country, state, region,...","adminCodes1":{"ISO3166_2":"TX"},"countryName":"United States","fcodeName":"third-order administrative division","adminName1":"Texas","lat":"34.22918","fcode":"ADM3"},{"adminCode1":"ME","lng":"-69.99366","geonameId":4957130,"toponymName":"Bailey Island","countryId":"6252001","fcl":"T","population":0,"countryCode":"US","name":"Bailey Island","fclName":"mountain,hill,rock,... ","adminCodes1":{"ISO3166_2":"ME"},"countryName":"United States","fcodeName":"island","adminName1":"Maine","lat":"43.73758","fcode":"ISL"},{"adminCode1":"TX","lng":"-97.74667","geonameId":4671975,"toponymName":"Bailey Park","countryId":"6252001","fcl":"L","population":0,"countryCode":"US","name":"Bailey Park","fclName":"parks,area, ...","adminCodes1":{"ISO3166_2":"TX"},"countryName":"United States","fcodeName":"park","adminName1":"Texas","lat":"30.30215","fcode":"PRK"},{"adminCode1":"AK","lng":"-149.11931","geonameId":11550289,"toponymName":"Bailey Colony Farm","countryId":"6252001","fcl":"L","population":0,"countryCode":"US","name":"Estelle Farm","fclName":"parks,area, ...","adminCodes1":{"ISO3166_2":"AK"},"countryName":"United States","fcodeName":"area","adminName1":"Alaska","lat":"61.61585","fcode":"AREA"},{"adminCode1":"CT","lng":"-71.79064","geonameId":5281782,"toponymName":"Bailey Pond","countryId":"6252001","fcl":"H","population":0,"countryCode":"US","name":"Bailey Pond","fclName":"stream, lake, ...","adminCodes1":{"ISO3166_2":"CT"},"countryName":"United States","fcodeName":"lake","adminName1":"Connecticut","lat":"41.63659","fcode":"LK"},{"adminCode1":"CO","lng":"-105.47333","geonameId":5412500,"toponymName":"Bailey","countryId":"6252001","fcl":"P","population":0,"countryCode":"US","name":"Bailey","fclName":"city, village,...","adminCodes1":{"ISO3166_2":"CO"},"countryName":"United States","fcodeName":"populated place","adminName1":"Colorado","lat":"39.40554","fcode":"PPL"},{"adminCode1":"NC","lng":"-78.11888","geonameId":4453371,"toponymName":"Bailey","countryId":"6252001","fcl":"P","population":565,"countryCode":"US","name":"Bailey","fclName":"city, village,...","adminCodes1":{"ISO3166_2":"NC"},"countryName":"United States","fcodeName":"populated place","adminName1":"North Carolina","lat":"35.78071","fcode":"PPL"},{"adminCode1":"TX","lng":"-102.64106","geonameId":5526800,"toponymName":"Muleshoe Municipal Airport","countryId":"6252001","fcl":"S","population":0,"countryCode":"US","name":"Muleshoe Municipal Airport","fclName":"spot, building, farm","adminCodes1":{"ISO3166_2":"TX"},"countryName":"United States","fcodeName":"airport","adminName1":"Texas","lat":"34.18387","fcode":"AIRP"},{"adminCode1":"TX","lng":"-102.98587","geonameId":5533798,"toponymName":"Williams Field","countryId":"6252001","fcl":"S","population":0,"countryCode":"US","name":"Williams Field","fclName":"spot, building, farm","adminCodes1":{"ISO3166_2":"TX"},"countryName":"United States","fcodeName":"airfield","adminName1":"Texas","lat":"34.00455","fcode":"AIRF"},{"adminCode1":"TX","lng":"-102.6641","geonameId":5518994,"toponymName":"Circle Back","countryId":"6252001","fcl":"S","population":0,"countryCode":"US","name":"Circle Back","fclName":"spot, building, farm","adminCodes1":{"ISO3166_2":"TX"},"countryName":"United States","fcodeName":"","adminName1":"Texas","lat":"34.03259"},{"adminCode1":"TX","lng":"-102.66437","geonameId":5519000,"toponymName":"Circleback","countryId":"6252001","fcl":"P","population":0,"countryCode":"US","name":"Circleback","fclName":"city, village,...","adminCodes1":{"ISO3166_2":"TX"},"countryName":"United States","fcodeName":"populated place","adminName1":"Texas","lat":"34.03231","fcode":"PPL"},{"adminCode1":"TX","lng":"-102.72244","geonameId":5525342,"toponymName":"Locker Brothers Airport","countryId":"6252001","fcl":"S","population":0,"countryCode":"US","name":"Locker Brothers Airport","fclName":"spot, building, farm","adminCodes1":{"ISO3166_2":"TX"},"countryName":"United States","fcodeName":"airport","adminName1":"Texas","lat":"34.2692","fcode":"AIRP"},{"adminCode1":"MS","lng":"-88.72282","geonameId":4416798,"toponymName":"Bailey","countryId":"6252001","fcl":"P","population":0,"countryCode":"US","name":"Bailey","fclName":"city, village,...","adminCodes1":{"ISO3166_2":"MS"},"countryName":"United States","fcodeName":"populated place","adminName1":"Mississippi","lat":"32.46764","fcode":"PPL"},{"adminCode1":"TX","lng":"-96.16581","geonameId":4671939,"toponymName":"Bailey","countryId":"6252001","fcl":"P","population":286,"countryCode":"US","name":"Bailey","fclName":"city, village,...","adminCodes1":{"ISO3166_2":"TX"},"countryName":"United States","fcodeName":"populated place","adminName1":"Texas","lat":"33.43205","fcode":"PPL"},{"adminCode1":"MO","lng":"-90.43151","geonameId":4375487,"toponymName":"Bailey","countryId":"6252001","fcl":"P","population":0,"countryCode":"US","name":"Bailey","fclName":"city, village,...","adminCodes1":{"ISO3166_2":"MO"},"countryName":"United States","fcodeName":"populated place","adminName1":"Missouri","lat":"38.22505","fcode":"PPL"},{"adminCode1":"VA","lng":"-77.1297","geonameId":4745272,"toponymName":"Baileys Crossroads","countryId":"6252001","fcl":"P","population":23643,"countryCode":"US","name":"Baileys Crossroads","fclName":"city, village,...","adminCodes1":{"ISO3166_2":"VA"},"countryName":"United States","fcodeName":"populated place","adminName1":"Virginia","lat":"38.85039","fcode":"PPL"},{"adminCode1":"TN","lng":"-85.13412","geonameId":4603623,"toponymName":"Bailey Island (historical)","countryId":"6252001","fcl":"T","population":0,"countryCode":"US","name":"Bailey Island (historical)","fclName":"mountain,hill,rock,... ","adminCodes1":{"ISO3166_2":"TN"},"countryName":"United States","fcodeName":"island","adminName1":"Tennessee","lat":"35.18285","fcode":"ISL"},{"adminCode1":"WI","lng":"-89.09811","geonameId":5244515,"toponymName":"Bailey Lake","countryId":"6252001","fcl":"H","population":0,"countryCode":"US","name":"Bailey Lake","fclName":"stream, lake, ...","adminCodes1":{"ISO3166_2":"WI"},"countryName":"United States","fcodeName":"lake","adminName1":"Wisconsin","lat":"44.28172","fcode":"LK"},{"adminCode1":"MI","lng":"-87.44206","geonameId":4984721,"toponymName":"Bailey County Park","countryId":"6252001","fcl":"L","population":0,"countryCode":"US","name":"Bailey County Park","fclName":"parks,area, ...","adminCodes1":{"ISO3166_2":"MI"},"countryName":"United States","fcodeName":"park","adminName1":"Michigan","lat":"45.29137","fcode":"PRK"},{"adminCode1":"ME","lng":"-69.99505","geonameId":4957131,"toponymName":"Bailey Island","countryId":"6252001","fcl":"P","population":0,"countryCode":"US","name":"Bailey Island","fclName":"city, village,...","adminCodes1":{"ISO3166_2":"ME"},"countryName":"United States","fcodeName":"populated place","adminName1":"Maine","lat":"43.72758","fcode":"PPL"},{"adminCode1":"AL","lng":"-87.57141","geonameId":4831088,"toponymName":"Bailey Springs","countryId":"6252001","fcl":"P","population":0,"countryCode":"US","name":"Bailey Springs","fclName":"city, village,...","adminCodes1":{"ISO3166_2":"AL"},"countryName":"United States","fcodeName":"populated place","adminName1":"Alabama","lat":"34.89564","fcode":"PPL"},{"adminCode1":"NY","lng":"-73.58389","geonameId":6348698,"toponymName":"Bailey Arboretum County Park","countryId":"6252001","fcl":"L","population":0,"countryCode":"US","name":"Bailey Arboretum County Park","fclName":"parks,area, ...","adminCodes1":{"ISO3166_2":"NY"},"countryName":"United States","fcodeName":"park","adminName1":"New York","lat":"40.88611","fcode":"PRK"},{"adminCode1":"NY","lng":"-74.97263","geonameId":5107647,"toponymName":"Bailey Pond","countryId":"6252001","fcl":"H","population":0,"countryCode":"US","name":"Bailey Pond","fclName":"stream, lake, ...","adminCodes1":{"ISO3166_2":"NY"},"countryName":"United States","fcodeName":"lake","adminName1":"New York","lat":"42.81906","fcode":"LK"},{"adminCode1":"TX","lng":"-96.16509","geonameId":7172971,"toponymName":"City of Bailey","countryId":"6252001","fcl":"A","population":289,"countryCode":"US","name":"City of Bailey","fclName":"country, state, region,...","adminCodes1":{"ISO3166_2":"TX"},"countryName":"United States","fcodeName":"third-order administrative division","adminName1":"Texas","lat":"33.43362","fcode":"ADM3"},{"adminCode1":"OR","lng":"-122.22005","geonameId":5712145,"toponymName":"Mount Bailey","countryId":"6252001","fcl":"T","population":0,"countryCode":"US","name":"Mount Bailey","fclName":"mountain,hill,rock,... ","adminCodes1":{"ISO3166_2":"OR"},"countryName":"United States","fcodeName":"mountain","adminName1":"Oregon","lat":"43.15514","fcode":"MT"},{"adminCode1":"OK","lng":"-97.79809","geonameId":4529683,"toponymName":"Bailey","countryId":"6252001","fcl":"P","population":0,"countryCode":"US","name":"Bailey","fclName":"city, village,...","adminCodes1":{"ISO3166_2":"OK"},"countryName":"United States","fcodeName":"populated place","adminName1":"Oklahoma","lat":"34.71619","fcode":"PPL"},{"adminCode1":"CO","lng":"-105.45972","geonameId":5412514,"toponymName":"Mount Bailey","countryId":"6252001","fcl":"T","population":0,"countryCode":"US","name":"Mount Bailey","fclName":"mountain,hill,rock,... ","adminCodes1":{"ISO3166_2":"CO"},"countryName":"United States","fcodeName":"mountain","adminName1":"Colorado","lat":"39.41527","fcode":"MT"},{"adminCode1":"MA","lng":"-71.08838","geonameId":4929572,"toponymName":"Bailey Flat","countryId":"6252001","fcl":"T","population":0,"countryCode":"US","name":"Bailey Flat","fclName":"mountain,hill,rock,... ","adminCodes1":{"ISO3166_2":"MA"},"countryName":"United States","fcodeName":"island","adminName1":"Massachusetts","lat":"41.51399","fcode":"ISL"},{"adminCode1":"MN","lng":"-93.66524","geonameId":5017003,"toponymName":"Bailey","countryId":"6252001","fcl":"P","population":0,"countryCode":"US","name":"Bailey","fclName":"city, village,...","adminCodes1":{"ISO3166_2":"MN"},"countryName":"United States","fcodeName":"populated place","adminName1":"Minnesota","lat":"45.31691","fcode":"PPL"},{"adminCode1":"VA","lng":"-81.38594","geonameId":4745243,"toponymName":"Bailey","countryId":"6252001","fcl":"P","population":0,"countryCode":"US","name":"Bailey","fclName":"city, village,...","adminCodes1":{"ISO3166_2":"VA"},"countryName":"United States","fcodeName":"populated place","adminName1":"Virginia","lat":"37.22428","fcode":"PPL"},{"adminCode1":"VT","lng":"-72.56982","geonameId":5233368,"toponymName":"Bailey Mills","countryId":"6252001","fcl":"P","population":0,"countryCode":"US","name":"Bailey Mills","fclName":"city, village,...","adminCodes1":{"ISO3166_2":"VT"},"countryName":"United States","fcodeName":"populated place","adminName1":"Vermont","lat":"43.50535","fcode":"PPL"},{"adminCode1":"OH","lng":"-83.78772","geonameId":5146359,"toponymName":"Bailey","countryId":"6252001","fcl":"P","population":0,"countryCode":"US","name":"Bailey","fclName":"city, village,...","adminCodes1":{"ISO3166_2":"OH"},"countryName":"United States","fcodeName":"populated place","adminName1":"Ohio","lat":"41.462","fcode":"PPL"},{"adminCode1":"AK","lng":"-153.04547","geonameId":8693080,"toponymName":"Port Bailey","countryId":"6252001","fcl":"P","population":0,"countryCode":"US","name":"Port Bailey","fclName":"city, village,...","adminCodes1":{"ISO3166_2":"AK"},"countryName":"United States","fcodeName":"populated place","adminName1":"Alaska","lat":"57.93135","fcode":"PPL"},{"adminCode1":"FL","lng":"-82.4678","geonameId":7216648,"toponymName":"Sam Bailey Baseball Field","countryId":"6252001","fcl":"L","population":0,"countryCode":"US","name":"Sam Bailey Baseball Field","fclName":"parks,area, ...","adminCodes1":{"ISO3166_2":"FL"},"countryName":"United States","fcodeName":"park","adminName1":"Florida","lat":"27.9496","fcode":"PRK"},{"adminCode1":"WY","lng":"-109.3393","geonameId":5842160,"toponymName":"Walt Bailey Peak","countryId":"6252001","fcl":"T","population":0,"countryCode":"US","name":"Walt Bailey Peak","fclName":"mountain,hill,rock,... ","adminCodes1":{"ISO3166_2":"WY"},"countryName":"United States","fcodeName":"mountain","adminName1":"Wyoming","lat":"42.89829","fcode":"MT"},{"adminCode1":"TN","lng":"-83.51074","geonameId":4603602,"toponymName":"Bailey Hollow","countryId":"6252001","fcl":"T","population":0,"countryCode":"US","name":"Bailey Hollow","fclName":"mountain,hill,rock,... ","adminCodes1":{"ISO3166_2":"TN"},"countryName":"United States","fcodeName":"valley","adminName1":"Tennessee","lat":"36.45036","fcode":"VAL"},{"adminCode1":"VA","lng":"-75.79243","geonameId":4745263,"toponymName":"Bailey Neck","countryId":"6252001","fcl":"T","population":0,"countryCode":"US","name":"Bailey Neck","fclName":"mountain,hill,rock,... ","adminCodes1":{"ISO3166_2":"VA"},"countryName":"United States","fcodeName":"cape","adminName1":"Virginia","lat":"37.71624","fcode":"CAPE"},{"adminCode1":"TX","lng":"-103.32045","geonameId":5532958,"toponymName":"Vernon Bailey Peak","countryId":"6252001","fcl":"T","population":0,"countryCode":"US","name":"Vernon Bailey Peak","fclName":"mountain,hill,rock,... ","adminCodes1":{"ISO3166_2":"TX"},"countryName":"United States","fcodeName":"mountain","adminName1":"Texas","lat":"29.28381","fcode":"MT"},{"adminCode1":"AZ","lng":"-112.43181","geonameId":5552653,"toponymName":"Bailey Peak","countryId":"6252001","fcl":"T","population":0,"countryCode":"US","name":"Bailey Peak","fclName":"mountain,hill,rock,... ","adminCodes1":{"ISO3166_2":"AZ"},"countryName":"United States","fcodeName":"mountain","adminName1":"Arizona","lat":"31.86674","fcode":"MT"},{"adminCode1":"CA","lng":"-123.48251","geonameId":5378934,"toponymName":"Old Bailey Place","countryId":"6252001","fcl":"P","population":0,"countryCode":"US","name":"Old Bailey Place","fclName":"city, village,...","adminCodes1":{"ISO3166_2":"CA"},"countryName":"United States","fcodeName":"populated place","adminName1":"California","lat":"39.16795","fcode":"PPL"},{"adminCode1":"CA","lng":"-119.82322","geonameId":5325594,"toponymName":"Bailey Flats","countryId":"6252001","fcl":"T","population":0,"countryCode":"US","name":"Bailey Flats","fclName":"mountain,hill,rock,... ","adminCodes1":{"ISO3166_2":"CA"},"countryName":"United States","fcodeName":"plain(s)","adminName1":"California","lat":"37.34217","fcode":"PLN"},{"adminCode1":"WV","lng":"-81.69983","geonameId":4819242,"toponymName":"R D Bailey Lake Wildlife Management Area","countryId":"6252001","fcl":"L","population":0,"countryCode":"US","name":"R D Bailey Lake Wildlife Management Area","fclName":"parks,area, ...","adminCodes1":{"ISO3166_2":"WV"},"countryName":"United States","fcodeName":"park","adminName1":"West Virginia","lat":"37.60289","fcode":"PRK"},{"adminCode1":"RI","lng":"-71.31311","geonameId":5220751,"toponymName":"Bailey Beach","countryId":"6252001","fcl":"T","population":0,"countryCode":"US","name":"Bailey Beach","fclName":"mountain,hill,rock,... ","adminCodes1":{"ISO3166_2":"RI"},"countryName":"United States","fcodeName":"beach","adminName1":"Rhode Island","lat":"41.45649","fcode":"BCH"},{"adminCode1":"TX","lng":"-102.81966","geonameId":5516587,"toponymName":"Baileyboro","countryId":"6252001","fcl":"P","population":0,"countryCode":"US","name":"Baileyboro","fclName":"city, village,...","adminCodes1":{"ISO3166_2":"TX"},"countryName":"United States","fcodeName":"populated place","adminName1":"Texas","lat":"34.02675","fcode":"PPL"},{"adminCode1":"TX","lng":"-102.80994","geonameId":5285976,"toponymName":"Progress","countryId":"6252001","fcl":"P","population":0,"countryCode":"US","name":"Progress","fclName":"city, village,...","adminCodes1":{"ISO3166_2":"TX"},"countryName":"United States","fcodeName":"populated place","adminName1":"Texas","lat":"34.28285","fcode":"PPL"},{"adminCode1":"TX","lng":"-102.80244","geonameId":5528719,"toponymName":"Progress Draw","countryId":"6252001","fcl":"T","population":0,"countryCode":"US","name":"Progress Draw","fclName":"mountain,hill,rock,... ","adminCodes1":{"ISO3166_2":"TX"},"countryName":"United States","fcodeName":"valley","adminName1":"Texas","lat":"34.24258","fcode":"VAL"},{"adminCode1":"TX","lng":"-102.95633","geonameId":5531736,"toponymName":"Stegall","countryId":"6252001","fcl":"P","population":0,"countryCode":"US","name":"Stegall","fclName":"city, village,...","adminCodes1":{"ISO3166_2":"TX"},"countryName":"United States","fcodeName":"populated place","adminName1":"Texas","lat":"34.00342","fcode":"PPL"},{"adminCode1":"TX","lng":"-102.61743","geonameId":5521254,"toponymName":"Fairview","countryId":"6252001","fcl":"P","population":0,"countryCode":"US","name":"Fairview","fclName":"city, village,...","adminCodes1":{"ISO3166_2":"TX"},"countryName":"United States","fcodeName":"populated place","adminName1":"Texas","lat":"34.10231","fcode":"PPL"},{"adminCode1":"TX","lng":"-102.97577","geonameId":5522284,"toponymName":"Goodland","countryId":"6252001","fcl":"P","population":0,"countryCode":"US","name":"Goodland","fclName":"city, village,...","adminCodes1":{"ISO3166_2":"TX"},"countryName":"United States","fcodeName":"populated place","adminName1":"Texas","lat":"33.87231","fcode":"PPL"},{"adminCode1":"TX","lng":"-102.89772","geonameId":5524883,"toponymName":"Lariat Draw","countryId":"6252001","fcl":"T","population":0,"countryCode":"US","name":"Lariat Draw","fclName":"mountain,hill,rock,... ","adminCodes1":{"ISO3166_2":"TX"},"countryName":"United States","fcodeName":"valley","adminName1":"Texas","lat":"34.25258","fcode":"VAL"},{"adminCode1":"OR","lng":"-123.20537","geonameId":5712135,"toponymName":"Bailey Park","countryId":"6252001","fcl":"L","population":0,"countryCode":"US","name":"Bailey Park","fclName":"parks,area, ...","adminCodes1":{"ISO3166_2":"OR"},"countryName":"United States","fcodeName":"park","adminName1":"Oregon","lat":"44.21235","fcode":"PRK"},{"adminCode1":"MT","lng":"-114.50995","geonameId":5638216,"toponymName":"Bailey Lake","countryId":"6252001","fcl":"H","population":0,"countryCode":"US","name":"Bailey Lake","fclName":"stream, lake, ...","adminCodes1":{"ISO3166_2":"MT"},"countryName":"United States","fcodeName":"lake","adminName1":"Montana","lat":"46.13229","fcode":"LK"},{"adminCode1":"MT","lng":"-114.13245","geonameId":5638240,"toponymName":"Bailey Lake","countryId":"6252001","fcl":"H","population":0,"countryCode":"US","name":"Bailey Lake","fclName":"stream, lake, ...","adminCodes1":{"ISO3166_2":"MT"},"countryName":"United States","fcodeName":"lake","adminName1":"Montana","lat":"48.47125","fcode":"LK"},{"adminCode1":"WY","lng":"-110.73835","geonameId":5817656,"toponymName":"Bailey Lake","countryId":"6252001","fcl":"H","population":0,"countryCode":"US","name":"Bailey Lake","fclName":"stream, lake, ...","adminCodes1":{"ISO3166_2":"WY"},"countryName":"United States","fcodeName":"lake","adminName1":"Wyoming","lat":"43.17679","fcode":"LK"},{"adminCode1":"MN","lng":"-92.98889","geonameId":6347166,"toponymName":"Bailey School Forest Park","countryId":"6252001","fcl":"L","population":0,"countryCode":"US","name":"Bailey School Forest Park","fclName":"parks,area, ...","adminCodes1":{"ISO3166_2":"MN"},"countryName":"United States","fcodeName":"park","adminName1":"Minnesota","lat":"44.88194","fcode":"PRK"},{"adminCode1":"MN","lng":"-92.91393","geonameId":6350504,"toponymName":"Bailey Lake","countryId":"6252001","fcl":"H","population":0,"countryCode":"US","name":"Bailey Lake","fclName":"stream, lake, ...","adminCodes1":{"ISO3166_2":"MN"},"countryName":"United States","fcodeName":"lake","adminName1":"Minnesota","lat":"44.88233","fcode":"LK"},{"adminCode1":"OH","lng":"-82.35697","geonameId":7165763,"toponymName":"Village of Bailey Lakes","countryId":"6252001","fcl":"A","population":371,"countryCode":"US","name":"Village of Bailey Lakes","fclName":"country, state, region,...","adminCodes1":{"ISO3166_2":"OH"},"countryName":"United States","fcodeName":"administrative division","adminName1":"Ohio","lat":"40.949","fcode":"ADMD"},{"adminCode1":"MI","lng":"-85.57278","geonameId":7255088,"toponymName":"Bailey's Grove Park","countryId":"6252001","fcl":"L","population":0,"countryCode":"US","name":"Bailey's Grove Park","fclName":"parks,area, ...","adminCodes1":{"ISO3166_2":"MI"},"countryName":"United States","fcodeName":"park","adminName1":"Michigan","lat":"42.86194","fcode":"PRK"},{"adminCode1":"MS","lng":"-89.02922","geonameId":4416820,"toponymName":"Bailey Oil Pool","countryId":"6252001","fcl":"L","population":0,"countryCode":"US","name":"Bailey Oil Pool","fclName":"parks,area, ...","adminCodes1":{"ISO3166_2":"MS"},"countryName":"United States","fcodeName":"oilfield","adminName1":"Mississippi","lat":"31.8821","fcode":"OILF"},{"adminCode1":"TX","lng":"-96.80028","geonameId":4671959,"toponymName":"Bailey Field","countryId":"6252001","fcl":"L","population":0,"countryCode":"US","name":"Bailey Field","fclName":"parks,area, ...","adminCodes1":{"ISO3166_2":"TX"},"countryName":"United States","fcodeName":"park","adminName1":"Texas","lat":"32.89013","fcode":"PRK"},{"adminCode1":"TX","lng":"-97.29835","geonameId":4671967,"toponymName":"Bailey Lake","countryId":"6252001","fcl":"H","population":0,"countryCode":"US","name":"Bailey Lake","fclName":"stream, lake, ...","adminCodes1":{"ISO3166_2":"TX"},"countryName":"United States","fcodeName":"lake","adminName1":"Texas","lat":"29.55994","fcode":"LK"},{"adminCode1":"TX","lng":"-95.14511","geonameId":4671976,"toponymName":"Bailey Pond","countryId":"6252001","fcl":"H","population":0,"countryCode":"US","name":"Bailey Pond","fclName":"stream, lake, ...","adminCodes1":{"ISO3166_2":"TX"},"countryName":"United States","fcodeName":"lake","adminName1":"Texas","lat":"30.27915","fcode":"LK"},{"adminCode1":"TN","lng":"-88.90617","geonameId":4603610,"toponymName":"Bailey Park","countryId":"6252001","fcl":"L","population":0,"countryCode":"US","name":"Bailey Park","fclName":"parks,area, ...","adminCodes1":{"ISO3166_2":"TN"},"countryName":"United States","fcodeName":"park","adminName1":"Tennessee","lat":"35.82229","fcode":"PRK"},{"adminCode1":"OH","lng":"-81.93928","geonameId":4505660,"toponymName":"Bailey Lake","countryId":"6252001","fcl":"H","population":0,"countryCode":"US","name":"Bailey Lake","fclName":"stream, lake, ...","adminCodes1":{"ISO3166_2":"OH"},"countryName":"United States","fcodeName":"lake","adminName1":"Ohio","lat":"38.99766","fcode":"LK"},{"adminCode1":"MO","lng":"-94.26913","geonameId":4375511,"toponymName":"Bailey Lake","countryId":"6252001","fcl":"H","population":0,"countryCode":"US","name":"Bailey Lake","fclName":"stream, lake, ...","adminCodes1":{"ISO3166_2":"MO"},"countryName":"United States","fcodeName":"lake","adminName1":"Missouri","lat":"38.08686","fcode":"LK"},{"adminCode1":"AR","lng":"-91.56523","geonameId":4100093,"toponymName":"Bailey Lake","countryId":"6252001","fcl":"H","population":0,"countryCode":"US","name":"Bailey Lake","fclName":"stream, lake, ...","adminCodes1":{"ISO3166_2":"AR"},"countryName":"United States","fcodeName":"lake","adminName1":"Arkansas","lat":"35.13793","fcode":"LK"},{"adminCode1":"IL","lng":"-90.67818","geonameId":4233108,"toponymName":"Bailey Lake","countryId":"6252001","fcl":"H","population":0,"countryCode":"US","name":"Bailey Lake","fclName":"stream, lake, ...","adminCodes1":{"ISO3166_2":"IL"},"countryName":"United States","fcodeName":"lake","adminName1":"Illinois","lat":"39.07949","fcode":"LK"},{"adminCode1":"FL","lng":"-81.76732","geonameId":4160501,"toponymName":"Joseph Rain and William Bailey Grant","countryId":"6252001","fcl":"A","population":0,"countryCode":"US","name":"Joseph Rain and William Bailey Grant","fclName":"country, state, region,...","adminCodes1":{"ISO3166_2":"FL"},"countryName":"United States","fcodeName":"administrative division","adminName1":"Florida","lat":"30.43774","fcode":"ADMD"},{"adminCode1":"CO","lng":"-107.09729","geonameId":5412507,"toponymName":"Bailey Lakes","countryId":"6252001","fcl":"H","population":0,"countryCode":"US","name":"Bailey Lakes","fclName":"stream, lake, ...","adminCodes1":{"ISO3166_2":"CO"},"countryName":"United States","fcodeName":"lake","adminName1":"Colorado","lat":"39.99109","fcode":"LK"},{"adminCode1":"WI","lng":"-91.67324","geonameId":5244512,"toponymName":"Bailey Lake","countryId":"6252001","fcl":"H","population":0,"countryCode":"US","name":"Bailey Lake","fclName":"stream, lake, ...","adminCodes1":{"ISO3166_2":"WI"},"countryName":"United States","fcodeName":"lake","adminName1":"Wisconsin","lat":"45.31746","fcode":"LK"},{"adminCode1":"WI","lng":"-91.34348","geonameId":5244513,"toponymName":"Bailey Lake","countryId":"6252001","fcl":"H","population":0,"countryCode":"US","name":"Bailey Lake","fclName":"stream, lake, ...","adminCodes1":{"ISO3166_2":"WI"},"countryName":"United States","fcodeName":"lake","adminName1":"Wisconsin","lat":"46.61639","fcode":"LK"},{"adminCode1":"WI","lng":"-89.03155","geonameId":5244514,"toponymName":"Bailey Lake","countryId":"6252001","fcl":"H","population":0,"countryCode":"US","name":"Bailey Lake","fclName":"stream, lake, ...","adminCodes1":{"ISO3166_2":"WI"},"countryName":"United States","fcodeName":"lake","adminName1":"Wisconsin","lat":"45.82882","fcode":"LK"},{"adminCode1":"IA","lng":"-93.1127","geonameId":4847602,"toponymName":"Bailey Wildlife Area","countryId":"6252001","fcl":"L","population":0,"countryCode":"US","name":"Bailey Wildlife Area","fclName":"parks,area, ...","adminCodes1":{"ISO3166_2":"IA"},"countryName":"United States","fcodeName":"park","adminName1":"Iowa","lat":"41.63332","fcode":"PRK"},{"adminCode1":"IA","lng":"-91.40848","geonameId":4847603,"toponymName":"Bailey's Ford Access Historical Marker","countryId":"6252001","fcl":"L","population":0,"countryCode":"US","name":"Bailey's Ford Access Historical Marker","fclName":"parks,area, ...","adminCodes1":{"ISO3166_2":"IA"},"countryName":"United States","fcodeName":"park","adminName1":"Iowa","lat":"42.44527","fcode":"PRK"},{"adminCode1":"IA","lng":"-92.73575","geonameId":4847617,"toponymName":"Bailey Park","countryId":"6252001","fcl":"L","population":0,"countryCode":"US","name":"Bailey Park","fclName":"parks,area, ...","adminCodes1":{"ISO3166_2":"IA"},"countryName":"United States","fcodeName":"park","adminName1":"Iowa","lat":"41.7486","fcode":"PRK"},{"adminCode1":"MI","lng":"-85.81032","geonameId":4984723,"toponymName":"Bailey","countryId":"6252001","fcl":"P","population":0,"countryCode":"US","name":"Bailey","fclName":"city, village,...","adminCodes1":{"ISO3166_2":"MI"},"countryName":"United States","fcodeName":"populated place","adminName1":"Michigan","lat":"43.2778","fcode":"PPL"},{"adminCode1":"MI","lng":"-84.65099","geonameId":4984728,"toponymName":"Bailey Lake","countryId":"6252001","fcl":"H","population":0,"countryCode":"US","name":"Bailey Lake","fclName":"stream, lake, ...","adminCodes1":{"ISO3166_2":"MI"},"countryName":"United States","fcodeName":"lake","adminName1":"Michigan","lat":"43.89164","fcode":"LK"},{"adminCode1":"MI","lng":"-85.4166","geonameId":4984729,"toponymName":"Bailey Lake","countryId":"6252001","fcl":"H","population":0,"countryCode":"US","name":"Bailey Lake","fclName":"stream, lake, ...","adminCodes1":{"ISO3166_2":"MI"},"countryName":"United States","fcodeName":"lake","adminName1":"Michigan","lat":"42.97861","fcode":"LK"},{"adminCode1":"MI","lng":"-86.17209","geonameId":4984730,"toponymName":"Bailey Lake","countryId":"6252001","fcl":"H","population":0,"countryCode":"US","name":"Bailey Lake","fclName":"stream, lake, ...","adminCodes1":{"ISO3166_2":"MI"},"countryName":"United States","fcodeName":"lake","adminName1":"Michigan","lat":"43.97859","fcode":"LK"},{"adminCode1":"MI","lng":"-83.2451","geonameId":4984731,"toponymName":"Bailey Lake","countryId":"6252001","fcl":"H","population":0,"countryCode":"US","name":"Bailey Lake","fclName":"stream, lake, ...","adminCodes1":{"ISO3166_2":"MI"},"countryName":"United States","fcodeName":"lake","adminName1":"Michigan","lat":"42.80505","fcode":"LK"},{"adminCode1":"MI","lng":"-85.15082","geonameId":4984733,"toponymName":"Bailey Park","countryId":"6252001","fcl":"L","population":0,"countryCode":"US","name":"Bailey Park","fclName":"parks,area, ...","adminCodes1":{"ISO3166_2":"MI"},"countryName":"United States","fcodeName":"park","adminName1":"Michigan","lat":"42.34032","fcode":"PRK"},{"adminCode1":"MI","lng":"-88.0474","geonameId":4984734,"toponymName":"Bailey Pond","countryId":"6252001","fcl":"H","population":0,"countryCode":"US","name":"Bailey Pond","fclName":"stream, lake, ...","adminCodes1":{"ISO3166_2":"MI"},"countryName":"United States","fcodeName":"lake","adminName1":"Michigan","lat":"47.43664","fcode":"LK"},{"adminCode1":"MI","lng":"-88.09966","geonameId":4984738,"toponymName":"Lake Bailey","countryId":"6252001","fcl":"H","population":0,"countryCode":"US","name":"Lake Bailey","fclName":"stream, lake, ...","adminCodes1":{"ISO3166_2":"MI"},"countryName":"United States","fcodeName":"lake","adminName1":"Michigan","lat":"47.45726","fcode":"LK"},{"adminCode1":"OH","lng":"-82.36053","geonameId":5146363,"toponymName":"Bailey Lake","countryId":"6252001","fcl":"H","population":0,"countryCode":"US","name":"Bailey Lake","fclName":"stream, lake, ...","adminCodes1":{"ISO3166_2":"OH"},"countryName":"United States","fcodeName":"lake","adminName1":"Ohio","lat":"40.94612","fcode":"LK"}]}
