{"totalResultsCount":190,"geonames":[{"adminCode1":"DC","lng":"-76.97025","geonameId":4137666,"toponymName":"Barnard Hill Park","countryId":"6252001","fcl":"L","population":0,"countryCode":"US","name":"Barnard Hill Park","fclName":"parks,area, ...","adminCodes1":{"ISO3166_2":"DC"},"countryName":"United States","fcodeName":"park","adminName1":"Washington, D.C.","lat":"38.93872","fcode":"PRK"},{"adminCode1":"VT","lng":"-72.61899","geonameId":5233470,"toponymName":"Barnard","countryId":"6252001","fcl":"P","population":0,"countryCode":"US","name":"Barnard","fclName":"city, village,...","adminCodes1":{"ISO3166_2":"VT"},"countryName":"United States","fcodeName":"populated place","adminName1":"Vermont","lat":"43.72868","fcode":"PPL"},{"adminCode1":"KS","lng":"-98.04199","geonameId":4267912,"toponymName":"Barnard","countryId":"6252001","fcl":"P","population":68,"countryCode":"US","name":"Barnard","fclName":"city, village,...","adminCodes1":{"ISO3166_2":"KS"},"countryName":"United States","fcodeName":"populated place","adminName1":"Kansas","lat":"39.19056","fcode":"PPL"},{"adminCode1":"DC","lng":"-76.9701","geonameId":4137667,"toponymName":"Barnard Hill Park","countryId":"6252001","fcl":"L","population":0,"countryCode":"US","name":"Barnard Hill Park","fclName":"parks,area, ...","adminCodes1":{"ISO3166_2":"DC"},"countryName":"United States","fcodeName":"park","adminName1":"Washington, D.C.","lat":"38.93941","fcode":"PRK"},{"adminCode1":"MO","lng":"-94.82386","geonameId":5053988,"toponymName":"Barnard","countryId":"6252001","fcl":"P","population":212,"countryCode":"US","name":"Barnard","fclName":"city, village,...","adminCodes1":{"ISO3166_2":"MO"},"countryName":"United States","fcodeName":"populated place","adminName1":"Missouri","lat":"40.17444","fcode":"PPL"},{"adminCode1":"IN","lng":"-86.70056","geonameId":4254129,"toponymName":"Barnard","countryId":"6252001","fcl":"P","population":0,"countryCode":"US","name":"Barnard","fclName":"city, village,...","adminCodes1":{"ISO3166_2":"IN"},"countryName":"United States","fcodeName":"populated place","adminName1":"Indiana","lat":"39.84866","fcode":"PPL"},{"adminCode1":"NE","lng":"-96.49058","geonameId":5063490,"toponymName":"Barnard Park","countryId":"6252001","fcl":"L","population":0,"countryCode":"US","name":"Barnard Park","fclName":"parks,area, ...","adminCodes1":{"ISO3166_2":"NE"},"countryName":"United States","fcodeName":"park","adminName1":"Nebraska","lat":"41.43472","fcode":"PRK"},{"adminCode1":"VT","lng":"-72.62445","geonameId":5233476,"toponymName":"Town of Barnard","countryId":"6252001","fcl":"A","population":924,"countryCode":"US","name":"Town of Barnard","fclName":"country, state, region,...","adminCodes1":{"ISO3166_2":"VT"},"countryName":"United States","fcodeName":"third-order administrative division","adminName1":"Vermont","lat":"43.72949","fcode":"ADM3"},{"adminCode1":"ME","lng":"-69.13282","geonameId":4957415,"toponymName":"Plantation of Barnard","countryId":"6252001","fcl":"A","population":0,"countryCode":"US","name":"Plantation of Barnard","fclName":"country, state, region,...","adminCodes1":{"ISO3166_2":"ME"},"countryName":"United States","fcodeName":"administrative division","adminName1":"Maine","lat":"45.32505","fcode":"ADMD"},{"adminCode1":"SD","lng":"-98.49649","geonameId":5226162,"toponymName":"Barnard","countryId":"6252001","fcl":"P","population":0,"countryCode":"US","name":"Barnard","fclName":"city, village,...","adminCodes1":{"ISO3166_2":"SD"},"countryName":"United States","fcodeName":"populated place","adminName1":"South Dakota","lat":"45.73247","fcode":"PPL"},{"adminCode1":"OR","lng":"-119.15829","geonameId":5712536,"toponymName":"Barnard Gulch","countryId":"6252001","fcl":"T","population":0,"countryCode":"US","name":"Barnard Gulch","fclName":"mountain,hill,rock,... ","adminCodes1":{"ISO3166_2":"OR"},"countryName":"United States","fcodeName":"valley","adminName1":"Oregon","lat":"44.39376","fcode":"VAL"},{"adminCode1":"OK","lng":"-96.18084","geonameId":4529812,"toponymName":"Township of Barnard","countryId":"6252001","fcl":"A","population":0,"countryCode":"US","name":"Barnard Township","fclName":"country, state, region,...","adminCodes1":{"ISO3166_2":"OK"},"countryName":"United States","fcodeName":"administrative division","adminName1":"Oklahoma","lat":"35.07787","fcode":"ADMD"},{"adminCode1":"MA","lng":"-72.48481","geonameId":4929762,"toponymName":"Barnard Hill","countryId":"6252001","fcl":"T","population":0,"countryCode":"US","name":"Barnard Hill","fclName":"mountain,hill,rock,... ","adminCodes1":{"ISO3166_2":"MA"},"countryName":"United States","fcodeName":"mountain","adminName1":"Massachusetts","lat":"42.65231","fcode":"MT"},{"adminCode1":"CA","lng":"-118.3212","geonameId":5326185,"toponymName":"Mount Barnard","countryId":"6252001","fcl":"T","population":0,"countryCode":"US","name":"Mount Barnard","fclName":"mountain,hill,rock,... ","adminCodes1":{"ISO3166_2":"CA"},"countryName":"United States","fcodeName":"mountain","adminName1":"California","lat":"36.62855","fcode":"MT"},{"adminCode1":"NC","lng":"-82.75403","geonameId":4453779,"toponymName":"Barnard","countryId":"6252001","fcl":"P","population":0,"countryCode":"US","name":"Barnard","fclName":"city, village,...","adminCodes1":{"ISO3166_2":"NC"},"countryName":"United States","fcodeName":"populated place","adminName1":"North Carolina","lat":"35.83955","fcode":"PPL"},{"adminCode1":"GA","lng":"-83.85962","geonameId":4221102,"toponymName":"San Barnard (historical)","countryId":"6252001","fcl":"P","population":0,"countryCode":"US","name":"San Barnard (historical)","fclName":"city, village,...","adminCodes1":{"ISO3166_2":"GA"},"countryName":"United States","fcodeName":"abandoned populated place","adminName1":"Georgia","lat":"31.57018","fcode":"PPLQ"},{"adminCode1":"MO","lng":"-94.82297","geonameId":7163221,"toponymName":"City of Barnard","countryId":"6252001","fcl":"A","population":221,"countryCode":"US","name":"City of Barnard","fclName":"country, state, region,...","adminCodes1":{"ISO3166_2":"MO"},"countryName":"United States","fcodeName":"administrative division","adminName1":"Missouri","lat":"40.17528","fcode":"ADMD"},{"adminCode1":"KS","lng":"-98.04433","geonameId":7163222,"toponymName":"City of Barnard","countryId":"6252001","fcl":"A","population":70,"countryCode":"US","name":"City of Barnard","fclName":"country, state, region,...","adminCodes1":{"ISO3166_2":"KS"},"countryName":"United States","fcodeName":"administrative division","adminName1":"Kansas","lat":"39.18919","fcode":"ADMD"},{"adminCode1":"NE","lng":"-96.73581","geonameId":5063491,"toponymName":"Barnard Reservoir","countryId":"6252001","fcl":"H","population":0,"countryCode":"US","name":"Barnard Reservoir","fclName":"stream, lake, ...","adminCodes1":{"ISO3166_2":"NE"},"countryName":"United States","fcodeName":"lake","adminName1":"Nebraska","lat":"40.34467","fcode":"LK"},{"adminCode1":"MI","lng":"-85.22391","geonameId":4984963,"toponymName":"Barnard Lake","countryId":"6252001","fcl":"H","population":0,"countryCode":"US","name":"Barnard Lake","fclName":"stream, lake, ...","adminCodes1":{"ISO3166_2":"MI"},"countryName":"United States","fcodeName":"lake","adminName1":"Michigan","lat":"44.76396","fcode":"LK"},{"adminCode1":"MI","lng":"-85.37309","geonameId":4984964,"toponymName":"Barnard Lake","countryId":"6252001","fcl":"H","population":0,"countryCode":"US","name":"Barnard Lake","fclName":"stream, lake, ...","adminCodes1":{"ISO3166_2":"MI"},"countryName":"United States","fcodeName":"lake","adminName1":"Michigan","lat":"43.32781","fcode":"LK"},{"adminCode1":"MI","lng":"-85.30296","geonameId":4984965,"toponymName":"Barnard Pond","countryId":"6252001","fcl":"H","population":0,"countryCode":"US","name":"Barnard Pond","fclName":"stream, lake, ...","adminCodes1":{"ISO3166_2":"MI"},"countryName":"United States","fcodeName":"lake","adminName1":"Michigan","lat":"45.24651","fcode":"LK"},{"adminCode1":"MI","lng":"-84.94002","geonameId":4984976,"toponymName":"Barnard Lake","countryId":"6252001","fcl":"H","population":0,"countryCode":"US","name":"Barnard Lake","fclName":"stream, lake, ...","adminCodes1":{"ISO3166_2":"MI"},"countryName":"United States","fcodeName":"lake","adminName1":"Michigan","lat":"43.60086","fcode":"LK"},{"adminCode1":"ME","lng":"-70.55671","geonameId":4969661,"toponymName":"Little Barnard Pond","countryId":"6252001","fcl":"H","population":0,"countryCode":"US","name":"Little Barnard Pond","fclName":"stream, lake, ...","adminCodes1":{"ISO3166_2":"ME"},"countryName":"United States","fcodeName":"lake","adminName1":"Maine","lat":"45.22082","fcode":"LK"},{"adminCode1":"ME","lng":"-70.5487","geonameId":4957413,"toponymName":"Barnard Pond","countryId":"6252001","fcl":"H","population":0,"countryCode":"US","name":"Barnard Pond","fclName":"stream, lake, ...","adminCodes1":{"ISO3166_2":"ME"},"countryName":"United States","fcodeName":"lake","adminName1":"Maine","lat":"45.21624","fcode":"LK"},{"adminCode1":"IL","lng":"-87.67005","geonameId":4884081,"toponymName":"Barnard Park","countryId":"6252001","fcl":"L","population":0,"countryCode":"US","name":"Barnard Park","fclName":"parks,area, ...","adminCodes1":{"ISO3166_2":"IL"},"countryName":"United States","fcodeName":"park","adminName1":"Illinois","lat":"41.70309","fcode":"PRK"},{"adminCode1":"ME","lng":"-69.1231","geonameId":4957418,"toponymName":"Barnard Corner","countryId":"6252001","fcl":"P","population":0,"countryCode":"US","name":"Barnard Corner","fclName":"city, village,...","adminCodes1":{"ISO3166_2":"ME"},"countryName":"United States","fcodeName":"populated place","adminName1":"Maine","lat":"45.30727","fcode":"PPL"},{"adminCode1":"AK","lng":"-136.97005","geonameId":5844533,"toponymName":"Mount Barnard","countryId":"6252001","fcl":"T","population":0,"countryCode":"US","name":"Mount Barnard","fclName":"mountain,hill,rock,... ","adminCodes1":{"ISO3166_2":"AK"},"countryName":"United States","fcodeName":"mountain","adminName1":"Alaska","lat":"59.10222","fcode":"MT"},{"adminCode1":"TN","lng":"-84.58494","geonameId":4604047,"toponymName":"Barnard Narrows","countryId":"6252001","fcl":"T","population":0,"countryCode":"US","name":"Barnard Narrows","fclName":"mountain,hill,rock,... ","adminCodes1":{"ISO3166_2":"TN"},"countryName":"United States","fcodeName":"gap","adminName1":"Tennessee","lat":"35.75841","fcode":"GAP"},{"adminCode1":"KS","lng":"-97.21433","geonameId":8096559,"toponymName":"Barnard Airport","countryId":"6252001","fcl":"S","population":0,"countryCode":"US","name":"Barnard Airport","fclName":"spot, building, farm","adminCodes1":{"ISO3166_2":"KS"},"countryName":"United States","fcodeName":"airport","adminName1":"Kansas","lat":"38.63734","fcode":"AIRP"},{"adminCode1":"VT","lng":"-72.56038","geonameId":5236906,"toponymName":"Hawks Hill","countryId":"6252001","fcl":"T","population":0,"countryCode":"US","name":"Hawks Hill","fclName":"mountain,hill,rock,... ","adminCodes1":{"ISO3166_2":"VT"},"countryName":"United States","fcodeName":"mountain","adminName1":"Vermont","lat":"43.74479","fcode":"MT"},{"adminCode1":"MT","lng":"-107.58483","geonameId":5638542,"toponymName":"Barnard Buttes","countryId":"6252001","fcl":"T","population":0,"countryCode":"US","name":"Barnard Buttes","fclName":"mountain,hill,rock,... ","adminCodes1":{"ISO3166_2":"MT"},"countryName":"United States","fcodeName":"mountain","adminName1":"Montana","lat":"47.76583","fcode":"MT"},{"adminCode1":"AK","lng":"-141.67522","geonameId":5880016,"toponymName":"Barnard Glacier","countryId":"6252001","fcl":"H","population":0,"countryCode":"US","name":"Barnard Glacier","fclName":"stream, lake, ...","adminCodes1":{"ISO3166_2":"AK"},"countryName":"United States","fcodeName":"glacier(s)","adminName1":"Alaska","lat":"61.13559","fcode":"GLCR"},{"adminCode1":"NY","lng":"-73.96417","geonameId":6342659,"toponymName":"Barnard Hall","countryId":"6252001","fcl":"S","population":0,"countryCode":"US","name":"Barnard Hall","fclName":"spot, building, farm","adminCodes1":{"ISO3166_2":"NY"},"countryName":"United States","fcodeName":"building(s)","adminName1":"New York","lat":"40.80889","fcode":"BLDG"},{"adminCode1":"NJ","lng":"-74.78433","geonameId":4500628,"toponymName":"Barnard","countryId":"6252001","fcl":"P","population":0,"countryCode":"US","name":"Barnard","fclName":"city, village,...","adminCodes1":{"ISO3166_2":"NJ"},"countryName":"United States","fcodeName":"populated place","adminName1":"New Jersey","lat":"39.62095","fcode":"PPL"},{"adminCode1":"VT","lng":"-72.54287","geonameId":5235634,"toponymName":"East Barnard","countryId":"6252001","fcl":"P","population":0,"countryCode":"US","name":"East Barnard","fclName":"city, village,...","adminCodes1":{"ISO3166_2":"VT"},"countryName":"United States","fcodeName":"populated place","adminName1":"Vermont","lat":"43.7459","fcode":"PPL"},{"adminCode1":"AK","lng":"-176.6","geonameId":5878613,"toponymName":"Barnard Point","countryId":"6252001","fcl":"T","population":0,"countryCode":"US","name":"Barnard Point","fclName":"mountain,hill,rock,... ","adminCodes1":{"ISO3166_2":"AK"},"countryName":"United States","fcodeName":"cape","adminName1":"Alaska","lat":"51.68333","fcode":"CAPE"},{"adminCode1":"NY","lng":"-77.64278","geonameId":5107931,"toponymName":"Barnard","countryId":"6252001","fcl":"P","population":0,"countryCode":"US","name":"Barnard","fclName":"city, village,...","adminCodes1":{"ISO3166_2":"NY"},"countryName":"United States","fcodeName":"populated place","adminName1":"New York","lat":"43.21256","fcode":"PPL"},{"adminCode1":"MO","lng":"-93.07851","geonameId":4375788,"toponymName":"Barnard Lake Dam","countryId":"6252001","fcl":"S","population":0,"countryCode":"US","name":"Barnard Lake Dam","fclName":"spot, building, farm","adminCodes1":{"ISO3166_2":"MO"},"countryName":"United States","fcodeName":"dam","adminName1":"Missouri","lat":"37.21005","fcode":"DAM"},{"adminCode1":"CO","lng":"-105.26443","geonameId":5412754,"toponymName":"Barnard Creek","countryId":"6252001","fcl":"H","population":0,"countryCode":"US","name":"Barnard Creek","fclName":"stream, lake, ...","adminCodes1":{"ISO3166_2":"CO"},"countryName":"United States","fcodeName":"stream","adminName1":"Colorado","lat":"38.75138","fcode":"STM"},{"adminCode1":"KS","lng":"-94.72024","geonameId":4268501,"toponymName":"Boicourt","countryId":"6252001","fcl":"P","population":0,"countryCode":"US","name":"Boicourt","fclName":"city, village,...","adminCodes1":{"ISO3166_2":"KS"},"countryName":"United States","fcodeName":"populated place","adminName1":"Kansas","lat":"38.27086","fcode":"PPL"},{"adminCode1":"CT","lng":"-72.67537","geonameId":5281929,"toponymName":"Barnard Brown Elementary School","countryId":"6252001","fcl":"S","population":0,"countryCode":"US","name":"Barnard Brown Elementary School","fclName":"spot, building, farm","adminCodes1":{"ISO3166_2":"CT"},"countryName":"United States","fcodeName":"school","adminName1":"Connecticut","lat":"41.7726","fcode":"SCH"},{"adminCode1":"DC","lng":"-77.01779","geonameId":4137665,"toponymName":"Barnard Elementary School","countryId":"6252001","fcl":"S","population":0,"countryCode":"US","name":"Barnard Elementary School","fclName":"spot, building, farm","adminCodes1":{"ISO3166_2":"DC"},"countryName":"United States","fcodeName":"school","adminName1":"Washington, D.C.","lat":"38.94789","fcode":"SCH"},{"adminCode1":"MT","lng":"-109.28545","geonameId":5638547,"toponymName":"Barnard Ridge","countryId":"6252001","fcl":"T","population":0,"countryCode":"US","name":"Barnard Ridge","fclName":"mountain,hill,rock,... ","adminCodes1":{"ISO3166_2":"MT"},"countryName":"United States","fcodeName":"ridge(s)","adminName1":"Montana","lat":"47.82526","fcode":"RDGE"},{"adminCode1":"WY","lng":"-104.67163","geonameId":5817853,"toponymName":"Barnard Canyon","countryId":"6252001","fcl":"T","population":0,"countryCode":"US","name":"Barnard Canyon","fclName":"mountain,hill,rock,... ","adminCodes1":{"ISO3166_2":"WY"},"countryName":"United States","fcodeName":"valley","adminName1":"Wyoming","lat":"44.65804","fcode":"VAL"},{"adminCode1":"TX","lng":"-97.63475","geonameId":4672341,"toponymName":"Barnard Knob","countryId":"6252001","fcl":"T","population":0,"countryCode":"US","name":"Barnard Knob","fclName":"mountain,hill,rock,... ","adminCodes1":{"ISO3166_2":"TX"},"countryName":"United States","fcodeName":"mountain","adminName1":"Texas","lat":"32.33875","fcode":"MT"},{"adminCode1":"TN","lng":"-83.3224","geonameId":4628812,"toponymName":"Henry Barnard Hollow","countryId":"6252001","fcl":"T","population":0,"countryCode":"US","name":"Henry Barnard Hollow","fclName":"mountain,hill,rock,... ","adminCodes1":{"ISO3166_2":"TN"},"countryName":"United States","fcodeName":"valley","adminName1":"Tennessee","lat":"36.49231","fcode":"VAL"},{"adminCode1":"TN","lng":"-83.35379","geonameId":4604044,"toponymName":"Barnard Hollow","countryId":"6252001","fcl":"T","population":0,"countryCode":"US","name":"Barnard Hollow","fclName":"mountain,hill,rock,... ","adminCodes1":{"ISO3166_2":"TN"},"countryName":"United States","fcodeName":"valley","adminName1":"Tennessee","lat":"36.48092","fcode":"VAL"},{"adminCode1":"AR","lng":"-94.0077","geonameId":4100367,"toponymName":"Barnard Hollow","countryId":"6252001","fcl":"T","population":0,"countryCode":"US","name":"Barnard Hollow","fclName":"mountain,hill,rock,... ","adminCodes1":{"ISO3166_2":"AR"},"countryName":"United States","fcodeName":"valley","adminName1":"Arkansas","lat":"35.77702","fcode":"VAL"},{"adminCode1":"IN","lng":"-86.40749","geonameId":4254130,"toponymName":"Barnard Hill","countryId":"6252001","fcl":"T","population":0,"countryCode":"US","name":"Barnard Hill","fclName":"mountain,hill,rock,... ","adminCodes1":{"ISO3166_2":"IN"},"countryName":"United States","fcodeName":"mountain","adminName1":"Indiana","lat":"39.49449","fcode":"MT"},{"adminCode1":"MI","lng":"-85.30118","geonameId":4984962,"toponymName":"Barnard","countryId":"6252001","fcl":"P","population":0,"countryCode":"US","name":"Barnard","fclName":"city, village,...","adminCodes1":{"ISO3166_2":"MI"},"countryName":"United States","fcodeName":"populated place","adminName1":"Michigan","lat":"45.25112","fcode":"PPL"},{"adminCode1":"ME","lng":"-69.20699","geonameId":4957406,"toponymName":"Barnard","countryId":"6252001","fcl":"P","population":0,"countryCode":"US","name":"Barnard","fclName":"city, village,...","adminCodes1":{"ISO3166_2":"ME"},"countryName":"United States","fcodeName":"populated place","adminName1":"Maine","lat":"45.36644","fcode":"PPL"},{"adminCode1":"ME","lng":"-68.75477","geonameId":4957411,"toponymName":"Barnard Mountain","countryId":"6252001","fcl":"T","population":0,"countryCode":"US","name":"Barnard Mountain","fclName":"mountain,hill,rock,... ","adminCodes1":{"ISO3166_2":"ME"},"countryName":"United States","fcodeName":"mountain","adminName1":"Maine","lat":"45.93119","fcode":"MT"},{"adminCode1":"ME","lng":"-70.56596","geonameId":4957412,"toponymName":"Barnard Mountains","countryId":"6252001","fcl":"T","population":0,"countryCode":"US","name":"Barnard Mountains","fclName":"mountain,hill,rock,... ","adminCodes1":{"ISO3166_2":"ME"},"countryName":"United States","fcodeName":"mountain","adminName1":"Maine","lat":"45.23356","fcode":"MT"},{"adminCode1":"MA","lng":"-71.69674","geonameId":4929763,"toponymName":"Barnard Hill","countryId":"6252001","fcl":"T","population":0,"countryCode":"US","name":"Barnard Hill","fclName":"mountain,hill,rock,... ","adminCodes1":{"ISO3166_2":"MA"},"countryName":"United States","fcodeName":"mountain","adminName1":"Massachusetts","lat":"42.3362","fcode":"MT"},{"adminCode1":"WA","lng":"-121.44315","geonameId":5786371,"toponymName":"Barnard Saddle","countryId":"6252001","fcl":"T","population":0,"countryCode":"US","name":"Barnard Saddle","fclName":"mountain,hill,rock,... ","adminCodes1":{"ISO3166_2":"WA"},"countryName":"United States","fcodeName":"gap","adminName1":"Washington","lat":"46.97067","fcode":"GAP"},{"adminCode1":"VA","lng":"-77.08942","geonameId":4759691,"toponymName":"Fort Barnard Heights","countryId":"6252001","fcl":"P","population":0,"countryCode":"US","name":"Fort Barnard Heights","fclName":"city, village,...","adminCodes1":{"ISO3166_2":"VA"},"countryName":"United States","fcodeName":"populated place","adminName1":"Virginia","lat":"38.8465","fcode":"PPL"},{"adminCode1":"NH","lng":"-71.67896","geonameId":5083002,"toponymName":"Barnard Hill","countryId":"6252001","fcl":"T","population":0,"countryCode":"US","name":"Barnard Hill","fclName":"mountain,hill,rock,... ","adminCodes1":{"ISO3166_2":"NH"},"countryName":"United States","fcodeName":"mountain","adminName1":"New Hampshire","lat":"43.08953","fcode":"MT"},{"adminCode1":"VT","lng":"-72.62047","geonameId":5233474,"toponymName":"Barnard Central School","countryId":"6252001","fcl":"S","population":0,"countryCode":"US","name":"Barnard Central School","fclName":"spot, building, farm","adminCodes1":{"ISO3166_2":"VT"},"countryName":"United States","fcodeName":"school","adminName1":"Vermont","lat":"43.72624","fcode":"SCH"},{"adminCode1":"VT","lng":"-72.6426","geonameId":5238733,"toponymName":"Morgan Corners","countryId":"6252001","fcl":"P","population":0,"countryCode":"US","name":"Morgan Corners","fclName":"city, village,...","adminCodes1":{"ISO3166_2":"VT"},"countryName":"United States","fcodeName":"populated place","adminName1":"Vermont","lat":"43.73618","fcode":"PPL"},{"adminCode1":"VT","lng":"-72.67066","geonameId":5235211,"toponymName":"Cowdrey Outlook","countryId":"6252001","fcl":"T","population":0,"countryCode":"US","name":"Cowdrey Outlook","fclName":"mountain,hill,rock,... ","adminCodes1":{"ISO3166_2":"VT"},"countryName":"United States","fcodeName":"mountain","adminName1":"Vermont","lat":"43.76118","fcode":"MT"},{"adminCode1":"VT","lng":"-72.6826","geonameId":5235426,"toponymName":"Delectable Mountain","countryId":"6252001","fcl":"T","population":0,"countryCode":"US","name":"Delectable Mountain","fclName":"mountain,hill,rock,... ","adminCodes1":{"ISO3166_2":"VT"},"countryName":"United States","fcodeName":"mountain","adminName1":"Vermont","lat":"43.73118","fcode":"MT"},{"adminCode1":"VT","lng":"-72.67121","geonameId":5235427,"toponymName":"Delectable Mountain","countryId":"6252001","fcl":"T","population":0,"countryCode":"US","name":"Delectable Mountain","fclName":"mountain,hill,rock,... ","adminCodes1":{"ISO3166_2":"VT"},"countryName":"United States","fcodeName":"mountain","adminName1":"Vermont","lat":"43.7609","fcode":"MT"},{"adminCode1":"VT","lng":"-72.6826","geonameId":5237238,"toponymName":"Mount Hunger","countryId":"6252001","fcl":"T","population":0,"countryCode":"US","name":"Mount Hunger","fclName":"mountain,hill,rock,... ","adminCodes1":{"ISO3166_2":"VT"},"countryName":"United States","fcodeName":"mountain","adminName1":"Vermont","lat":"43.73979","fcode":"MT"},{"adminCode1":"VT","lng":"-72.63899","geonameId":5238092,"toponymName":"The Lookout","countryId":"6252001","fcl":"T","population":0,"countryCode":"US","name":"The Lookout","fclName":"mountain,hill,rock,... ","adminCodes1":{"ISO3166_2":"VT"},"countryName":"United States","fcodeName":"mountain","adminName1":"Vermont","lat":"43.67896","fcode":"MT"},{"adminCode1":"VT","lng":"-72.66704","geonameId":5233479,"toponymName":"Barnard Town Forest","countryId":"6252001","fcl":"V","population":0,"countryCode":"US","name":"Barnard Town Forest","fclName":"forest,heath,...","adminCodes1":{"ISO3166_2":"VT"},"countryName":"United States","fcodeName":"forest(s)","adminName1":"Vermont","lat":"43.70062","fcode":"FRST"},{"adminCode1":"IL","lng":"-89.13564","geonameId":4894965,"toponymName":"Hall-Barnard Cemetery","countryId":"6252001","fcl":"S","population":0,"countryCode":"US","name":"Hall-Barnard Cemetery","fclName":"spot, building, farm","adminCodes1":{"ISO3166_2":"IL"},"countryName":"United States","fcodeName":"cemetery","adminName1":"Illinois","lat":"40.51643","fcode":"CMTY"},{"adminCode1":"IL","lng":"-87.65838","geonameId":4884079,"toponymName":"Barnard Elementary School","countryId":"6252001","fcl":"S","population":0,"countryCode":"US","name":"Barnard Elementary School","fclName":"spot, building, farm","adminCodes1":{"ISO3166_2":"IL"},"countryName":"United States","fcodeName":"school","adminName1":"Illinois","lat":"41.70531","fcode":"SCH"},{"adminCode1":"CT","lng":"-72.56342","geonameId":4836014,"toponymName":"Henry Barnard School","countryId":"6252001","fcl":"S","population":0,"countryCode":"US","name":"Henry Barnard School","fclName":"spot, building, farm","adminCodes1":{"ISO3166_2":"CT"},"countryName":"United States","fcodeName":"school","adminName1":"Connecticut","lat":"42.00399","fcode":"SCH"},{"adminCode1":"NC","lng":"-82.72014","geonameId":4453782,"toponymName":"Barnard Knob","countryId":"6252001","fcl":"T","population":0,"countryCode":"US","name":"Barnard Knob","fclName":"mountain,hill,rock,... ","adminCodes1":{"ISO3166_2":"NC"},"countryName":"United States","fcodeName":"mountain","adminName1":"North Carolina","lat":"35.82705","fcode":"MT"},{"adminCode1":"MO","lng":"-89.8812","geonameId":4375784,"toponymName":"Barnard Cemetery","countryId":"6252001","fcl":"S","population":0,"countryCode":"US","name":"Barnard Cemetery","fclName":"spot, building, farm","adminCodes1":{"ISO3166_2":"MO"},"countryName":"United States","fcodeName":"cemetery","adminName1":"Missouri","lat":"36.08924","fcode":"CMTY"},{"adminCode1":"MO","lng":"-90.22889","geonameId":4375786,"toponymName":"Barnard Free Skin and Cancer Hospital (historical)","countryId":"6252001","fcl":"S","population":0,"countryCode":"US","name":"Barnard Free Skin and Cancer Hospital (historical)","fclName":"spot, building, farm","adminCodes1":{"ISO3166_2":"MO"},"countryName":"United States","fcodeName":"hospital","adminName1":"Missouri","lat":"38.63851","fcode":"HSP"},{"adminCode1":"MI","lng":"-85.30424","geonameId":4984961,"toponymName":"Barnard Creek","countryId":"6252001","fcl":"H","population":0,"countryCode":"US","name":"Barnard Creek","fclName":"stream, lake, ...","adminCodes1":{"ISO3166_2":"MI"},"countryName":"United States","fcodeName":"stream","adminName1":"Michigan","lat":"45.25556","fcode":"STM"},{"adminCode1":"CT","lng":"-72.95177","geonameId":5281916,"toponymName":"Barnard School","countryId":"6252001","fcl":"S","population":0,"countryCode":"US","name":"Barnard School","fclName":"spot, building, farm","adminCodes1":{"ISO3166_2":"CT"},"countryName":"United States","fcodeName":"school","adminName1":"Connecticut","lat":"41.30954","fcode":"SCH"},{"adminCode1":"VT","lng":"-72.67649","geonameId":5233475,"toponymName":"Barnard Trail","countryId":"6252001","fcl":"R","population":0,"countryCode":"US","name":"Barnard Trail","fclName":"road, railroad ","adminCodes1":{"ISO3166_2":"VT"},"countryName":"United States","fcodeName":"trail","adminName1":"Vermont","lat":"43.68757","fcode":"TRL"},{"adminCode1":"IL","lng":"-88.36093","geonameId":4884080,"toponymName":"Barnard Mill (historical)","countryId":"6252001","fcl":"P","population":0,"countryCode":"US","name":"Barnard Mill (historical)","fclName":"city, village,...","adminCodes1":{"ISO3166_2":"IL"},"countryName":"United States","fcodeName":"abandoned populated place","adminName1":"Illinois","lat":"42.41724","fcode":"PPLQ"},{"adminCode1":"WA","lng":"-120.77843","geonameId":5786368,"toponymName":"Barnard Creek","countryId":"6252001","fcl":"H","population":0,"countryCode":"US","name":"Barnard Creek","fclName":"stream, lake, ...","adminCodes1":{"ISO3166_2":"WA"},"countryName":"United States","fcodeName":"stream","adminName1":"Washington","lat":"47.8354","fcode":"STM"},{"adminCode1":"CO","lng":"-105.1102","geonameId":6328934,"toponymName":"Ryan Elementary Steam School","countryId":"6252001","fcl":"S","population":0,"countryCode":"US","name":"Ryan Elementary Steam School","fclName":"spot, building, farm","adminCodes1":{"ISO3166_2":"CO"},"countryName":"United States","fcodeName":"school","adminName1":"Colorado","lat":"39.98084","fcode":"SCH"},{"adminCode1":"TN","lng":"-83.29573","geonameId":4604048,"toponymName":"Barnards Grove Church","countryId":"6252001","fcl":"S","population":0,"countryCode":"US","name":"Barnards Grove Church","fclName":"spot, building, farm","adminCodes1":{"ISO3166_2":"TN"},"countryName":"United States","fcodeName":"church","adminName1":"Tennessee","lat":"36.34759","fcode":"CH"},{"adminCode1":"NE","lng":"-99.67262","geonameId":5072434,"toponymName":"Luckey Creek","countryId":"6252001","fcl":"H","population":0,"countryCode":"US","name":"Luckey Creek","fclName":"stream, lake, ...","adminCodes1":{"ISO3166_2":"NE"},"countryName":"United States","fcodeName":"stream","adminName1":"Nebraska","lat":"42.73472","fcode":"STM"},{"adminCode1":"VT","lng":"-72.61677","geonameId":5239417,"toponymName":"Old Cemetery","countryId":"6252001","fcl":"S","population":0,"countryCode":"US","name":"Old Cemetery","fclName":"spot, building, farm","adminCodes1":{"ISO3166_2":"VT"},"countryName":"United States","fcodeName":"cemetery","adminName1":"Vermont","lat":"43.73368","fcode":"CMTY"},{"adminCode1":"CA","lng":"-117.22448","geonameId":5326184,"toponymName":"Barnard Elementary School","countryId":"6252001","fcl":"S","population":0,"countryCode":"US","name":"Barnard Elementary School","fclName":"spot, building, farm","adminCodes1":{"ISO3166_2":"CA"},"countryName":"United States","fcodeName":"school","adminName1":"California","lat":"32.75227","fcode":"SCH"},{"adminCode1":"CA","lng":"-122.02772","geonameId":5326186,"toponymName":"Cesar Chavez Middle School at Whipple","countryId":"6252001","fcl":"S","population":0,"countryCode":"US","name":"Cesar Chavez Middle School at Whipple","fclName":"spot, building, farm","adminCodes1":{"ISO3166_2":"CA"},"countryName":"United States","fcodeName":"school","adminName1":"California","lat":"37.6067","fcode":"SCH"},{"adminCode1":"NY","lng":"-73.77319","geonameId":5120523,"toponymName":"Henry Barnard School","countryId":"6252001","fcl":"S","population":0,"countryCode":"US","name":"Henry Barnard School","fclName":"spot, building, farm","adminCodes1":{"ISO3166_2":"NY"},"countryName":"United States","fcodeName":"school","adminName1":"New York","lat":"40.93293","fcode":"SCH"},{"adminCode1":"NC","lng":"-83.1743","geonameId":4453630,"toponymName":"Balsam Mountain Campground","countryId":"6252001","fcl":"S","population":0,"countryCode":"US","name":"Balsam Mountain Campground","fclName":"spot, building, farm","adminCodes1":{"ISO3166_2":"NC"},"countryName":"United States","fcodeName":"camp(s)","adminName1":"North Carolina","lat":"35.56544","fcode":"CMP"},{"adminCode1":"NC","lng":"-77.94277","geonameId":4453786,"toponymName":"Barnards Creek","countryId":"6252001","fcl":"H","population":0,"countryCode":"US","name":"Barnards Creek","fclName":"stream, lake, ...","adminCodes1":{"ISO3166_2":"NC"},"countryName":"United States","fcodeName":"stream","adminName1":"North Carolina","lat":"34.15712","fcode":"STM"},{"adminCode1":"NY","lng":"-76.13104","geonameId":5129240,"toponymName":"North Street Road Cemetery","countryId":"6252001","fcl":"S","population":0,"countryCode":"US","name":"North Street Road Cemetery","fclName":"spot, building, farm","adminCodes1":{"ISO3166_2":"NY"},"countryName":"United States","fcodeName":"cemetery","adminName1":"New York","lat":"43.59701","fcode":"CMTY"},{"adminCode1":"AR","lng":"-93.99103","geonameId":4133318,"toponymName":"Temple Hill Cemetery","countryId":"6252001","fcl":"S","population":0,"countryCode":"US","name":"Temple Hill Cemetery","fclName":"spot, building, farm","adminCodes1":{"ISO3166_2":"AR"},"countryName":"United States","fcodeName":"cemetery","adminName1":"Arkansas","lat":"35.76286","fcode":"CMTY"},{"adminCode1":"IN","lng":"-87.18003","geonameId":4921495,"toponymName":"Hodge Ditch","countryId":"6252001","fcl":"H","population":0,"countryCode":"US","name":"Hodge Ditch","fclName":"stream, lake, ...","adminCodes1":{"ISO3166_2":"IN"},"countryName":"United States","fcodeName":"canal","adminName1":"Indiana","lat":"41.23226","fcode":"CNL"},{"adminCode1":"MT","lng":"-107.80734","geonameId":5638543,"toponymName":"Barnard Dam","countryId":"6252001","fcl":"S","population":0,"countryCode":"US","name":"Barnard Dam","fclName":"spot, building, farm","adminCodes1":{"ISO3166_2":"MT"},"countryName":"United States","fcodeName":"dam","adminName1":"Montana","lat":"47.78666","fcode":"DAM"},{"adminCode1":"MT","lng":"-107.60455","geonameId":5638546,"toponymName":"Barnard Ranch","countryId":"6252001","fcl":"S","population":0,"countryCode":"US","name":"Barnard Ranch","fclName":"spot, building, farm","adminCodes1":{"ISO3166_2":"MT"},"countryName":"United States","fcodeName":"","adminName1":"Montana","lat":"47.79722"},{"adminCode1":"GA","lng":"-81.86678","geonameId":4181086,"toponymName":"Barnard Cemetery","countryId":"6252001","fcl":"S","population":0,"countryCode":"US","name":"Barnard Cemetery","fclName":"spot, building, farm","adminCodes1":{"ISO3166_2":"GA"},"countryName":"United States","fcodeName":"cemetery","adminName1":"Georgia","lat":"32.1027","fcode":"CMTY"},{"adminCode1":"GA","lng":"-81.8415","geonameId":4181087,"toponymName":"Barnard Mill","countryId":"6252001","fcl":"H","population":0,"countryCode":"US","name":"Barnard Mill","fclName":"stream, lake, ...","adminCodes1":{"ISO3166_2":"GA"},"countryName":"United States","fcodeName":"stream","adminName1":"Georgia","lat":"32.12853","fcode":"STM"},{"adminCode1":"VT","lng":"-72.61972","geonameId":7131562,"toponymName":"Barnard Volunteer Fire Department","countryId":"6252001","fcl":"S","population":0,"countryCode":"US","name":"Barnard Volunteer Fire Department","fclName":"spot, building, farm","adminCodes1":{"ISO3166_2":"VT"},"countryName":"United States","fcodeName":"building(s)","adminName1":"Vermont","lat":"43.72935","fcode":"BLDG"},{"adminCode1":"VT","lng":"-72.5976","geonameId":5241222,"toponymName":"South Barnard Cemetery","countryId":"6252001","fcl":"S","population":0,"countryCode":"US","name":"South Barnard Cemetery","fclName":"spot, building, farm","adminCodes1":{"ISO3166_2":"VT"},"countryName":"United States","fcodeName":"cemetery","adminName1":"Vermont","lat":"43.68146","fcode":"CMTY"},{"adminCode1":"VT","lng":"-72.5426","geonameId":5235635,"toponymName":"East Barnard Cemetery","countryId":"6252001","fcl":"S","population":0,"countryCode":"US","name":"East Barnard Cemetery","fclName":"spot, building, farm","adminCodes1":{"ISO3166_2":"VT"},"countryName":"United States","fcodeName":"cemetery","adminName1":"Vermont","lat":"43.74396","fcode":"CMTY"},{"adminCode1":"VT","lng":"-72.54232","geonameId":5235636,"toponymName":"East Barnard Church","countryId":"6252001","fcl":"S","population":0,"countryCode":"US","name":"East Barnard Church","fclName":"spot, building, farm","adminCodes1":{"ISO3166_2":"VT"},"countryName":"United States","fcodeName":"church","adminName1":"Vermont","lat":"43.74479","fcode":"CH"},{"adminCode1":"VT","lng":"-72.61755","geonameId":11378711,"toponymName":"Barnard Post Office","countryId":"6252001","fcl":"S","population":0,"countryCode":"US","name":"Barnard Post Office","fclName":"spot, building, farm","adminCodes1":{"ISO3166_2":"VT"},"countryName":"United States","fcodeName":"post office","adminName1":"Vermont","lat":"43.72833","fcode":"PO"},{"adminCode1":"OR","lng":"-122.52675","geonameId":5743976,"toponymName":"Old Barnard Bridge","countryId":"6252001","fcl":"S","population":0,"countryCode":"US","name":"Old Barnard Bridge","fclName":"spot, building, farm","adminCodes1":{"ISO3166_2":"OR"},"countryName":"United States","fcodeName":"bridge","adminName1":"Oregon","lat":"43.75488","fcode":"BDG"},{"adminCode1":"OR","lng":"-117.19823","geonameId":5723969,"toponymName":"Dry Barnard Creek","countryId":"6252001","fcl":"H","population":0,"countryCode":"US","name":"Dry Barnard Creek","fclName":"stream, lake, ...","adminCodes1":{"ISO3166_2":"OR"},"countryName":"United States","fcodeName":"stream","adminName1":"Oregon","lat":"44.83044","fcode":"STM"}]}
