{"totalResultsCount":1028,"geonames":[{"adminCode1":"MA","lng":"-72.71509","geonameId":4929766,"toponymName":"Westfield-Barnes Regional Airport","countryId":"6252001","fcl":"S","population":0,"countryCode":"US","name":"Westfield-Barnes Regional Airport","fclName":"spot, building, farm","adminCodes1":{"ISO3166_2":"MA"},"countryName":"United States","fcodeName":"airport","adminName1":"Massachusetts","lat":"42.15759","fcode":"AIRP"},{"adminCode1":"ND","lng":"-98.07158","geonameId":5058187,"toponymName":"Barnes County","countryId":"6252001","fcl":"A","population":11066,"countryCode":"US","name":"Barnes","fclName":"country, state, region,...","adminCodes1":{"ISO3166_2":"ND"},"countryName":"United States","fcodeName":"second-order administrative division","adminName1":"North Dakota","lat":"46.93611","fcode":"ADM2"},{"adminCode1":"ND","lng":"-98.00315","geonameId":5062292,"toponymName":"Valley City","countryId":"6252001","fcl":"P","population":6669,"countryCode":"US","name":"Valley City","fclName":"city, village,...","adminCodes1":{"ISO3166_2":"ND"},"countryName":"United States","fcodeName":"seat of a second-order administrative division","adminName1":"North Dakota","lat":"46.92331","fcode":"PPLA2"},{"adminCode1":"ND","lng":"-98.11482","geonameId":5062062,"toponymName":"Stoney Slough National Wildlife Refuge","countryId":"6252001","fcl":"L","population":0,"countryCode":"US","name":"Stoney Slough National Wildlife Refuge","fclName":"parks,area, ...","adminCodes1":{"ISO3166_2":"ND"},"countryName":"United States","fcodeName":"park","adminName1":"North Dakota","lat":"46.72026","fcode":"PRK"},{"adminCode1":"ND","lng":"-98.18176","geonameId":5062201,"toponymName":"Tomahawk National Wildlife Refuge","countryId":"6252001","fcl":"L","population":0,"countryCode":"US","name":"Tomahawk National Wildlife Refuge","fclName":"parks,area, ...","adminCodes1":{"ISO3166_2":"ND"},"countryName":"United States","fcodeName":"park","adminName1":"North Dakota","lat":"47.07721","fcode":"PRK"},{"adminCode1":"ND","lng":"-98.11854","geonameId":5059680,"toponymName":"Hobart Lake National Wildlife Refuge","countryId":"6252001","fcl":"L","population":0,"countryCode":"US","name":"Hobart Lake National Wildlife Refuge","fclName":"parks,area, ...","adminCodes1":{"ISO3166_2":"ND"},"countryName":"United States","fcodeName":"park","adminName1":"North Dakota","lat":"46.92938","fcode":"PRK"},{"adminCode1":"ND","lng":"-98.4256","geonameId":5060546,"toponymName":"Mud Lake","countryId":"6252001","fcl":"H","population":0,"countryCode":"US","name":"Mud Lake","fclName":"stream, lake, ...","adminCodes1":{"ISO3166_2":"ND"},"countryName":"United States","fcodeName":"lake","adminName1":"North Dakota","lat":"46.85641","fcode":"LK"},{"adminCode1":"ND","lng":"-98.45982","geonameId":5062542,"toponymName":"Wimbledon","countryId":"6252001","fcl":"P","population":213,"countryCode":"US","name":"Wimbledon","fclName":"city, village,...","adminCodes1":{"ISO3166_2":"ND"},"countryName":"United States","fcodeName":"populated place","adminName1":"North Dakota","lat":"47.16971","fcode":"PPL"},{"adminCode1":"ND","lng":"-98.20176","geonameId":5058836,"toponymName":"Dazey","countryId":"6252001","fcl":"P","population":102,"countryCode":"US","name":"Dazey","fclName":"city, village,...","adminCodes1":{"ISO3166_2":"ND"},"countryName":"United States","fcodeName":"populated place","adminName1":"North Dakota","lat":"47.19054","fcode":"PPL"},{"adminCode1":"ND","lng":"-97.79038","geonameId":5059190,"toponymName":"Fingal","countryId":"6252001","fcl":"P","population":95,"countryCode":"US","name":"Fingal","fclName":"city, village,...","adminCodes1":{"ISO3166_2":"ND"},"countryName":"United States","fcodeName":"populated place","adminName1":"North Dakota","lat":"46.76053","fcode":"PPL"},{"adminCode1":"ND","lng":"-97.96871","geonameId":5059927,"toponymName":"Kathryn","countryId":"6252001","fcl":"P","population":51,"countryCode":"US","name":"Kathryn","fclName":"city, village,...","adminCodes1":{"ISO3166_2":"ND"},"countryName":"United States","fcodeName":"populated place","adminName1":"North Dakota","lat":"46.67803","fcode":"PPL"},{"adminCode1":"ND","lng":"-98.19426","geonameId":5060167,"toponymName":"Litchville","countryId":"6252001","fcl":"P","population":171,"countryCode":"US","name":"Litchville","fclName":"city, village,...","adminCodes1":{"ISO3166_2":"ND"},"countryName":"United States","fcodeName":"populated place","adminName1":"North Dakota","lat":"46.65359","fcode":"PPL"},{"adminCode1":"ND","lng":"-97.81038","geonameId":5060649,"toponymName":"Nome","countryId":"6252001","fcl":"P","population":61,"countryCode":"US","name":"Nome","fclName":"city, village,...","adminCodes1":{"ISO3166_2":"ND"},"countryName":"United States","fcodeName":"populated place","adminName1":"North Dakota","lat":"46.67775","fcode":"PPL"},{"adminCode1":"ND","lng":"-97.78899","geonameId":5060808,"toponymName":"Oriska","countryId":"6252001","fcl":"P","population":125,"countryCode":"US","name":"Oriska","fclName":"city, village,...","adminCodes1":{"ISO3166_2":"ND"},"countryName":"United States","fcodeName":"populated place","adminName1":"North Dakota","lat":"46.93053","fcode":"PPL"},{"adminCode1":"ND","lng":"-97.79066","geonameId":5060946,"toponymName":"Pillsbury","countryId":"6252001","fcl":"P","population":12,"countryCode":"US","name":"Pillsbury","fclName":"city, village,...","adminCodes1":{"ISO3166_2":"ND"},"countryName":"United States","fcodeName":"populated place","adminName1":"North Dakota","lat":"47.20693","fcode":"PPL"},{"adminCode1":"ND","lng":"-98.22426","geonameId":5061426,"toponymName":"Sanborn","countryId":"6252001","fcl":"P","population":191,"countryCode":"US","name":"Sanborn","fclName":"city, village,...","adminCodes1":{"ISO3166_2":"ND"},"countryName":"United States","fcodeName":"populated place","adminName1":"North Dakota","lat":"46.94221","fcode":"PPL"},{"adminCode1":"MI","lng":"-83.3123","geonameId":7259538,"toponymName":"Barnes Lake-Millers Lake","countryId":"6252001","fcl":"P","population":1093,"countryCode":"US","name":"Barnes Lake-Millers Lake","fclName":"city, village,...","adminCodes1":{"ISO3166_2":"MI"},"countryName":"United States","fcodeName":"populated place","adminName1":"Michigan","lat":"43.17956","fcode":"PPL"},{"adminCode1":"MI","lng":"-84.60288","geonameId":4984968,"toponymName":"Barnes Lake","countryId":"6252001","fcl":"H","population":0,"countryCode":"US","name":"Barnes Lake","fclName":"stream, lake, ...","adminCodes1":{"ISO3166_2":"MI"},"countryName":"United States","fcodeName":"lake","adminName1":"Michigan","lat":"44.83121","fcode":"LK"},{"adminCode1":"MN","lng":"-93.89559","geonameId":5017181,"toponymName":"Barnes Lake","countryId":"6252001","fcl":"H","population":0,"countryCode":"US","name":"Barnes Lake","fclName":"stream, lake, ...","adminCodes1":{"ISO3166_2":"MN"},"countryName":"United States","fcodeName":"lake","adminName1":"Minnesota","lat":"44.77508","fcode":"LK"},{"adminCode1":"KS","lng":"-96.87447","geonameId":4267913,"toponymName":"Barnes","countryId":"6252001","fcl":"P","population":154,"countryCode":"US","name":"Barnes","fclName":"city, village,...","adminCodes1":{"ISO3166_2":"KS"},"countryName":"United States","fcodeName":"populated place","adminName1":"Kansas","lat":"39.71195","fcode":"PPL"},{"adminCode1":"WA","lng":"-122.91607","geonameId":5786382,"toponymName":"Barnes Lake","countryId":"6252001","fcl":"H","population":0,"countryCode":"US","name":"Barnes Lake","fclName":"stream, lake, ...","adminCodes1":{"ISO3166_2":"WA"},"countryName":"United States","fcodeName":"lake","adminName1":"Washington","lat":"47.00389","fcode":"LK"},{"adminCode1":"ND","lng":"-97.96454","geonameId":5061890,"toponymName":"Sibley","countryId":"6252001","fcl":"P","population":30,"countryCode":"US","name":"Sibley","fclName":"city, village,...","adminCodes1":{"ISO3166_2":"ND"},"countryName":"United States","fcodeName":"populated place","adminName1":"North Dakota","lat":"47.21721","fcode":"PPL"},{"adminCode1":"ND","lng":"-98.41176","geonameId":5062285,"toponymName":"Urbana","countryId":"6252001","fcl":"P","population":0,"countryCode":"US","name":"Urbana","fclName":"city, village,...","adminCodes1":{"ISO3166_2":"ND"},"countryName":"United States","fcodeName":"populated place","adminName1":"North Dakota","lat":"46.93443","fcode":"PPL"},{"adminCode1":"ND","lng":"-98.0951","geonameId":5058256,"toponymName":"Berea","countryId":"6252001","fcl":"P","population":0,"countryCode":"US","name":"Berea","fclName":"city, village,...","adminCodes1":{"ISO3166_2":"ND"},"countryName":"United States","fcodeName":"populated place","adminName1":"North Dakota","lat":"46.93415","fcode":"PPL"},{"adminCode1":"ND","lng":"-98.16505","geonameId":5058450,"toponymName":"Bryn Airport","countryId":"6252001","fcl":"S","population":0,"countryCode":"US","name":"Bryn Airport","fclName":"spot, building, farm","adminCodes1":{"ISO3166_2":"ND"},"countryName":"United States","fcodeName":"airport","adminName1":"North Dakota","lat":"47.18832","fcode":"AIRP"},{"adminCode1":"ND","lng":"-97.8626","geonameId":5058799,"toponymName":"Cuba","countryId":"6252001","fcl":"P","population":0,"countryCode":"US","name":"Cuba","fclName":"city, village,...","adminCodes1":{"ISO3166_2":"ND"},"countryName":"United States","fcodeName":"populated place","adminName1":"North Dakota","lat":"46.82137","fcode":"PPL"},{"adminCode1":"ND","lng":"-97.89232","geonameId":5058977,"toponymName":"Eastedge","countryId":"6252001","fcl":"P","population":0,"countryCode":"US","name":"Eastedge","fclName":"city, village,...","adminCodes1":{"ISO3166_2":"ND"},"countryName":"United States","fcodeName":"populated place","adminName1":"North Dakota","lat":"46.65664","fcode":"PPL"},{"adminCode1":"ND","lng":"-98.33315","geonameId":5058987,"toponymName":"Eckelson","countryId":"6252001","fcl":"P","population":0,"countryCode":"US","name":"Eckelson","fclName":"city, village,...","adminCodes1":{"ISO3166_2":"ND"},"countryName":"United States","fcodeName":"populated place","adminName1":"North Dakota","lat":"46.93804","fcode":"PPL"},{"adminCode1":"ND","lng":"-97.77134","geonameId":5059303,"toponymName":"Gage Flying Farmer Airport","countryId":"6252001","fcl":"S","population":0,"countryCode":"US","name":"Gage Flying Farmer Airport","fclName":"spot, building, farm","adminCodes1":{"ISO3166_2":"ND"},"countryName":"United States","fcodeName":"airport","adminName1":"North Dakota","lat":"47.06305","fcode":"AIRP"},{"adminCode1":"ND","lng":"-98.09454","geonameId":5059588,"toponymName":"Hastings","countryId":"6252001","fcl":"P","population":0,"countryCode":"US","name":"Hastings","fclName":"city, village,...","adminCodes1":{"ISO3166_2":"ND"},"countryName":"United States","fcodeName":"populated place","adminName1":"North Dakota","lat":"46.68387","fcode":"PPL"},{"adminCode1":"ND","lng":"-98.2855","geonameId":5059930,"toponymName":"Kee Lake","countryId":"6252001","fcl":"H","population":0,"countryCode":"US","name":"Kee Lake","fclName":"stream, lake, ...","adminCodes1":{"ISO3166_2":"ND"},"countryName":"United States","fcodeName":"lake","adminName1":"North Dakota","lat":"46.8463","fcode":"LK"},{"adminCode1":"ND","lng":"-97.72371","geonameId":5059989,"toponymName":"Koldok","countryId":"6252001","fcl":"P","population":0,"countryCode":"US","name":"Koldok","fclName":"city, village,...","adminCodes1":{"ISO3166_2":"ND"},"countryName":"United States","fcodeName":"populated place","adminName1":"North Dakota","lat":"46.92859","fcode":"PPL"},{"adminCode1":"ND","lng":"-98.31732","geonameId":5060099,"toponymName":"Leal","countryId":"6252001","fcl":"P","population":20,"countryCode":"US","name":"Leal","fclName":"city, village,...","adminCodes1":{"ISO3166_2":"ND"},"countryName":"United States","fcodeName":"populated place","adminName1":"North Dakota","lat":"47.10527","fcode":"PPL"},{"adminCode1":"ND","lng":"-97.70227","geonameId":5060157,"toponymName":"Lindemann Airport","countryId":"6252001","fcl":"S","population":0,"countryCode":"US","name":"Lindemann Airport","fclName":"spot, building, farm","adminCodes1":{"ISO3166_2":"ND"},"countryName":"United States","fcodeName":"airport","adminName1":"North Dakota","lat":"46.70179","fcode":"AIRP"},{"adminCode1":"ND","lng":"-97.71983","geonameId":5060234,"toponymName":"Lucca","countryId":"6252001","fcl":"P","population":0,"countryCode":"US","name":"Lucca","fclName":"city, village,...","adminCodes1":{"ISO3166_2":"ND"},"countryName":"United States","fcodeName":"populated place","adminName1":"North Dakota","lat":"46.70692","fcode":"PPL"},{"adminCode1":"ND","lng":"-97.99677","geonameId":5060709,"toponymName":"North Valley City","countryId":"6252001","fcl":"P","population":0,"countryCode":"US","name":"North Valley City","fclName":"city, village,...","adminCodes1":{"ISO3166_2":"ND"},"countryName":"United States","fcodeName":"populated place","adminName1":"North Dakota","lat":"46.94609","fcode":"PPL"},{"adminCode1":"ND","lng":"-97.91316","geonameId":5060876,"toponymName":"Peak","countryId":"6252001","fcl":"P","population":0,"countryCode":"US","name":"Peak","fclName":"city, village,...","adminCodes1":{"ISO3166_2":"ND"},"countryName":"United States","fcodeName":"populated place","adminName1":"North Dakota","lat":"46.9322","fcode":"PPL"},{"adminCode1":"ND","lng":"-98.19954","geonameId":5061186,"toponymName":"Rogers","countryId":"6252001","fcl":"P","population":45,"countryCode":"US","name":"Rogers","fclName":"city, village,...","adminCodes1":{"ISO3166_2":"ND"},"countryName":"United States","fcodeName":"populated place","adminName1":"North Dakota","lat":"47.07276","fcode":"PPL"},{"adminCode1":"ND","lng":"-98.18459","geonameId":5061427,"toponymName":"Sanborn Lake","countryId":"6252001","fcl":"H","population":0,"countryCode":"US","name":"Sanborn Lake","fclName":"stream, lake, ...","adminCodes1":{"ISO3166_2":"ND"},"countryName":"United States","fcodeName":"lake","adminName1":"North Dakota","lat":"46.94644","fcode":"LK"},{"adminCode1":"ND","lng":"-97.97621","geonameId":4832814,"toponymName":"Daily","countryId":"6252001","fcl":"P","population":0,"countryCode":"US","name":"Daily","fclName":"city, village,...","adminCodes1":{"ISO3166_2":"ND"},"countryName":"United States","fcodeName":"populated place","adminName1":"North Dakota","lat":"46.71748","fcode":"PPL"},{"adminCode1":"AL","lng":"-85.67438","geonameId":4047206,"toponymName":"Barnes","countryId":"6252001","fcl":"P","population":0,"countryCode":"US","name":"Barnes","fclName":"city, village,...","adminCodes1":{"ISO3166_2":"AL"},"countryName":"United States","fcodeName":"populated place","adminName1":"Alabama","lat":"31.54267","fcode":"PPL"},{"adminCode1":"IA","lng":"-92.46824","geonameId":4847740,"toponymName":"Barnes City","countryId":"6252001","fcl":"P","population":174,"countryCode":"US","name":"Barnes City","fclName":"city, village,...","adminCodes1":{"ISO3166_2":"IA"},"countryName":"United States","fcodeName":"populated place","adminName1":"Iowa","lat":"41.50834","fcode":"PPL"},{"adminCode1":"ND","lng":"-98.14279","geonameId":11382919,"toponymName":"Barnes County Waterfowl Production Area","countryId":"6252001","fcl":"L","population":0,"countryCode":"US","name":"Barnes County Waterfowl Production Area","fclName":"parks,area, ...","adminCodes1":{"ISO3166_2":"ND"},"countryName":"United States","fcodeName":"park","adminName1":"North Dakota","lat":"46.72559","fcode":"PRK"},{"adminCode1":"AR","lng":"-91.35091","geonameId":4100382,"toponymName":"Barnes Lake","countryId":"6252001","fcl":"H","population":0,"countryCode":"US","name":"Barnes Lake","fclName":"stream, lake, ...","adminCodes1":{"ISO3166_2":"AR"},"countryName":"United States","fcodeName":"lake","adminName1":"Arkansas","lat":"34.87956","fcode":"LK"},{"adminCode1":"WI","lng":"-91.44107","geonameId":5244697,"toponymName":"Barnes Lake","countryId":"6252001","fcl":"H","population":0,"countryCode":"US","name":"Barnes Lake","fclName":"stream, lake, ...","adminCodes1":{"ISO3166_2":"WI"},"countryName":"United States","fcodeName":"lake","adminName1":"Wisconsin","lat":"46.28141","fcode":"LK"},{"adminCode1":"AR","lng":"-91.15596","geonameId":4100385,"toponymName":"Township of Barnes","countryId":"6252001","fcl":"A","population":0,"countryCode":"US","name":"Barnes Township","fclName":"country, state, region,...","adminCodes1":{"ISO3166_2":"AR"},"countryName":"United States","fcodeName":"third-order administrative division","adminName1":"Arkansas","lat":"35.31616","fcode":"ADM3"},{"adminCode1":"KS","lng":"-96.86276","geonameId":4267917,"toponymName":"Township of Barnes","countryId":"6252001","fcl":"A","population":0,"countryCode":"US","name":"Barnes Township","fclName":"country, state, region,...","adminCodes1":{"ISO3166_2":"KS"},"countryName":"United States","fcodeName":"third-order administrative division","adminName1":"Kansas","lat":"39.6968","fcode":"ADM3"},{"adminCode1":"ND","lng":"-98.46217","geonameId":5061818,"toponymName":"Scotts Lake","countryId":"6252001","fcl":"H","population":0,"countryCode":"US","name":"Scotts Lake","fclName":"stream, lake, ...","adminCodes1":{"ISO3166_2":"ND"},"countryName":"United States","fcodeName":"lake","adminName1":"North Dakota","lat":"47.01635","fcode":"LK"},{"adminCode1":"ND","lng":"-98.0249","geonameId":5061897,"toponymName":"Township of Sibley Trail","countryId":"6252001","fcl":"A","population":0,"countryCode":"US","name":"Sibley Trail Township","fclName":"country, state, region,...","adminCodes1":{"ISO3166_2":"ND"},"countryName":"United States","fcodeName":"third-order administrative division","adminName1":"North Dakota","lat":"47.19714","fcode":"ADM3"},{"adminCode1":"ND","lng":"-97.96531","geonameId":5061898,"toponymName":"City of Sibley","countryId":"6252001","fcl":"A","population":30,"countryCode":"US","name":"City of Sibley","fclName":"country, state, region,...","adminCodes1":{"ISO3166_2":"ND"},"countryName":"United States","fcodeName":"third-order administrative division","adminName1":"North Dakota","lat":"47.2186","fcode":"ADM3"},{"adminCode1":"ND","lng":"-98.12306","geonameId":5061929,"toponymName":"Township of Skandia","countryId":"6252001","fcl":"A","population":0,"countryCode":"US","name":"Skandia Township","fclName":"country, state, region,...","adminCodes1":{"ISO3166_2":"ND"},"countryName":"United States","fcodeName":"third-order administrative division","adminName1":"North Dakota","lat":"46.76148","fcode":"ADM3"},{"adminCode1":"ND","lng":"-98.12284","geonameId":5062004,"toponymName":"Township of Spring Creek","countryId":"6252001","fcl":"A","population":0,"countryCode":"US","name":"Spring Creek Township","fclName":"country, state, region,...","adminCodes1":{"ISO3166_2":"ND"},"countryName":"United States","fcodeName":"third-order administrative division","adminName1":"North Dakota","lat":"46.67463","fcode":"ADM3"},{"adminCode1":"ND","lng":"-97.74474","geonameId":5062014,"toponymName":"Township of Springvale","countryId":"6252001","fcl":"A","population":0,"countryCode":"US","name":"Springvale Township","fclName":"country, state, region,...","adminCodes1":{"ISO3166_2":"ND"},"countryName":"United States","fcodeName":"third-order administrative division","adminName1":"North Dakota","lat":"46.8475","fcode":"ADM3"},{"adminCode1":"ND","lng":"-98.14996","geonameId":5062047,"toponymName":"Township of Stewart","countryId":"6252001","fcl":"A","population":0,"countryCode":"US","name":"Stewart Township","fclName":"country, state, region,...","adminCodes1":{"ISO3166_2":"ND"},"countryName":"United States","fcodeName":"third-order administrative division","adminName1":"North Dakota","lat":"47.02322","fcode":"ADM3"},{"adminCode1":"ND","lng":"-98.24893","geonameId":5062115,"toponymName":"Township of Svea","countryId":"6252001","fcl":"A","population":0,"countryCode":"US","name":"Svea Township","fclName":"country, state, region,...","adminCodes1":{"ISO3166_2":"ND"},"countryName":"United States","fcodeName":"third-order administrative division","adminName1":"North Dakota","lat":"46.76172","fcode":"ADM3"},{"adminCode1":"ND","lng":"-98.2082","geonameId":5062133,"toponymName":"Sweetwater Lake","countryId":"6252001","fcl":"H","population":0,"countryCode":"US","name":"Sweetwater Lake","fclName":"stream, lake, ...","adminCodes1":{"ISO3166_2":"ND"},"countryName":"United States","fcodeName":"lake","adminName1":"North Dakota","lat":"46.87983","fcode":"LK"},{"adminCode1":"ND","lng":"-97.87171","geonameId":5062177,"toponymName":"Township of Thordenskjold","countryId":"6252001","fcl":"A","population":0,"countryCode":"US","name":"Thordenskjold Township","fclName":"country, state, region,...","adminCodes1":{"ISO3166_2":"ND"},"countryName":"United States","fcodeName":"third-order administrative division","adminName1":"North Dakota","lat":"46.67375","fcode":"ADM3"},{"adminCode1":"ND","lng":"-98.40394","geonameId":5062287,"toponymName":"Township of Uxbridge","countryId":"6252001","fcl":"A","population":0,"countryCode":"US","name":"Uxbridge Township","fclName":"country, state, region,...","adminCodes1":{"ISO3166_2":"ND"},"countryName":"United States","fcodeName":"third-order administrative division","adminName1":"North Dakota","lat":"47.1101","fcode":"ADM3"},{"adminCode1":"ND","lng":"-98.00707","geonameId":5062293,"toponymName":"City of Valley City","countryId":"6252001","fcl":"A","population":6585,"countryCode":"US","name":"City of Valley City","fclName":"country, state, region,...","adminCodes1":{"ISO3166_2":"ND"},"countryName":"United States","fcodeName":"third-order administrative division","adminName1":"North Dakota","lat":"46.92252","fcode":"ADM3"},{"adminCode1":"ND","lng":"-98.02488","geonameId":5062296,"toponymName":"Valley City National Fish Hatchery","countryId":"6252001","fcl":"L","population":0,"countryCode":"US","name":"Valley City National Fish Hatchery","fclName":"parks,area, ...","adminCodes1":{"ISO3166_2":"ND"},"countryName":"United States","fcodeName":"park","adminName1":"North Dakota","lat":"46.96139","fcode":"PRK"},{"adminCode1":"ND","lng":"-97.96482","geonameId":5062304,"toponymName":"Township of Valley","countryId":"6252001","fcl":"A","population":0,"countryCode":"US","name":"Valley Township","fclName":"country, state, region,...","adminCodes1":{"ISO3166_2":"ND"},"countryName":"United States","fcodeName":"third-order administrative division","adminName1":"North Dakota","lat":"46.93534","fcode":"ADM3"},{"adminCode1":"ND","lng":"-97.76932","geonameId":5062435,"toponymName":"Township of Weimer","countryId":"6252001","fcl":"A","population":0,"countryCode":"US","name":"Weimer Township","fclName":"country, state, region,...","adminCodes1":{"ISO3166_2":"ND"},"countryName":"United States","fcodeName":"third-order administrative division","adminName1":"North Dakota","lat":"47.02226","fcode":"ADM3"},{"adminCode1":"ND","lng":"-98.45868","geonameId":5062543,"toponymName":"City of Wimbledon","countryId":"6252001","fcl":"A","population":216,"countryCode":"US","name":"City of Wimbledon","fclName":"country, state, region,...","adminCodes1":{"ISO3166_2":"ND"},"countryName":"United States","fcodeName":"third-order administrative division","adminName1":"North Dakota","lat":"47.16958","fcode":"ADM3"},{"adminCode1":"ND","lng":"-97.8703","geonameId":5058072,"toponymName":"Township of Alta","countryId":"6252001","fcl":"A","population":0,"countryCode":"US","name":"Alta Township","fclName":"country, state, region,...","adminCodes1":{"ISO3166_2":"ND"},"countryName":"United States","fcodeName":"third-order administrative division","adminName1":"North Dakota","lat":"46.93512","fcode":"ADM3"},{"adminCode1":"ND","lng":"-98.27704","geonameId":5058088,"toponymName":"Township of Anderson","countryId":"6252001","fcl":"A","population":0,"countryCode":"US","name":"Anderson Township","fclName":"country, state, region,...","adminCodes1":{"ISO3166_2":"ND"},"countryName":"United States","fcodeName":"third-order administrative division","adminName1":"North Dakota","lat":"47.02323","fcode":"ADM3"},{"adminCode1":"ND","lng":"-98.02391","geonameId":5058145,"toponymName":"Township of Ashtabula","countryId":"6252001","fcl":"A","population":0,"countryCode":"US","name":"Ashtabula Township","fclName":"country, state, region,...","adminCodes1":{"ISO3166_2":"ND"},"countryName":"United States","fcodeName":"third-order administrative division","adminName1":"North Dakota","lat":"47.10995","fcode":"ADM3"},{"adminCode1":"ND","lng":"-98.07454","geonameId":5058176,"toponymName":"Baldhill Park","countryId":"6252001","fcl":"L","population":0,"countryCode":"US","name":"Baldhill Park","fclName":"parks,area, ...","adminCodes1":{"ISO3166_2":"ND"},"countryName":"United States","fcodeName":"park","adminName1":"North Dakota","lat":"47.03276","fcode":"PRK"},{"adminCode1":"ND","lng":"-97.89718","geonameId":5058177,"toponymName":"Township of Baldwin","countryId":"6252001","fcl":"A","population":0,"countryCode":"US","name":"Baldwin Township","fclName":"country, state, region,...","adminCodes1":{"ISO3166_2":"ND"},"countryName":"United States","fcodeName":"third-order administrative division","adminName1":"North Dakota","lat":"47.1969","fcode":"ADM3"},{"adminCode1":"ND","lng":"-98.23235","geonameId":5058252,"toponymName":"Lake Benson","countryId":"6252001","fcl":"H","population":0,"countryCode":"US","name":"Lake Benson","fclName":"stream, lake, ...","adminCodes1":{"ISO3166_2":"ND"},"countryName":"United States","fcodeName":"lake","adminName1":"North Dakota","lat":"47.22449","fcode":"LK"},{"adminCode1":"ND","lng":"-97.74429","geonameId":5058327,"toponymName":"Township of Binghampton","countryId":"6252001","fcl":"A","population":0,"countryCode":"US","name":"Binghampton Township","fclName":"country, state, region,...","adminCodes1":{"ISO3166_2":"ND"},"countryName":"United States","fcodeName":"third-order administrative division","adminName1":"North Dakota","lat":"46.76052","fcode":"ADM3"},{"adminCode1":"ND","lng":"-98.40399","geonameId":5058417,"toponymName":"Township of Brimer","countryId":"6252001","fcl":"A","population":0,"countryCode":"US","name":"Brimer Township","fclName":"country, state, region,...","adminCodes1":{"ISO3166_2":"ND"},"countryName":"United States","fcodeName":"third-order administrative division","adminName1":"North Dakota","lat":"47.02311","fcode":"ADM3"},{"adminCode1":"ND","lng":"-98.04621","geonameId":5058638,"toponymName":"Clausen Springs State Game Management Area","countryId":"6252001","fcl":"L","population":0,"countryCode":"US","name":"Clausen Springs State Game Management Area","fclName":"parks,area, ...","adminCodes1":{"ISO3166_2":"ND"},"countryName":"United States","fcodeName":"park","adminName1":"North Dakota","lat":"46.68081","fcode":"PRK"},{"adminCode1":"ND","lng":"-97.94893","geonameId":5058784,"toponymName":"Crow Lake","countryId":"6252001","fcl":"H","population":0,"countryCode":"US","name":"Crow Lake","fclName":"stream, lake, ...","adminCodes1":{"ISO3166_2":"ND"},"countryName":"United States","fcodeName":"lake","adminName1":"North Dakota","lat":"47.10197","fcode":"LK"},{"adminCode1":"ND","lng":"-97.82774","geonameId":5058791,"toponymName":"Crystal Lake (historical)","countryId":"6252001","fcl":"H","population":0,"countryCode":"US","name":"Crystal Lake (historical)","fclName":"stream, lake, ...","adminCodes1":{"ISO3166_2":"ND"},"countryName":"United States","fcodeName":"lake","adminName1":"North Dakota","lat":"46.82781","fcode":"LK"},{"adminCode1":"ND","lng":"-97.87077","geonameId":5058803,"toponymName":"Township of Cuba","countryId":"6252001","fcl":"A","population":0,"countryCode":"US","name":"Cuba Township","fclName":"country, state, region,...","adminCodes1":{"ISO3166_2":"ND"},"countryName":"United States","fcodeName":"third-order administrative division","adminName1":"North Dakota","lat":"46.84771","fcode":"ADM3"},{"adminCode1":"ND","lng":"-98.2007","geonameId":5058839,"toponymName":"City of Dazey","countryId":"6252001","fcl":"A","population":104,"countryCode":"US","name":"City of Dazey","fclName":"country, state, region,...","adminCodes1":{"ISO3166_2":"ND"},"countryName":"United States","fcodeName":"third-order administrative division","adminName1":"North Dakota","lat":"47.18832","fcode":"ADM3"},{"adminCode1":"ND","lng":"-98.15119","geonameId":5058840,"toponymName":"Township of Dazey","countryId":"6252001","fcl":"A","population":0,"countryCode":"US","name":"Dazey Township","fclName":"country, state, region,...","adminCodes1":{"ISO3166_2":"ND"},"countryName":"United States","fcodeName":"third-order administrative division","adminName1":"North Dakota","lat":"47.19759","fcode":"ADM3"},{"adminCode1":"ND","lng":"-98.20216","geonameId":5058931,"toponymName":"Dry Lake (historical)","countryId":"6252001","fcl":"H","population":0,"countryCode":"US","name":"Dry Lake (historical)","fclName":"stream, lake, ...","adminCodes1":{"ISO3166_2":"ND"},"countryName":"United States","fcodeName":"lake","adminName1":"North Dakota","lat":"46.93503","fcode":"LK"},{"adminCode1":"ND","lng":"-98.30095","geonameId":5058988,"toponymName":"Eckelson Lake","countryId":"6252001","fcl":"H","population":0,"countryCode":"US","name":"Eckelson Lake","fclName":"stream, lake, ...","adminCodes1":{"ISO3166_2":"ND"},"countryName":"United States","fcodeName":"lake","adminName1":"North Dakota","lat":"46.92408","fcode":"LK"},{"adminCode1":"ND","lng":"-98.37557","geonameId":5058989,"toponymName":"Township of Eckelson","countryId":"6252001","fcl":"A","population":0,"countryCode":"US","name":"Eckelson Township","fclName":"country, state, region,...","adminCodes1":{"ISO3166_2":"ND"},"countryName":"United States","fcodeName":"third-order administrative division","adminName1":"North Dakota","lat":"46.93613","fcode":"ADM3"},{"adminCode1":"ND","lng":"-98.27709","geonameId":5059015,"toponymName":"Township of Edna","countryId":"6252001","fcl":"A","population":0,"countryCode":"US","name":"Edna Township","fclName":"country, state, region,...","adminCodes1":{"ISO3166_2":"ND"},"countryName":"United States","fcodeName":"third-order administrative division","adminName1":"North Dakota","lat":"47.11026","fcode":"ADM3"},{"adminCode1":"ND","lng":"-97.7694","geonameId":5059063,"toponymName":"Township of Ellsbury","countryId":"6252001","fcl":"A","population":0,"countryCode":"US","name":"Ellsbury Township","fclName":"country, state, region,...","adminCodes1":{"ISO3166_2":"ND"},"countryName":"United States","fcodeName":"third-order administrative division","adminName1":"North Dakota","lat":"47.19646","fcode":"ADM3"},{"adminCode1":"ND","lng":"-98.08732","geonameId":5059175,"toponymName":"Faust Park","countryId":"6252001","fcl":"L","population":0,"countryCode":"US","name":"Faust Park","fclName":"parks,area, ...","adminCodes1":{"ISO3166_2":"ND"},"countryName":"United States","fcodeName":"park","adminName1":"North Dakota","lat":"46.98526","fcode":"PRK"},{"adminCode1":"ND","lng":"-97.79315","geonameId":5059191,"toponymName":"City of Fingal","countryId":"6252001","fcl":"A","population":97,"countryCode":"US","name":"City of Fingal","fclName":"country, state, region,...","adminCodes1":{"ISO3166_2":"ND"},"countryName":"United States","fcodeName":"third-order administrative division","adminName1":"North Dakota","lat":"46.76253","fcode":"ADM3"},{"adminCode1":"ND","lng":"-98.35306","geonameId":5059256,"toponymName":"Fox Lake","countryId":"6252001","fcl":"H","population":0,"countryCode":"US","name":"Fox Lake","fclName":"stream, lake, ...","adminCodes1":{"ISO3166_2":"ND"},"countryName":"United States","fcodeName":"lake","adminName1":"North Dakota","lat":"46.95912","fcode":"LK"},{"adminCode1":"ND","lng":"-98.02325","geonameId":5059349,"toponymName":"Township of Getchell","countryId":"6252001","fcl":"A","population":0,"countryCode":"US","name":"Getchell Township","fclName":"country, state, region,...","adminCodes1":{"ISO3166_2":"ND"},"countryName":"United States","fcodeName":"third-order administrative division","adminName1":"North Dakota","lat":"47.02268","fcode":"ADM3"},{"adminCode1":"ND","lng":"-97.86766","geonameId":5059397,"toponymName":"Goose Lake","countryId":"6252001","fcl":"H","population":0,"countryCode":"US","name":"Goose Lake","fclName":"stream, lake, ...","adminCodes1":{"ISO3166_2":"ND"},"countryName":"United States","fcodeName":"lake","adminName1":"North Dakota","lat":"47.22871","fcode":"LK"},{"adminCode1":"ND","lng":"-97.89671","geonameId":5059440,"toponymName":"Township of Grand Prairie","countryId":"6252001","fcl":"A","population":0,"countryCode":"US","name":"Grand Prairie Township","fclName":"country, state, region,...","adminCodes1":{"ISO3166_2":"ND"},"countryName":"United States","fcodeName":"third-order administrative division","adminName1":"North Dakota","lat":"47.10969","fcode":"ADM3"},{"adminCode1":"ND","lng":"-98.1227","geonameId":5059470,"toponymName":"Township of Green","countryId":"6252001","fcl":"A","population":0,"countryCode":"US","name":"Green Township","fclName":"country, state, region,...","adminCodes1":{"ISO3166_2":"ND"},"countryName":"United States","fcodeName":"third-order administrative division","adminName1":"North Dakota","lat":"46.84847","fcode":"ADM3"},{"adminCode1":"ND","lng":"-98.37585","geonameId":5059479,"toponymName":"Township of Greenland","countryId":"6252001","fcl":"A","population":0,"countryCode":"US","name":"Greenland Township","fclName":"country, state, region,...","adminCodes1":{"ISO3166_2":"ND"},"countryName":"United States","fcodeName":"third-order administrative division","adminName1":"North Dakota","lat":"46.67472","fcode":"ADM3"},{"adminCode1":"ND","lng":"-98.40502","geonameId":5059500,"toponymName":"Goose Lake","countryId":"6252001","fcl":"H","population":0,"countryCode":"US","name":"Goose Lake","fclName":"stream, lake, ...","adminCodes1":{"ISO3166_2":"ND"},"countryName":"United States","fcodeName":"lake","adminName1":"North Dakota","lat":"46.88493","fcode":"LK"},{"adminCode1":"ND","lng":"-98.14711","geonameId":5059560,"toponymName":"Hanson Lake","countryId":"6252001","fcl":"H","population":0,"countryCode":"US","name":"Hanson Lake","fclName":"stream, lake, ...","adminCodes1":{"ISO3166_2":"ND"},"countryName":"United States","fcodeName":"lake","adminName1":"North Dakota","lat":"47.21914","fcode":"LK"},{"adminCode1":"ND","lng":"-98.24884","geonameId":5059619,"toponymName":"Township of Hemen","countryId":"6252001","fcl":"A","population":0,"countryCode":"US","name":"Hemen Township","fclName":"country, state, region,...","adminCodes1":{"ISO3166_2":"ND"},"countryName":"United States","fcodeName":"third-order administrative division","adminName1":"North Dakota","lat":"46.84879","fcode":"ADM3"},{"adminCode1":"ND","lng":"-98.13377","geonameId":5059679,"toponymName":"Hobart Lake","countryId":"6252001","fcl":"H","population":0,"countryCode":"US","name":"Hobart Lake","fclName":"stream, lake, ...","adminCodes1":{"ISO3166_2":"ND"},"countryName":"United States","fcodeName":"lake","adminName1":"North Dakota","lat":"46.92219","fcode":"LK"},{"adminCode1":"ND","lng":"-98.12228","geonameId":5059682,"toponymName":"Township of Hobart","countryId":"6252001","fcl":"A","population":0,"countryCode":"US","name":"Hobart Township","fclName":"country, state, region,...","adminCodes1":{"ISO3166_2":"ND"},"countryName":"United States","fcodeName":"third-order administrative division","adminName1":"North Dakota","lat":"46.93576","fcode":"ADM3"},{"adminCode1":"ND","lng":"-98.39161","geonameId":5059816,"toponymName":"Island Lake","countryId":"6252001","fcl":"H","population":0,"countryCode":"US","name":"Island Lake","fclName":"stream, lake, ...","adminCodes1":{"ISO3166_2":"ND"},"countryName":"United States","fcodeName":"lake","adminName1":"North Dakota","lat":"46.90142","fcode":"LK"},{"adminCode1":"ND","lng":"-97.97071","geonameId":5059929,"toponymName":"City of Kathryn","countryId":"6252001","fcl":"A","population":52,"countryCode":"US","name":"City of Kathryn","fclName":"country, state, region,...","adminCodes1":{"ISO3166_2":"ND"},"countryName":"United States","fcodeName":"third-order administrative division","adminName1":"North Dakota","lat":"46.68176","fcode":"ADM3"},{"adminCode1":"ND","lng":"-97.73983","geonameId":5059990,"toponymName":"Koldok State Game Management Area","countryId":"6252001","fcl":"L","population":0,"countryCode":"US","name":"Koldok State Game Management Area","fclName":"parks,area, ...","adminCodes1":{"ISO3166_2":"ND"},"countryName":"United States","fcodeName":"park","adminName1":"North Dakota","lat":"46.93914","fcode":"PRK"},{"adminCode1":"ND","lng":"-98.27764","geonameId":5060037,"toponymName":"Township of Lake Town","countryId":"6252001","fcl":"A","population":0,"countryCode":"US","name":"Lake Town Township","fclName":"country, state, region,...","adminCodes1":{"ISO3166_2":"ND"},"countryName":"United States","fcodeName":"third-order administrative division","adminName1":"North Dakota","lat":"47.19732","fcode":"ADM3"},{"adminCode1":"ND","lng":"-97.93811","geonameId":5060090,"toponymName":"Larson Slough","countryId":"6252001","fcl":"H","population":0,"countryCode":"US","name":"Larson Slough","fclName":"stream, lake, ...","adminCodes1":{"ISO3166_2":"ND"},"countryName":"United States","fcodeName":"lake","adminName1":"North Dakota","lat":"47.07188","fcode":"LK"}]}
