{"totalResultsCount":7,"geonames":[{"adminCode1":"FL","lng":"-82.86124","geonameId":4146968,"toponymName":"Beachville","countryId":"6252001","fcl":"P","population":0,"countryCode":"US","name":"Beachville","fclName":"city, village,...","adminCodes1":{"ISO3166_2":"FL"},"countryName":"United States","fcodeName":"populated place","adminName1":"Florida","lat":"29.99801","fcode":"PPL"},{"adminCode1":"MD","lng":"-76.41578","geonameId":4348084,"toponymName":"Beachville","countryId":"6252001","fcl":"P","population":0,"countryCode":"US","name":"Beachville","fclName":"city, village,...","adminCodes1":{"ISO3166_2":"MD"},"countryName":"United States","fcodeName":"populated place","adminName1":"Maryland","lat":"38.14874","fcode":"PPL"},{"adminCode1":"TN","lng":"-86.86945","geonameId":4604469,"toponymName":"Beachville (historical)","countryId":"6252001","fcl":"P","population":0,"countryCode":"US","name":"Beachville (historical)","fclName":"city, village,...","adminCodes1":{"ISO3166_2":"TN"},"countryName":"United States","fcodeName":"abandoned populated place","adminName1":"Tennessee","lat":"36.03951","fcode":"PPLQ"},{"adminCode1":"NY","lng":"-77.63277","geonameId":5108217,"toponymName":"Beachville","countryId":"6252001","fcl":"P","population":0,"countryCode":"US","name":"Beachville","fclName":"city, village,...","adminCodes1":{"ISO3166_2":"NY"},"countryName":"United States","fcodeName":"populated place","adminName1":"New York","lat":"42.4559","fcode":"PPL"},{"adminCode1":"FL","lng":"-82.86096","geonameId":4146969,"toponymName":"Beachville Advent Christian Church","countryId":"6252001","fcl":"S","population":0,"countryCode":"US","name":"Beachville Advent Christian Church","fclName":"spot, building, farm","adminCodes1":{"ISO3166_2":"FL"},"countryName":"United States","fcodeName":"church","adminName1":"Florida","lat":"29.9994","fcode":"CH"},{"adminCode1":"FL","lng":"-82.86207","geonameId":4146970,"toponymName":"Beachville Fire Tower","countryId":"6252001","fcl":"S","population":0,"countryCode":"US","name":"Beachville Fire Tower","fclName":"spot, building, farm","adminCodes1":{"ISO3166_2":"FL"},"countryName":"United States","fcodeName":"tower","adminName1":"Florida","lat":"29.99717","fcode":"TOWR"},{"adminCode1":"NY","lng":"-77.62471","geonameId":5108218,"toponymName":"Beachville Cemetery","countryId":"6252001","fcl":"S","population":0,"countryCode":"US","name":"Beachville Cemetery","fclName":"spot, building, farm","adminCodes1":{"ISO3166_2":"NY"},"countryName":"United States","fcodeName":"cemetery","adminName1":"New York","lat":"42.45174","fcode":"CMTY"}]}
