{"totalResultsCount":7,"geonames":[{"adminCode1":"MD","lng":"-75.8891","geonameId":4348809,"toponymName":"Bivalve","countryId":"6252001","fcl":"P","population":201,"countryCode":"US","name":"Bivalve","fclName":"city, village,...","adminCodes1":{"ISO3166_2":"MD"},"countryName":"United States","fcodeName":"populated place","adminName1":"Maryland","lat":"38.30623","fcode":"PPL"},{"adminCode1":"CA","lng":"-122.82721","geonameId":5328888,"toponymName":"Bivalve","countryId":"6252001","fcl":"P","population":0,"countryCode":"US","name":"Bivalve","fclName":"city, village,...","adminCodes1":{"ISO3166_2":"CA"},"countryName":"United States","fcodeName":"populated place","adminName1":"California","lat":"38.09242","fcode":"PPL"},{"adminCode1":"NJ","lng":"-75.03379","geonameId":4500840,"toponymName":"Bivalve","countryId":"6252001","fcl":"P","population":0,"countryCode":"US","name":"Bivalve","fclName":"city, village,...","adminCodes1":{"ISO3166_2":"NJ"},"countryName":"United States","fcodeName":"populated place","adminName1":"New Jersey","lat":"39.23428","fcode":"PPL"},{"adminCode1":"NC","lng":"-76.62993","geonameId":4456067,"toponymName":"Bivalve Point","countryId":"6252001","fcl":"T","population":0,"countryCode":"US","name":"Bivalve Point","fclName":"mountain,hill,rock,... ","adminCodes1":{"ISO3166_2":"NC"},"countryName":"United States","fcodeName":"cape","adminName1":"North Carolina","lat":"35.5335","fcode":"CAPE"},{"adminCode1":"MD","lng":"-75.89299","geonameId":4348810,"toponymName":"Bivalve Harbor","countryId":"6252001","fcl":"H","population":0,"countryCode":"US","name":"Bivalve Harbor","fclName":"stream, lake, ...","adminCodes1":{"ISO3166_2":"MD"},"countryName":"United States","fcodeName":"bay","adminName1":"Maryland","lat":"38.30901","fcode":"BAY"},{"adminCode1":"MD","lng":"-75.88966","geonameId":4348811,"toponymName":"Bivalve Post Office","countryId":"6252001","fcl":"S","population":0,"countryCode":"US","name":"Bivalve Post Office","fclName":"spot, building, farm","adminCodes1":{"ISO3166_2":"MD"},"countryName":"United States","fcodeName":"post office","adminName1":"Maryland","lat":"38.30623","fcode":"PO"},{"adminCode1":"MD","lng":"-75.88938","geonameId":4348812,"toponymName":"Bivalve United Methodist Church","countryId":"6252001","fcl":"S","population":0,"countryCode":"US","name":"Bivalve United Methodist Church","fclName":"spot, building, farm","adminCodes1":{"ISO3166_2":"MD"},"countryName":"United States","fcodeName":"church","adminName1":"Maryland","lat":"38.30679","fcode":"CH"}]}
