{"totalResultsCount":8408,"geonames":[{"adminCode1":"IA","lng":"-92.34296","geonameId":4880889,"toponymName":"Waterloo","countryId":"6252001","fcl":"P","population":68460,"countryCode":"US","name":"Waterloo","fclName":"city, village,...","adminCodes1":{"ISO3166_2":"IA"},"countryName":"United States","fcodeName":"seat of a second-order administrative division","adminName1":"Iowa","lat":"42.49276","fcode":"PPLA2"},{"adminCode1":"IA","lng":"-92.44547","geonameId":4850699,"toponymName":"Cedar Falls","countryId":"6252001","fcl":"P","population":41255,"countryCode":"US","name":"Cedar Falls","fclName":"city, village,...","adminCodes1":{"ISO3166_2":"IA"},"countryName":"United States","fcodeName":"populated place","adminName1":"Iowa","lat":"42.52776","fcode":"PPL"},{"adminCode1":"OH","lng":"-82.18237","geonameId":5161262,"toponymName":"Lorain","countryId":"6252001","fcl":"P","population":63647,"countryCode":"US","name":"Lorain","fclName":"city, village,...","adminCodes1":{"ISO3166_2":"OH"},"countryName":"United States","fcodeName":"populated place","adminName1":"Ohio","lat":"41.45282","fcode":"PPL"},{"adminCode1":"WA","lng":"-122.21707","geonameId":5808189,"toponymName":"Renton","countryId":"6252001","fcl":"P","population":100242,"countryCode":"US","name":"Renton","fclName":"city, village,...","adminCodes1":{"ISO3166_2":"WA"},"countryName":"United States","fcodeName":"populated place","adminName1":"Washington","lat":"47.48288","fcode":"PPL"},{"adminCode1":"AL","lng":"-87.56917","geonameId":4094455,"toponymName":"Tuscaloosa","countryId":"6252001","fcl":"P","population":98332,"countryCode":"US","name":"Tuscaloosa","fclName":"city, village,...","adminCodes1":{"ISO3166_2":"AL"},"countryName":"United States","fcodeName":"seat of a second-order administrative division","adminName1":"Alabama","lat":"33.20984","fcode":"PPLA2"},{"adminCode1":"IA","lng":"-92.30882","geonameId":4848699,"toponymName":"Black Hawk County","countryId":"6252001","fcl":"A","population":131090,"countryCode":"US","name":"Black Hawk","fclName":"country, state, region,...","adminCodes1":{"ISO3166_2":"IA"},"countryName":"United States","fcodeName":"second-order administrative division","adminName1":"Iowa","lat":"42.4701","fcode":"ADM2"},{"adminCode1":"IA","lng":"-92.40019","geonameId":4880900,"toponymName":"Waterloo Municipal Airport","countryId":"6252001","fcl":"S","population":0,"countryCode":"US","name":"Waterloo Municipal Airport","fclName":"spot, building, farm","adminCodes1":{"ISO3166_2":"IA"},"countryName":"United States","fcodeName":"airport","adminName1":"Iowa","lat":"42.55665","fcode":"AIRP"},{"adminCode1":"IA","lng":"-92.19213","geonameId":4863820,"toponymName":"La Porte City","countryId":"6252001","fcl":"P","population":2290,"countryCode":"US","name":"La Porte City","fclName":"city, village,...","adminCodes1":{"ISO3166_2":"IA"},"countryName":"United States","fcodeName":"populated place","adminName1":"Iowa","lat":"42.31499","fcode":"PPL"},{"adminCode1":"IA","lng":"-92.45547","geonameId":4861298,"toponymName":"Hudson","countryId":"6252001","fcl":"P","population":2381,"countryCode":"US","name":"Hudson","fclName":"city, village,...","adminCodes1":{"ISO3166_2":"IA"},"countryName":"United States","fcodeName":"populated place","adminName1":"Iowa","lat":"42.40665","fcode":"PPL"},{"adminCode1":"IA","lng":"-92.28102","geonameId":4855806,"toponymName":"Evansdale","countryId":"6252001","fcl":"P","population":4812,"countryCode":"US","name":"Evansdale","fclName":"city, village,...","adminCodes1":{"ISO3166_2":"IA"},"countryName":"United States","fcodeName":"populated place","adminName1":"Iowa","lat":"42.46915","fcode":"PPL"},{"adminCode1":"IA","lng":"-92.40852","geonameId":4859964,"toponymName":"Hartman Reserve Nature Center","countryId":"6252001","fcl":"L","population":0,"countryCode":"US","name":"Hartman Reserve Nature Center","fclName":"parks,area, ...","adminCodes1":{"ISO3166_2":"IA"},"countryName":"United States","fcodeName":"park","adminName1":"Iowa","lat":"42.52915","fcode":"PRK"},{"adminCode1":"WI","lng":"-89.01872","geonameId":5257754,"toponymName":"Janesville","countryId":"6252001","fcl":"P","population":64123,"countryCode":"US","name":"Janesville","fclName":"city, village,...","adminCodes1":{"ISO3166_2":"WI"},"countryName":"United States","fcodeName":"seat of a second-order administrative division","adminName1":"Wisconsin","lat":"42.68279","fcode":"PPLA2"},{"adminCode1":"CA","lng":"-121.88468","geonameId":5383465,"toponymName":"Pittsburg","countryId":"6252001","fcl":"P","population":69424,"countryCode":"US","name":"Pittsburg","fclName":"city, village,...","adminCodes1":{"ISO3166_2":"CA"},"countryName":"United States","fcodeName":"populated place","adminName1":"California","lat":"38.02798","fcode":"PPL"},{"adminCode1":"AR","lng":"-91.09735","geonameId":4102088,"toponymName":"Black Rock","countryId":"6252001","fcl":"P","population":625,"countryCode":"US","name":"Black Rock","fclName":"city, village,...","adminCodes1":{"ISO3166_2":"AR"},"countryName":"United States","fcodeName":"populated place","adminName1":"Arkansas","lat":"36.1084","fcode":"PPL"},{"adminCode1":"IA","lng":"-92.16046","geonameId":4854634,"toponymName":"Dunkerton","countryId":"6252001","fcl":"P","population":842,"countryCode":"US","name":"Dunkerton","fclName":"city, village,...","adminCodes1":{"ISO3166_2":"IA"},"countryName":"United States","fcodeName":"populated place","adminName1":"Iowa","lat":"42.56999","fcode":"PPL"},{"adminCode1":"IA","lng":"-92.25657","geonameId":4855333,"toponymName":"Elk Run Heights","countryId":"6252001","fcl":"P","population":1134,"countryCode":"US","name":"Elk Run Heights","fclName":"city, village,...","adminCodes1":{"ISO3166_2":"IA"},"countryName":"United States","fcodeName":"populated place","adminName1":"Iowa","lat":"42.46693","fcode":"PPL"},{"adminCode1":"IA","lng":"-92.2149","geonameId":4858358,"toponymName":"Gilbertville","countryId":"6252001","fcl":"P","population":747,"countryCode":"US","name":"Gilbertville","fclName":"city, village,...","adminCodes1":{"ISO3166_2":"IA"},"countryName":"United States","fcodeName":"populated place","adminName1":"Iowa","lat":"42.4161","fcode":"PPL"},{"adminCode1":"IA","lng":"-92.21963","geonameId":4872540,"toponymName":"Raymond","countryId":"6252001","fcl":"P","population":816,"countryCode":"US","name":"Raymond","fclName":"city, village,...","adminCodes1":{"ISO3166_2":"IA"},"countryName":"United States","fcodeName":"populated place","adminName1":"Iowa","lat":"42.46888","fcode":"PPL"},{"adminCode1":"IA","lng":"-92.21907","geonameId":4853900,"toponymName":"Dewar","countryId":"6252001","fcl":"P","population":0,"countryCode":"US","name":"Dewar","fclName":"city, village,...","adminCodes1":{"ISO3166_2":"IA"},"countryName":"United States","fcodeName":"populated place","adminName1":"Iowa","lat":"42.52554","fcode":"PPL"},{"adminCode1":"WI","lng":"-88.45066","geonameId":5246049,"toponymName":"Black Creek","countryId":"6252001","fcl":"P","population":1322,"countryCode":"US","name":"Black Creek","fclName":"city, village,...","adminCodes1":{"ISO3166_2":"WI"},"countryName":"United States","fcodeName":"populated place","adminName1":"Wisconsin","lat":"44.47749","fcode":"PPL"},{"adminCode1":"WI","lng":"-89.74679","geonameId":5246060,"toponymName":"Black Earth","countryId":"6252001","fcl":"P","population":1403,"countryCode":"US","name":"Black Earth","fclName":"city, village,...","adminCodes1":{"ISO3166_2":"WI"},"countryName":"United States","fcodeName":"populated place","adminName1":"Wisconsin","lat":"43.13722","fcode":"PPL"},{"adminCode1":"SD","lng":"-103.78076","geonameId":5762871,"toponymName":"Black Hills Airport","countryId":"6252001","fcl":"S","population":0,"countryCode":"US","name":"Black Hills Airport","fclName":"spot, building, farm","adminCodes1":{"ISO3166_2":"SD"},"countryName":"United States","fcodeName":"airport","adminName1":"South Dakota","lat":"44.47971","fcode":"AIRP"},{"adminCode1":"GA","lng":"-83.41516","geonameId":4183261,"toponymName":"Black Rock Mountain State Park","countryId":"6252001","fcl":"L","population":0,"countryCode":"US","name":"Black Rock Mountain State Park","fclName":"parks,area, ...","adminCodes1":{"ISO3166_2":"GA"},"countryName":"United States","fcodeName":"park","adminName1":"Georgia","lat":"34.90954","fcode":"PRK"},{"adminCode1":"CO","lng":"-107.72426","geonameId":5414031,"toponymName":"Black Canyon of the Gunnison National Park","countryId":"6252001","fcl":"L","population":0,"countryCode":"US","name":"Black Canyon of the Gunnison National Park","fclName":"parks,area, ...","adminCodes1":{"ISO3166_2":"CO"},"countryName":"United States","fcodeName":"park","adminName1":"Colorado","lat":"38.57778","fcode":"PRK"},{"adminCode1":"AZ","lng":"-112.15071","geonameId":5285131,"toponymName":"Black Canyon City","countryId":"6252001","fcl":"P","population":2837,"countryCode":"US","name":"Black Canyon City","fclName":"city, village,...","adminCodes1":{"ISO3166_2":"AZ"},"countryName":"United States","fcodeName":"populated place","adminName1":"Arizona","lat":"34.07087","fcode":"PPL"},{"adminCode1":"AZ","lng":"-110.40069","geonameId":5285373,"toponymName":"Black Mesa","countryId":"6252001","fcl":"L","population":0,"countryCode":"US","name":"Black Mesa","fclName":"parks,area, ...","adminCodes1":{"ISO3166_2":"AZ"},"countryName":"United States","fcodeName":"area","adminName1":"Arizona","lat":"36.33333","fcode":"AREA"},{"adminCode1":"WI","lng":"-90.84774","geonameId":5246106,"toponymName":"Black River Falls Area Airport","countryId":"6252001","fcl":"S","population":0,"countryCode":"US","name":"Black River Falls Area Airport","fclName":"spot, building, farm","adminCodes1":{"ISO3166_2":"WI"},"countryName":"United States","fcodeName":"airport","adminName1":"Wisconsin","lat":"44.25299","fcode":"AIRP"},{"adminCode1":"VA","lng":"-81.97735","geonameId":4743815,"toponymName":"Abingdon","countryId":"6252001","fcl":"P","population":8119,"countryCode":"US","name":"Abingdon","fclName":"city, village,...","adminCodes1":{"ISO3166_2":"VA"},"countryName":"United States","fcodeName":"seat of a second-order administrative division","adminName1":"Virginia","lat":"36.70983","fcode":"PPLA2"},{"adminCode1":"MT","lng":"-111.2183","geonameId":5640710,"toponymName":"Black Horse Lake","countryId":"6252001","fcl":"H","population":0,"countryCode":"US","name":"Black Horse Lake","fclName":"stream, lake, ...","adminCodes1":{"ISO3166_2":"MT"},"countryName":"United States","fcodeName":"lake","adminName1":"Montana","lat":"47.60802","fcode":"LK"},{"adminCode1":"CO","lng":"-105.49389","geonameId":5414083,"toponymName":"Black Hawk","countryId":"6252001","fcl":"P","population":125,"countryCode":"US","name":"Black Hawk","fclName":"city, village,...","adminCodes1":{"ISO3166_2":"CO"},"countryName":"United States","fcodeName":"populated place","adminName1":"Colorado","lat":"39.79693","fcode":"PPL"},{"adminCode1":"MI","lng":"-84.27122","geonameId":4986262,"toponymName":"Black Lake","countryId":"6252001","fcl":"H","population":0,"countryCode":"US","name":"Black Lake","fclName":"stream, lake, ...","adminCodes1":{"ISO3166_2":"MI"},"countryName":"United States","fcodeName":"lake","adminName1":"Michigan","lat":"45.46406","fcode":"LK"},{"adminCode1":"MA","lng":"-70.56942","geonameId":4930665,"toponymName":"Black Jimmy Pond","countryId":"6252001","fcl":"H","population":0,"countryCode":"US","name":"Black Jimmy Pond","fclName":"stream, lake, ...","adminCodes1":{"ISO3166_2":"MA"},"countryName":"United States","fcodeName":"lake","adminName1":"Massachusetts","lat":"41.82948","fcode":"LK"},{"adminCode1":"MO","lng":"-90.93318","geonameId":4377259,"toponymName":"Black","countryId":"6252001","fcl":"P","population":0,"countryCode":"US","name":"Black","fclName":"city, village,...","adminCodes1":{"ISO3166_2":"MO"},"countryName":"United States","fcodeName":"populated place","adminName1":"Missouri","lat":"37.53144","fcode":"PPL"},{"adminCode1":"AR","lng":"-90.36816","geonameId":4102065,"toponymName":"Black Oak","countryId":"6252001","fcl":"P","population":262,"countryCode":"US","name":"Black Oak","fclName":"city, village,...","adminCodes1":{"ISO3166_2":"AR"},"countryName":"United States","fcodeName":"populated place","adminName1":"Arkansas","lat":"35.83896","fcode":"PPL"},{"adminCode1":"IA","lng":"-95.05027","geonameId":4848710,"toponymName":"Black Hawk Lake Wildlife Management Area","countryId":"6252001","fcl":"L","population":0,"countryCode":"US","name":"Black Hawk Lake Wildlife Management Area","fclName":"parks,area, ...","adminCodes1":{"ISO3166_2":"IA"},"countryName":"United States","fcodeName":"park","adminName1":"Iowa","lat":"42.29498","fcode":"PRK"},{"adminCode1":"MA","lng":"-70.84893","geonameId":4930666,"toponymName":"Black Joe Pond","countryId":"6252001","fcl":"H","population":0,"countryCode":"US","name":"Black Joe Pond","fclName":"stream, lake, ...","adminCodes1":{"ISO3166_2":"MA"},"countryName":"United States","fcodeName":"lake","adminName1":"Massachusetts","lat":"42.51244","fcode":"LK"},{"adminCode1":"IA","lng":"-92.35741","geonameId":4854737,"toponymName":"Eagle Center","countryId":"6252001","fcl":"P","population":0,"countryCode":"US","name":"Eagle Center","fclName":"city, village,...","adminCodes1":{"ISO3166_2":"IA"},"countryName":"United States","fcodeName":"populated place","adminName1":"Iowa","lat":"42.34082","fcode":"PPL"},{"adminCode1":"IA","lng":"-92.48269","geonameId":4880350,"toponymName":"Voorhies","countryId":"6252001","fcl":"P","population":0,"countryCode":"US","name":"Voorhies","fclName":"city, village,...","adminCodes1":{"ISO3166_2":"IA"},"countryName":"United States","fcodeName":"populated place","adminName1":"Iowa","lat":"42.33582","fcode":"PPL"},{"adminCode1":"IA","lng":"-92.26741","geonameId":4880724,"toponymName":"Washburn","countryId":"6252001","fcl":"P","population":876,"countryCode":"US","name":"Washburn","fclName":"city, village,...","adminCodes1":{"ISO3166_2":"IA"},"countryName":"United States","fcodeName":"populated place","adminName1":"Iowa","lat":"42.41166","fcode":"PPL"},{"adminCode1":"OR","lng":"-119.65416","geonameId":5714468,"toponymName":"Black Canyon Wilderness","countryId":"6252001","fcl":"L","population":0,"countryCode":"US","name":"Black Canyon Wilderness","fclName":"parks,area, ...","adminCodes1":{"ISO3166_2":"OR"},"countryName":"United States","fcodeName":"reserve","adminName1":"Oregon","lat":"44.33857","fcode":"RES"},{"adminCode1":"NV","lng":"-118.75453","geonameId":5701664,"toponymName":"Black Rock Desert Wilderness","countryId":"6252001","fcl":"L","population":0,"countryCode":"US","name":"Black Rock Desert Wilderness","fclName":"parks,area, ...","adminCodes1":{"ISO3166_2":"NV"},"countryName":"United States","fcodeName":"reserve","adminName1":"Nevada","lat":"41.21523","fcode":"RES"},{"adminCode1":"MT","lng":"-108.41171","geonameId":5640661,"toponymName":"Black Coulee National Wildlife Refuge","countryId":"6252001","fcl":"L","population":0,"countryCode":"US","name":"Black Coulee National Wildlife Refuge","fclName":"parks,area, ...","adminCodes1":{"ISO3166_2":"MT"},"countryName":"United States","fcodeName":"park","adminName1":"Montana","lat":"48.68983","fcode":"PRK"},{"adminCode1":"WA","lng":"-122.00317","geonameId":5787423,"toponymName":"Black Diamond","countryId":"6252001","fcl":"P","population":4376,"countryCode":"US","name":"Black Diamond","fclName":"city, village,...","adminCodes1":{"ISO3166_2":"WA"},"countryName":"United States","fcodeName":"populated place","adminName1":"Washington","lat":"47.30871","fcode":"PPL"},{"adminCode1":"NV","lng":"-119.03899","geonameId":5706838,"toponymName":"North Black Rock Range Wilderness","countryId":"6252001","fcl":"L","population":0,"countryCode":"US","name":"North Black Rock Range Wilderness","fclName":"parks,area, ...","adminCodes1":{"ISO3166_2":"NV"},"countryName":"United States","fcodeName":"reserve","adminName1":"Nevada","lat":"41.43623","fcode":"RES"},{"adminCode1":"NV","lng":"-114.71667","geonameId":7274612,"toponymName":"Black Canyon Wilderness","countryId":"6252001","fcl":"L","population":0,"countryCode":"US","name":"Black Canyon Wilderness","fclName":"parks,area, ...","adminCodes1":{"ISO3166_2":"NV"},"countryName":"United States","fcodeName":"reserve","adminName1":"Nevada","lat":"35.9","fcode":"RES"},{"adminCode1":"MS","lng":"-89.02825","geonameId":4418584,"toponymName":"Black Creek Wilderness","countryId":"6252001","fcl":"L","population":0,"countryCode":"US","name":"Black Creek Wilderness","fclName":"parks,area, ...","adminCodes1":{"ISO3166_2":"MS"},"countryName":"United States","fcodeName":"reserve","adminName1":"Mississippi","lat":"30.97678","fcode":"RES"},{"adminCode1":"AR","lng":"-94.43224","geonameId":4102045,"toponymName":"Black Fork Mountain Wilderness","countryId":"6252001","fcl":"L","population":0,"countryCode":"US","name":"Black Fork Mountain Wilderness","fclName":"parks,area, ...","adminCodes1":{"ISO3166_2":"AR"},"countryName":"United States","fcodeName":"reserve","adminName1":"Arkansas","lat":"34.71892","fcode":"RES"},{"adminCode1":"OK","lng":"-102.8802","geonameId":5515607,"toponymName":"Black Mesa State Park","countryId":"6252001","fcl":"L","population":0,"countryCode":"US","name":"Black Mesa State Park","fclName":"parks,area, ...","adminCodes1":{"ISO3166_2":"OK"},"countryName":"United States","fcodeName":"park","adminName1":"Oklahoma","lat":"36.84586","fcode":"PRK"},{"adminCode1":"CO","lng":"-108.93016","geonameId":5414161,"toponymName":"Black Ridge Canyons Wilderness","countryId":"6252001","fcl":"L","population":0,"countryCode":"US","name":"Black Ridge Canyons Wilderness","fclName":"parks,area, ...","adminCodes1":{"ISO3166_2":"CO"},"countryName":"United States","fcodeName":"reserve","adminName1":"Colorado","lat":"39.10536","fcode":"RES"},{"adminCode1":"CT","lng":"-73.10622","geonameId":5282498,"toponymName":"Black Rock State Park","countryId":"6252001","fcl":"L","population":0,"countryCode":"US","name":"Black Rock State Park","fclName":"parks,area, ...","adminCodes1":{"ISO3166_2":"CT"},"countryName":"United States","fcodeName":"park","adminName1":"Connecticut","lat":"41.65926","fcode":"PRK"},{"adminCode1":"AZ","lng":"-110.70086","geonameId":5285147,"toponymName":"Black Canyon Lake","countryId":"6252001","fcl":"H","population":0,"countryCode":"US","name":"Black Canyon Lake","fclName":"stream, lake, ...","adminCodes1":{"ISO3166_2":"AZ"},"countryName":"United States","fcodeName":"lake","adminName1":"Arizona","lat":"34.32974","fcode":"LK"},{"adminCode1":"IA","lng":"-95.04193","geonameId":4851315,"toponymName":"Chief Black Hawk Statue","countryId":"6252001","fcl":"L","population":0,"countryCode":"US","name":"Chief Black Hawk Statue","fclName":"parks,area, ...","adminCodes1":{"ISO3166_2":"IA"},"countryName":"United States","fcodeName":"park","adminName1":"Iowa","lat":"42.30832","fcode":"PRK"},{"adminCode1":"MN","lng":"-93.26383","geonameId":5018571,"toponymName":"Black Dog Lake","countryId":"6252001","fcl":"H","population":0,"countryCode":"US","name":"Black Dog Lake","fclName":"stream, lake, ...","adminCodes1":{"ISO3166_2":"MN"},"countryName":"United States","fcodeName":"lake","adminName1":"Minnesota","lat":"44.80524","fcode":"LK"},{"adminCode1":"MO","lng":"-90.26733","geonameId":4377295,"toponymName":"Black Jack","countryId":"6252001","fcl":"P","population":6947,"countryCode":"US","name":"Black Jack","fclName":"city, village,...","adminCodes1":{"ISO3166_2":"MO"},"countryName":"United States","fcodeName":"populated place","adminName1":"Missouri","lat":"38.79338","fcode":"PPL"},{"adminCode1":"WA","lng":"-122.97802","geonameId":5787414,"toponymName":"Black Lake","countryId":"6252001","fcl":"H","population":0,"countryCode":"US","name":"Black Lake","fclName":"stream, lake, ...","adminCodes1":{"ISO3166_2":"WA"},"countryName":"United States","fcodeName":"lake","adminName1":"Washington","lat":"46.99236","fcode":"LK"},{"adminCode1":"AK","lng":"-149.87973","geonameId":5880012,"toponymName":"Black Bear Lake","countryId":"6252001","fcl":"H","population":0,"countryCode":"US","name":"Black Bear Lake","fclName":"stream, lake, ...","adminCodes1":{"ISO3166_2":"AK"},"countryName":"United States","fcodeName":"lake","adminName1":"Alaska","lat":"64.66246","fcode":"LK"},{"adminCode1":"PA","lng":"-79.18688","geonameId":5180709,"toponymName":"Black Lick","countryId":"6252001","fcl":"P","population":1462,"countryCode":"US","name":"Black Lick","fclName":"city, village,...","adminCodes1":{"ISO3166_2":"PA"},"countryName":"United States","fcodeName":"populated place","adminName1":"Pennsylvania","lat":"40.4725","fcode":"PPL"},{"adminCode1":"TN","lng":"-83.27099","geonameId":4612769,"toponymName":"Mount Chapman","countryId":"6252001","fcl":"T","population":0,"countryCode":"US","name":"Mount Chapman","fclName":"mountain,hill,rock,... ","adminCodes1":{"ISO3166_2":"TN"},"countryName":"United States","fcodeName":"mountain","adminName1":"Tennessee","lat":"35.68676","fcode":"MT"},{"adminCode1":"MA","lng":"-70.66909","geonameId":4930673,"toponymName":"Black Point Pond","countryId":"6252001","fcl":"H","population":0,"countryCode":"US","name":"Black Point Pond","fclName":"stream, lake, ...","adminCodes1":{"ISO3166_2":"MA"},"countryName":"United States","fcodeName":"lake","adminName1":"Massachusetts","lat":"41.3483","fcode":"LK"},{"adminCode1":"NJ","lng":"-74.67461","geonameId":5095734,"toponymName":"Black River Wildlife Management Area","countryId":"6252001","fcl":"L","population":0,"countryCode":"US","name":"Black River Wildlife Management Area","fclName":"parks,area, ...","adminCodes1":{"ISO3166_2":"NJ"},"countryName":"United States","fcodeName":"park","adminName1":"New Jersey","lat":"40.81677","fcode":"PRK"},{"adminCode1":"AR","lng":"-94.42355","geonameId":4118981,"toponymName":"Lincoln","countryId":"6252001","fcl":"P","population":2431,"countryCode":"US","name":"Lincoln","fclName":"city, village,...","adminCodes1":{"ISO3166_2":"AR"},"countryName":"United States","fcodeName":"populated place","adminName1":"Arkansas","lat":"35.94953","fcode":"PPL"},{"adminCode1":"KY","lng":"-86.71027","geonameId":4282812,"toponymName":"Auburn","countryId":"6252001","fcl":"P","population":1352,"countryCode":"US","name":"Auburn","fclName":"city, village,...","adminCodes1":{"ISO3166_2":"KY"},"countryName":"United States","fcodeName":"populated place","adminName1":"Kentucky","lat":"36.86421","fcode":"PPL"},{"adminCode1":"ME","lng":"-70.32172","geonameId":4977882,"toponymName":"Scarborough","countryId":"6252001","fcl":"P","population":4403,"countryCode":"US","name":"Scarborough","fclName":"city, village,...","adminCodes1":{"ISO3166_2":"ME"},"countryName":"United States","fcodeName":"populated place","adminName1":"Maine","lat":"43.57814","fcode":"PPL"},{"adminCode1":"MA","lng":"-71.137","geonameId":4955884,"toponymName":"Winchester","countryId":"6252001","fcl":"P","population":21374,"countryCode":"US","name":"Winchester","fclName":"city, village,...","adminCodes1":{"ISO3166_2":"MA"},"countryName":"United States","fcodeName":"populated place","adminName1":"Massachusetts","lat":"42.45232","fcode":"PPL"},{"adminCode1":"SC","lng":"-81.51592","geonameId":4571593,"toponymName":"Blacksburg","countryId":"6252001","fcl":"P","population":1883,"countryCode":"US","name":"Blacksburg","fclName":"city, village,...","adminCodes1":{"ISO3166_2":"SC"},"countryName":"United States","fcodeName":"populated place","adminName1":"South Carolina","lat":"35.12124","fcode":"PPL"},{"adminCode1":"NC","lng":"-82.32123","geonameId":4456121,"toponymName":"Black Mountain","countryId":"6252001","fcl":"P","population":8278,"countryCode":"US","name":"Black Mountain","fclName":"city, village,...","adminCodes1":{"ISO3166_2":"NC"},"countryName":"United States","fcodeName":"populated place","adminName1":"North Carolina","lat":"35.6179","fcode":"PPL"},{"adminCode1":"CO","lng":"-104.70081","geonameId":5414069,"toponymName":"Black Forest","countryId":"6252001","fcl":"P","population":13116,"countryCode":"US","name":"Black Forest","fclName":"city, village,...","adminCodes1":{"ISO3166_2":"CO"},"countryName":"United States","fcodeName":"populated place","adminName1":"Colorado","lat":"39.01305","fcode":"PPL"},{"adminCode1":"PA","lng":"-78.0564","geonameId":5180715,"toponymName":"Black Moshannon State Park","countryId":"6252001","fcl":"L","population":0,"countryCode":"US","name":"Black Moshannon State Park","fclName":"parks,area, ...","adminCodes1":{"ISO3166_2":"PA"},"countryName":"United States","fcodeName":"park","adminName1":"Pennsylvania","lat":"40.89839","fcode":"PRK"},{"adminCode1":"LA","lng":"-92.03347","geonameId":11382936,"toponymName":"Black Bayou Lake National Wildlife Refuge","countryId":"6252001","fcl":"L","population":0,"countryCode":"US","name":"Black Bayou Lake National Wildlife Refuge","fclName":"parks,area, ...","adminCodes1":{"ISO3166_2":"LA"},"countryName":"United States","fcodeName":"park","adminName1":"Louisiana","lat":"32.60794","fcode":"PRK"},{"adminCode1":"AR","lng":"-90.32232","geonameId":4104566,"toponymName":"Caraway","countryId":"6252001","fcl":"P","population":1270,"countryCode":"US","name":"Caraway","fclName":"city, village,...","adminCodes1":{"ISO3166_2":"AR"},"countryName":"United States","fcodeName":"populated place","adminName1":"Arkansas","lat":"35.75813","fcode":"PPL"},{"adminCode1":"IA","lng":"-92.59936","geonameId":4872729,"toponymName":"Reinbeck","countryId":"6252001","fcl":"P","population":1639,"countryCode":"US","name":"Reinbeck","fclName":"city, village,...","adminCodes1":{"ISO3166_2":"IA"},"countryName":"United States","fcodeName":"populated place","adminName1":"Iowa","lat":"42.3236","fcode":"PPL"},{"adminCode1":"AL","lng":"-85.74438","geonameId":4050081,"toponymName":"Black","countryId":"6252001","fcl":"P","population":208,"countryCode":"US","name":"Black","fclName":"city, village,...","adminCodes1":{"ISO3166_2":"AL"},"countryName":"United States","fcodeName":"populated place","adminName1":"Alabama","lat":"31.00935","fcode":"PPL"},{"adminCode1":"IA","lng":"-92.48006","geonameId":4848723,"toponymName":"Township of Black Hawk","countryId":"6252001","fcl":"A","population":0,"countryCode":"US","name":"Township of Black Hawk","fclName":"country, state, region,...","adminCodes1":{"ISO3166_2":"IA"},"countryName":"United States","fcodeName":"third-order administrative division","adminName1":"Iowa","lat":"42.42429","fcode":"ADM3"},{"adminCode1":"IL","lng":"-90.57236","geonameId":4885004,"toponymName":"Black Hawk State Historical Site","countryId":"6252001","fcl":"L","population":0,"countryCode":"US","name":"Black Hawk State Historical Site","fclName":"parks,area, ...","adminCodes1":{"ISO3166_2":"IL"},"countryName":"United States","fcodeName":"park","adminName1":"Illinois","lat":"41.46698","fcode":"PRK"},{"adminCode1":"AL","lng":"-88.03807","geonameId":4050095,"toponymName":"Black Bluff","countryId":"6252001","fcl":"T","population":0,"countryCode":"US","name":"Black Bluff","fclName":"mountain,hill,rock,... ","adminCodes1":{"ISO3166_2":"AL"},"countryName":"United States","fcodeName":"cliff(s)","adminName1":"Alabama","lat":"32.37153","fcode":"CLF"},{"adminCode1":"WI","lng":"-92.17708","geonameId":5263891,"toponymName":"Black Bear Lake","countryId":"6252001","fcl":"H","population":0,"countryCode":"US","name":"Black Bear Lake","fclName":"stream, lake, ...","adminCodes1":{"ISO3166_2":"WI"},"countryName":"United States","fcodeName":"lake","adminName1":"Wisconsin","lat":"45.59615","fcode":"LK"},{"adminCode1":"WI","lng":"-90.93238","geonameId":5246058,"toponymName":"Black Dan Lake","countryId":"6252001","fcl":"H","population":0,"countryCode":"US","name":"Black Dan Lake","fclName":"stream, lake, ...","adminCodes1":{"ISO3166_2":"WI"},"countryName":"United States","fcodeName":"lake","adminName1":"Wisconsin","lat":"45.89779","fcode":"LK"},{"adminCode1":"MI","lng":"-85.58139","geonameId":4986263,"toponymName":"Black Lake","countryId":"6252001","fcl":"H","population":0,"countryCode":"US","name":"Black Lake","fclName":"stream, lake, ...","adminCodes1":{"ISO3166_2":"MI"},"countryName":"United States","fcodeName":"lake","adminName1":"Michigan","lat":"42.08562","fcode":"LK"},{"adminCode1":"MN","lng":"-93.53189","geonameId":5018577,"toponymName":"Black Island Lake","countryId":"6252001","fcl":"H","population":0,"countryCode":"US","name":"Black Island Lake","fclName":"stream, lake, ...","adminCodes1":{"ISO3166_2":"MN"},"countryName":"United States","fcodeName":"lake","adminName1":"Minnesota","lat":"47.52699","fcode":"LK"},{"adminCode1":"NV","lng":"-119.00156","geonameId":5701653,"toponymName":"Black Rock Point","countryId":"6252001","fcl":"T","population":0,"countryCode":"US","name":"Black Rock Point","fclName":"mountain,hill,rock,... ","adminCodes1":{"ISO3166_2":"NV"},"countryName":"United States","fcodeName":"cliff(s)","adminName1":"Nevada","lat":"40.9724","fcode":"CLF"},{"adminCode1":"KS","lng":"-98.36201","geonameId":4268378,"toponymName":"Black Wolf","countryId":"6252001","fcl":"P","population":0,"countryCode":"US","name":"Black Wolf","fclName":"city, village,...","adminCodes1":{"ISO3166_2":"KS"},"countryName":"United States","fcodeName":"populated place","adminName1":"Kansas","lat":"38.75834","fcode":"PPL"},{"adminCode1":"AZ","lng":"-111.94154","geonameId":5285437,"toponymName":"Black Mountain","countryId":"6252001","fcl":"T","population":0,"countryCode":"US","name":"Black Mountain","fclName":"mountain,hill,rock,... ","adminCodes1":{"ISO3166_2":"AZ"},"countryName":"United States","fcodeName":"mountain","adminName1":"Arizona","lat":"33.81532","fcode":"MT"},{"adminCode1":"CA","lng":"-122.51318","geonameId":7260907,"toponymName":"Black Point-Green Point","countryId":"6252001","fcl":"P","population":1306,"countryCode":"US","name":"Black Point-Green Point","fclName":"city, village,...","adminCodes1":{"ISO3166_2":"CA"},"countryName":"United States","fcodeName":"populated place","adminName1":"California","lat":"38.11547","fcode":"PPL"},{"adminCode1":"WI","lng":"-90.85153","geonameId":5246105,"toponymName":"Black River Falls","countryId":"6252001","fcl":"P","population":3564,"countryCode":"US","name":"Black River Falls","fclName":"city, village,...","adminCodes1":{"ISO3166_2":"WI"},"countryName":"United States","fcodeName":"seat of a second-order administrative division","adminName1":"Wisconsin","lat":"44.29468","fcode":"PPLA2"},{"adminCode1":"IN","lng":"-87.89503","geonameId":4261837,"toponymName":"Mount Vernon","countryId":"6252001","fcl":"P","population":6550,"countryCode":"US","name":"Mount Vernon","fclName":"city, village,...","adminCodes1":{"ISO3166_2":"IN"},"countryName":"United States","fcodeName":"seat of a second-order administrative division","adminName1":"Indiana","lat":"37.93227","fcode":"PPLA2"},{"adminCode1":"NM","lng":"-108.79178","geonameId":5457861,"toponymName":"Black Rock Airport","countryId":"6252001","fcl":"S","population":0,"countryCode":"US","name":"Black Rock Airport","fclName":"spot, building, farm","adminCodes1":{"ISO3166_2":"NM"},"countryName":"United States","fcodeName":"airport","adminName1":"New Mexico","lat":"35.08323","fcode":"AIRP"},{"adminCode1":"CA","lng":"-117.11337","geonameId":5329076,"toponymName":"Black Mountain Open Space","countryId":"6252001","fcl":"L","population":0,"countryCode":"US","name":"Black Mountain Open Space","fclName":"parks,area, ...","adminCodes1":{"ISO3166_2":"CA"},"countryName":"United States","fcodeName":"park","adminName1":"California","lat":"32.99004","fcode":"PRK"},{"adminCode1":"MT","lng":"-111.27831","geonameId":5640683,"toponymName":"Black Eagle","countryId":"6252001","fcl":"P","population":904,"countryCode":"US","name":"Black Eagle","fclName":"city, village,...","adminCodes1":{"ISO3166_2":"MT"},"countryName":"United States","fcodeName":"populated place","adminName1":"Montana","lat":"47.52468","fcode":"PPL"},{"adminCode1":"FL","lng":"-82.48593","geonameId":4148053,"toponymName":"Black Diamond","countryId":"6252001","fcl":"P","population":1101,"countryCode":"US","name":"Black Diamond","fclName":"city, village,...","adminCodes1":{"ISO3166_2":"FL"},"countryName":"United States","fcodeName":"populated place","adminName1":"Florida","lat":"28.91248","fcode":"PPL"},{"adminCode1":"IA","lng":"-92.44741","geonameId":4857122,"toponymName":"First Settlers in Black Hawk County Historical Marker","countryId":"6252001","fcl":"L","population":0,"countryCode":"US","name":"First Settlers in Black Hawk County Historical Marker","fclName":"parks,area, ...","adminCodes1":{"ISO3166_2":"IA"},"countryName":"United States","fcodeName":"park","adminName1":"Iowa","lat":"42.5386","fcode":"PRK"},{"adminCode1":"IA","lng":"-92.44047","geonameId":4860749,"toponymName":"Historic Black Hawk County State Historical Marker","countryId":"6252001","fcl":"L","population":0,"countryCode":"US","name":"Historic Black Hawk County State Historical Marker","fclName":"parks,area, ...","adminCodes1":{"ISO3166_2":"IA"},"countryName":"United States","fcodeName":"park","adminName1":"Iowa","lat":"42.42082","fcode":"PRK"},{"adminCode1":"IA","lng":"-92.21685","geonameId":4848702,"toponymName":"Black Hawk County Park","countryId":"6252001","fcl":"L","population":0,"countryCode":"US","name":"Black Hawk County Park","fclName":"parks,area, ...","adminCodes1":{"ISO3166_2":"IA"},"countryName":"United States","fcodeName":"park","adminName1":"Iowa","lat":"42.41443","fcode":"PRK"},{"adminCode1":"IA","lng":"-92.45019","geonameId":4848707,"toponymName":"Black Hawk Creek Greenbelt","countryId":"6252001","fcl":"L","population":0,"countryCode":"US","name":"Black Hawk Creek Greenbelt","fclName":"parks,area, ...","adminCodes1":{"ISO3166_2":"IA"},"countryName":"United States","fcodeName":"park","adminName1":"Iowa","lat":"42.41721","fcode":"PRK"},{"adminCode1":"IA","lng":"-92.48408","geonameId":4848714,"toponymName":"Black Hawk Park","countryId":"6252001","fcl":"L","population":0,"countryCode":"US","name":"Black Hawk Park","fclName":"parks,area, ...","adminCodes1":{"ISO3166_2":"IA"},"countryName":"United States","fcodeName":"park","adminName1":"Iowa","lat":"42.56443","fcode":"PRK"},{"adminCode1":"KY","lng":"-82.89377","geonameId":4284707,"toponymName":"Black Mountain","countryId":"6252001","fcl":"T","population":0,"countryCode":"US","name":"Black Mountain","fclName":"mountain,hill,rock,... ","adminCodes1":{"ISO3166_2":"KY"},"countryName":"United States","fcodeName":"mountain","adminName1":"Kentucky","lat":"36.91426","fcode":"MT"},{"adminCode1":"AZ","lng":"-111.39515","geonameId":5285055,"toponymName":"Black Bottom Crater","countryId":"6252001","fcl":"T","population":0,"countryCode":"US","name":"Black Bottom Crater","fclName":"mountain,hill,rock,... ","adminCodes1":{"ISO3166_2":"AZ"},"countryName":"United States","fcodeName":"crater(s)","adminName1":"Arizona","lat":"35.39834","fcode":"CRTR"},{"adminCode1":"AZ","lng":"-114.71164","geonameId":5285109,"toponymName":"Black Canyon","countryId":"6252001","fcl":"T","population":0,"countryCode":"US","name":"Black Canyon","fclName":"mountain,hill,rock,... ","adminCodes1":{"ISO3166_2":"AZ"},"countryName":"United States","fcodeName":"valley","adminName1":"Arizona","lat":"35.80554","fcode":"VAL"},{"adminCode1":"WI","lng":"-90.32958","geonameId":5260225,"toponymName":"Little Black","countryId":"6252001","fcl":"P","population":0,"countryCode":"US","name":"Little Black","fclName":"city, village,...","adminCodes1":{"ISO3166_2":"WI"},"countryName":"United States","fcodeName":"populated place","adminName1":"Wisconsin","lat":"45.10608","fcode":"PPL"},{"adminCode1":"MN","lng":"-91.66098","geonameId":5018572,"toponymName":"Black Hammer","countryId":"6252001","fcl":"P","population":0,"countryCode":"US","name":"Black Hammer","fclName":"city, village,...","adminCodes1":{"ISO3166_2":"MN"},"countryName":"United States","fcodeName":"populated place","adminName1":"Minnesota","lat":"43.61636","fcode":"PPL"},{"adminCode1":"OH","lng":"-82.81129","geonameId":4506652,"toponymName":"Blacklick","countryId":"6252001","fcl":"P","population":0,"countryCode":"US","name":"Blacklick","fclName":"city, village,...","adminCodes1":{"ISO3166_2":"OH"},"countryName":"United States","fcodeName":"populated place","adminName1":"Ohio","lat":"39.99562","fcode":"PPL"}]}
