{"totalResultsCount":1430,"geonames":[{"adminCode1":"IA","lng":"-92.19213","geonameId":4863820,"toponymName":"La Porte City","countryId":"6252001","fcl":"P","population":2290,"countryCode":"US","name":"La Porte City","fclName":"city, village,...","adminCodes1":{"ISO3166_2":"IA"},"countryName":"United States","fcodeName":"populated place","adminName1":"Iowa","lat":"42.31499","fcode":"PPL"},{"adminCode1":"IA","lng":"-92.45547","geonameId":4861298,"toponymName":"Hudson","countryId":"6252001","fcl":"P","population":2381,"countryCode":"US","name":"Hudson","fclName":"city, village,...","adminCodes1":{"ISO3166_2":"IA"},"countryName":"United States","fcodeName":"populated place","adminName1":"Iowa","lat":"42.40665","fcode":"PPL"},{"adminCode1":"AR","lng":"-91.09735","geonameId":4102088,"toponymName":"Black Rock","countryId":"6252001","fcl":"P","population":625,"countryCode":"US","name":"Black Rock","fclName":"city, village,...","adminCodes1":{"ISO3166_2":"AR"},"countryName":"United States","fcodeName":"populated place","adminName1":"Arkansas","lat":"36.1084","fcode":"PPL"},{"adminCode1":"IA","lng":"-92.16046","geonameId":4854634,"toponymName":"Dunkerton","countryId":"6252001","fcl":"P","population":842,"countryCode":"US","name":"Dunkerton","fclName":"city, village,...","adminCodes1":{"ISO3166_2":"IA"},"countryName":"United States","fcodeName":"populated place","adminName1":"Iowa","lat":"42.56999","fcode":"PPL"},{"adminCode1":"IA","lng":"-92.25657","geonameId":4855333,"toponymName":"Elk Run Heights","countryId":"6252001","fcl":"P","population":1134,"countryCode":"US","name":"Elk Run Heights","fclName":"city, village,...","adminCodes1":{"ISO3166_2":"IA"},"countryName":"United States","fcodeName":"populated place","adminName1":"Iowa","lat":"42.46693","fcode":"PPL"},{"adminCode1":"IA","lng":"-92.2149","geonameId":4858358,"toponymName":"Gilbertville","countryId":"6252001","fcl":"P","population":747,"countryCode":"US","name":"Gilbertville","fclName":"city, village,...","adminCodes1":{"ISO3166_2":"IA"},"countryName":"United States","fcodeName":"populated place","adminName1":"Iowa","lat":"42.4161","fcode":"PPL"},{"adminCode1":"IA","lng":"-92.21963","geonameId":4872540,"toponymName":"Raymond","countryId":"6252001","fcl":"P","population":816,"countryCode":"US","name":"Raymond","fclName":"city, village,...","adminCodes1":{"ISO3166_2":"IA"},"countryName":"United States","fcodeName":"populated place","adminName1":"Iowa","lat":"42.46888","fcode":"PPL"},{"adminCode1":"IA","lng":"-92.21907","geonameId":4853900,"toponymName":"Dewar","countryId":"6252001","fcl":"P","population":0,"countryCode":"US","name":"Dewar","fclName":"city, village,...","adminCodes1":{"ISO3166_2":"IA"},"countryName":"United States","fcodeName":"populated place","adminName1":"Iowa","lat":"42.52554","fcode":"PPL"},{"adminCode1":"MO","lng":"-90.93318","geonameId":4377259,"toponymName":"Black","countryId":"6252001","fcl":"P","population":0,"countryCode":"US","name":"Black","fclName":"city, village,...","adminCodes1":{"ISO3166_2":"MO"},"countryName":"United States","fcodeName":"populated place","adminName1":"Missouri","lat":"37.53144","fcode":"PPL"},{"adminCode1":"AR","lng":"-90.36816","geonameId":4102065,"toponymName":"Black Oak","countryId":"6252001","fcl":"P","population":262,"countryCode":"US","name":"Black Oak","fclName":"city, village,...","adminCodes1":{"ISO3166_2":"AR"},"countryName":"United States","fcodeName":"populated place","adminName1":"Arkansas","lat":"35.83896","fcode":"PPL"},{"adminCode1":"MO","lng":"-90.26733","geonameId":4377295,"toponymName":"Black Jack","countryId":"6252001","fcl":"P","population":6947,"countryCode":"US","name":"Black Jack","fclName":"city, village,...","adminCodes1":{"ISO3166_2":"MO"},"countryName":"United States","fcodeName":"populated place","adminName1":"Missouri","lat":"38.79338","fcode":"PPL"},{"adminCode1":"PA","lng":"-79.18688","geonameId":5180709,"toponymName":"Black Lick","countryId":"6252001","fcl":"P","population":1462,"countryCode":"US","name":"Black Lick","fclName":"city, village,...","adminCodes1":{"ISO3166_2":"PA"},"countryName":"United States","fcodeName":"populated place","adminName1":"Pennsylvania","lat":"40.4725","fcode":"PPL"},{"adminCode1":"AR","lng":"-94.42355","geonameId":4118981,"toponymName":"Lincoln","countryId":"6252001","fcl":"P","population":2431,"countryCode":"US","name":"Lincoln","fclName":"city, village,...","adminCodes1":{"ISO3166_2":"AR"},"countryName":"United States","fcodeName":"populated place","adminName1":"Arkansas","lat":"35.94953","fcode":"PPL"},{"adminCode1":"IA","lng":"-92.35741","geonameId":4854737,"toponymName":"Eagle Center","countryId":"6252001","fcl":"P","population":0,"countryCode":"US","name":"Eagle Center","fclName":"city, village,...","adminCodes1":{"ISO3166_2":"IA"},"countryName":"United States","fcodeName":"populated place","adminName1":"Iowa","lat":"42.34082","fcode":"PPL"},{"adminCode1":"IA","lng":"-92.48269","geonameId":4880350,"toponymName":"Voorhies","countryId":"6252001","fcl":"P","population":0,"countryCode":"US","name":"Voorhies","fclName":"city, village,...","adminCodes1":{"ISO3166_2":"IA"},"countryName":"United States","fcodeName":"populated place","adminName1":"Iowa","lat":"42.33582","fcode":"PPL"},{"adminCode1":"IA","lng":"-92.26741","geonameId":4880724,"toponymName":"Washburn","countryId":"6252001","fcl":"P","population":876,"countryCode":"US","name":"Washburn","fclName":"city, village,...","adminCodes1":{"ISO3166_2":"IA"},"countryName":"United States","fcodeName":"populated place","adminName1":"Iowa","lat":"42.41166","fcode":"PPL"},{"adminCode1":"AR","lng":"-90.32232","geonameId":4104566,"toponymName":"Caraway","countryId":"6252001","fcl":"P","population":1270,"countryCode":"US","name":"Caraway","fclName":"city, village,...","adminCodes1":{"ISO3166_2":"AR"},"countryName":"United States","fcodeName":"populated place","adminName1":"Arkansas","lat":"35.75813","fcode":"PPL"},{"adminCode1":"IA","lng":"-92.59936","geonameId":4872729,"toponymName":"Reinbeck","countryId":"6252001","fcl":"P","population":1639,"countryCode":"US","name":"Reinbeck","fclName":"city, village,...","adminCodes1":{"ISO3166_2":"IA"},"countryName":"United States","fcodeName":"populated place","adminName1":"Iowa","lat":"42.3236","fcode":"PPL"},{"adminCode1":"IA","lng":"-92.48006","geonameId":4848723,"toponymName":"Township of Black Hawk","countryId":"6252001","fcl":"A","population":0,"countryCode":"US","name":"Township of Black Hawk","fclName":"country, state, region,...","adminCodes1":{"ISO3166_2":"IA"},"countryName":"United States","fcodeName":"third-order administrative division","adminName1":"Iowa","lat":"42.42429","fcode":"ADM3"},{"adminCode1":"ME","lng":"-70.32172","geonameId":4977882,"toponymName":"Scarborough","countryId":"6252001","fcl":"P","population":4403,"countryCode":"US","name":"Scarborough","fclName":"city, village,...","adminCodes1":{"ISO3166_2":"ME"},"countryName":"United States","fcodeName":"populated place","adminName1":"Maine","lat":"43.57814","fcode":"PPL"},{"adminCode1":"NC","lng":"-82.32123","geonameId":4456121,"toponymName":"Black Mountain","countryId":"6252001","fcl":"P","population":8278,"countryCode":"US","name":"Black Mountain","fclName":"city, village,...","adminCodes1":{"ISO3166_2":"NC"},"countryName":"United States","fcodeName":"populated place","adminName1":"North Carolina","lat":"35.6179","fcode":"PPL"},{"adminCode1":"AR","lng":"-90.56678","geonameId":4102036,"toponymName":"Township of Black Fish","countryId":"6252001","fcl":"A","population":0,"countryCode":"US","name":"Black Fish Township","fclName":"country, state, region,...","adminCodes1":{"ISO3166_2":"AR"},"countryName":"United States","fcodeName":"third-order administrative division","adminName1":"Arkansas","lat":"34.94696","fcode":"ADM3"},{"adminCode1":"IN","lng":"-87.89503","geonameId":4261837,"toponymName":"Mount Vernon","countryId":"6252001","fcl":"P","population":6550,"countryCode":"US","name":"Mount Vernon","fclName":"city, village,...","adminCodes1":{"ISO3166_2":"IN"},"countryName":"United States","fcodeName":"seat of a second-order administrative division","adminName1":"Indiana","lat":"37.93227","fcode":"PPLA2"},{"adminCode1":"OH","lng":"-82.81129","geonameId":4506652,"toponymName":"Blacklick","countryId":"6252001","fcl":"P","population":0,"countryCode":"US","name":"Blacklick","fclName":"city, village,...","adminCodes1":{"ISO3166_2":"OH"},"countryName":"United States","fcodeName":"populated place","adminName1":"Ohio","lat":"39.99562","fcode":"PPL"},{"adminCode1":"KS","lng":"-98.36201","geonameId":4268378,"toponymName":"Black Wolf","countryId":"6252001","fcl":"P","population":0,"countryCode":"US","name":"Black Wolf","fclName":"city, village,...","adminCodes1":{"ISO3166_2":"KS"},"countryName":"United States","fcodeName":"populated place","adminName1":"Kansas","lat":"38.75834","fcode":"PPL"},{"adminCode1":"MN","lng":"-91.66098","geonameId":5018572,"toponymName":"Black Hammer","countryId":"6252001","fcl":"P","population":0,"countryCode":"US","name":"Black Hammer","fclName":"city, village,...","adminCodes1":{"ISO3166_2":"MN"},"countryName":"United States","fcodeName":"populated place","adminName1":"Minnesota","lat":"43.61636","fcode":"PPL"},{"adminCode1":"OH","lng":"-84.74587","geonameId":5147561,"toponymName":"Township of Black Creek","countryId":"6252001","fcl":"A","population":0,"countryCode":"US","name":"Township of Black Creek","fclName":"country, state, region,...","adminCodes1":{"ISO3166_2":"OH"},"countryName":"United States","fcodeName":"third-order administrative division","adminName1":"Ohio","lat":"40.68422","fcode":"ADM3"},{"adminCode1":"MO","lng":"-92.04999","geonameId":4408346,"toponymName":"Shelby County Airport","countryId":"6252001","fcl":"S","population":0,"countryCode":"US","name":"Shelby County Airport","fclName":"spot, building, farm","adminCodes1":{"ISO3166_2":"MO"},"countryName":"United States","fcodeName":"airport","adminName1":"Missouri","lat":"39.81579","fcode":"AIRP"},{"adminCode1":"AR","lng":"-91.11846","geonameId":4127314,"toponymName":"Powhatan","countryId":"6252001","fcl":"P","population":69,"countryCode":"US","name":"Powhatan","fclName":"city, village,...","adminCodes1":{"ISO3166_2":"AR"},"countryName":"United States","fcodeName":"populated place","adminName1":"Arkansas","lat":"36.08229","fcode":"PPL"},{"adminCode1":"AR","lng":"-91.34346","geonameId":4106628,"toponymName":"Cord","countryId":"6252001","fcl":"P","population":0,"countryCode":"US","name":"Cord","fclName":"city, village,...","adminCodes1":{"ISO3166_2":"AR"},"countryName":"United States","fcodeName":"populated place","adminName1":"Arkansas","lat":"35.81202","fcode":"PPL"},{"adminCode1":"IA","lng":"-92.78714","geonameId":4864437,"toponymName":"Leighton","countryId":"6252001","fcl":"P","population":161,"countryCode":"US","name":"Leighton","fclName":"city, village,...","adminCodes1":{"ISO3166_2":"IA"},"countryName":"United States","fcodeName":"populated place","adminName1":"Iowa","lat":"41.33722","fcode":"PPL"},{"adminCode1":"NC","lng":"-77.93304","geonameId":4456098,"toponymName":"Black Creek","countryId":"6252001","fcl":"P","population":767,"countryCode":"US","name":"Black Creek","fclName":"city, village,...","adminCodes1":{"ISO3166_2":"NC"},"countryName":"United States","fcodeName":"populated place","adminName1":"North Carolina","lat":"35.63516","fcode":"PPL"},{"adminCode1":"KS","lng":"-101.36561","geonameId":5445063,"toponymName":"Black Airport","countryId":"6252001","fcl":"S","population":0,"countryCode":"US","name":"Black Airport","fclName":"spot, building, farm","adminCodes1":{"ISO3166_2":"KS"},"countryName":"United States","fcodeName":"airport","adminName1":"Kansas","lat":"39.82878","fcode":"AIRP"},{"adminCode1":"IA","lng":"-92.35783","geonameId":4854780,"toponymName":"Township of Eagle","countryId":"6252001","fcl":"A","population":0,"countryCode":"US","name":"Eagle Township","fclName":"country, state, region,...","adminCodes1":{"ISO3166_2":"IA"},"countryName":"United States","fcodeName":"third-order administrative division","adminName1":"Iowa","lat":"42.34118","fcode":"ADM3"},{"adminCode1":"IA","lng":"-92.28334","geonameId":4855015,"toponymName":"Township of East Waterloo","countryId":"6252001","fcl":"A","population":0,"countryCode":"US","name":"East Waterloo Township","fclName":"country, state, region,...","adminCodes1":{"ISO3166_2":"IA"},"countryName":"United States","fcodeName":"third-order administrative division","adminName1":"Iowa","lat":"42.54142","fcode":"ADM3"},{"adminCode1":"IA","lng":"-92.12274","geonameId":4857615,"toponymName":"Township of Fox","countryId":"6252001","fcl":"A","population":0,"countryCode":"US","name":"Fox Township","fclName":"country, state, region,...","adminCodes1":{"ISO3166_2":"IA"},"countryName":"United States","fcodeName":"third-order administrative division","adminName1":"Iowa","lat":"42.42645","fcode":"ADM3"},{"adminCode1":"IA","lng":"-92.35893","geonameId":4870102,"toponymName":"Township of Orange","countryId":"6252001","fcl":"A","population":0,"countryCode":"US","name":"Orange Township","fclName":"country, state, region,...","adminCodes1":{"ISO3166_2":"IA"},"countryName":"United States","fcodeName":"third-order administrative division","adminName1":"Iowa","lat":"42.40701","fcode":"ADM3"},{"adminCode1":"IA","lng":"-92.2148","geonameId":4871929,"toponymName":"Township of Poyner","countryId":"6252001","fcl":"A","population":0,"countryCode":"US","name":"Poyner Township","fclName":"country, state, region,...","adminCodes1":{"ISO3166_2":"IA"},"countryName":"United States","fcodeName":"third-order administrative division","adminName1":"Iowa","lat":"42.45897","fcode":"ADM3"},{"adminCode1":"IA","lng":"-92.52433","geonameId":4879408,"toponymName":"Township of Union","countryId":"6252001","fcl":"A","population":0,"countryCode":"US","name":"Union Township","fclName":"country, state, region,...","adminCodes1":{"ISO3166_2":"IA"},"countryName":"United States","fcodeName":"third-order administrative division","adminName1":"Iowa","lat":"42.59916","fcode":"ADM3"},{"adminCode1":"IA","lng":"-92.46631","geonameId":4880825,"toponymName":"Township of Washington","countryId":"6252001","fcl":"A","population":0,"countryCode":"US","name":"Washington Township","fclName":"country, state, region,...","adminCodes1":{"ISO3166_2":"IA"},"countryName":"United States","fcodeName":"third-order administrative division","adminName1":"Iowa","lat":"42.60552","fcode":"ADM3"},{"adminCode1":"IA","lng":"-92.14058","geonameId":4864533,"toponymName":"Township of Lester","countryId":"6252001","fcl":"A","population":0,"countryCode":"US","name":"Lester Township","fclName":"country, state, region,...","adminCodes1":{"ISO3166_2":"IA"},"countryName":"United States","fcodeName":"third-order administrative division","adminName1":"Iowa","lat":"42.59874","fcode":"ADM3"},{"adminCode1":"IA","lng":"-92.47528","geonameId":4864843,"toponymName":"Township of Lincoln","countryId":"6252001","fcl":"A","population":0,"countryCode":"US","name":"Lincoln Township","fclName":"country, state, region,...","adminCodes1":{"ISO3166_2":"IA"},"countryName":"United States","fcodeName":"third-order administrative division","adminName1":"Iowa","lat":"42.34089","fcode":"ADM3"},{"adminCode1":"IA","lng":"-92.37502","geonameId":4868266,"toponymName":"Township of Mount Vernon","countryId":"6252001","fcl":"A","population":0,"countryCode":"US","name":"Mount Vernon Township","fclName":"country, state, region,...","adminCodes1":{"ISO3166_2":"IA"},"countryName":"United States","fcodeName":"third-order administrative division","adminName1":"Iowa","lat":"42.60396","fcode":"ADM3"},{"adminCode1":"IA","lng":"-92.11783","geonameId":4877268,"toponymName":"Township of Spring Creek","countryId":"6252001","fcl":"A","population":0,"countryCode":"US","name":"Spring Creek Township","fclName":"country, state, region,...","adminCodes1":{"ISO3166_2":"IA"},"countryName":"United States","fcodeName":"third-order administrative division","adminName1":"Iowa","lat":"42.34938","fcode":"ADM3"},{"adminCode1":"IA","lng":"-92.14085","geonameId":4847725,"toponymName":"Township of Barclay","countryId":"6252001","fcl":"A","population":0,"countryCode":"US","name":"Barclay Township","fclName":"country, state, region,...","adminCodes1":{"ISO3166_2":"IA"},"countryName":"United States","fcodeName":"third-order administrative division","adminName1":"Iowa","lat":"42.51178","fcode":"ADM3"},{"adminCode1":"IA","lng":"-92.25854","geonameId":4848209,"toponymName":"Township of Bennington","countryId":"6252001","fcl":"A","population":0,"countryCode":"US","name":"Bennington Township","fclName":"country, state, region,...","adminCodes1":{"ISO3166_2":"IA"},"countryName":"United States","fcodeName":"third-order administrative division","adminName1":"Iowa","lat":"42.59903","fcode":"ADM3"},{"adminCode1":"IA","lng":"-92.21068","geonameId":4848569,"toponymName":"Township of Big Creek","countryId":"6252001","fcl":"A","population":0,"countryCode":"US","name":"Big Creek Township","fclName":"country, state, region,...","adminCodes1":{"ISO3166_2":"IA"},"countryName":"United States","fcodeName":"third-order administrative division","adminName1":"Iowa","lat":"42.31658","fcode":"ADM3"},{"adminCode1":"IA","lng":"-92.52378","geonameId":4850719,"toponymName":"Township of Cedar Falls","countryId":"6252001","fcl":"A","population":0,"countryCode":"US","name":"Cedar Falls Township","fclName":"country, state, region,...","adminCodes1":{"ISO3166_2":"IA"},"countryName":"United States","fcodeName":"third-order administrative division","adminName1":"Iowa","lat":"42.50995","fcode":"ADM3"},{"adminCode1":"IA","lng":"-92.25701","geonameId":4850816,"toponymName":"Township of Cedar","countryId":"6252001","fcl":"A","population":0,"countryCode":"US","name":"Cedar Township","fclName":"country, state, region,...","adminCodes1":{"ISO3166_2":"IA"},"countryName":"United States","fcodeName":"third-order administrative division","adminName1":"Iowa","lat":"42.38707","fcode":"ADM3"},{"adminCode1":"PA","lng":"-75.09962","geonameId":5216793,"toponymName":"Upper Black Eddy","countryId":"6252001","fcl":"P","population":0,"countryCode":"US","name":"Upper Black Eddy","fclName":"city, village,...","adminCodes1":{"ISO3166_2":"PA"},"countryName":"United States","fcodeName":"populated place","adminName1":"Pennsylvania","lat":"40.56538","fcode":"PPL"},{"adminCode1":"MO","lng":"-90.37123","geonameId":4377354,"toponymName":"Black Walnut","countryId":"6252001","fcl":"P","population":0,"countryCode":"US","name":"Black Walnut","fclName":"city, village,...","adminCodes1":{"ISO3166_2":"MO"},"countryName":"United States","fcodeName":"populated place","adminName1":"Missouri","lat":"38.87338","fcode":"PPL"},{"adminCode1":"NE","lng":"-96.35642","geonameId":5072528,"toponymName":"Macy","countryId":"6252001","fcl":"P","population":1023,"countryCode":"US","name":"Macy","fclName":"city, village,...","adminCodes1":{"ISO3166_2":"NE"},"countryName":"United States","fcodeName":"populated place","adminName1":"Nebraska","lat":"42.11305","fcode":"PPL"},{"adminCode1":"OH","lng":"-82.09737","geonameId":4833344,"toponymName":"Glenmont","countryId":"6252001","fcl":"P","population":284,"countryCode":"US","name":"Glenmont","fclName":"city, village,...","adminCodes1":{"ISO3166_2":"OH"},"countryName":"United States","fcodeName":"populated place","adminName1":"Ohio","lat":"40.52006","fcode":"PPL"},{"adminCode1":"MO","lng":"-93.83855","geonameId":4377312,"toponymName":"Black Oak","countryId":"6252001","fcl":"P","population":0,"countryCode":"US","name":"Black Oak","fclName":"city, village,...","adminCodes1":{"ISO3166_2":"MO"},"countryName":"United States","fcodeName":"populated place","adminName1":"Missouri","lat":"39.54724","fcode":"PPL"},{"adminCode1":"OH","lng":"-81.27316","geonameId":5147565,"toponymName":"Black Horse","countryId":"6252001","fcl":"P","population":0,"countryCode":"US","name":"Black Horse","fclName":"city, village,...","adminCodes1":{"ISO3166_2":"OH"},"countryName":"United States","fcodeName":"populated place","adminName1":"Ohio","lat":"41.15895","fcode":"PPL"},{"adminCode1":"IN","lng":"-87.39365","geonameId":4918174,"toponymName":"Black Oak","countryId":"6252001","fcl":"P","population":0,"countryCode":"US","name":"Black Oak","fclName":"city, village,...","adminCodes1":{"ISO3166_2":"IN"},"countryName":"United States","fcodeName":"populated place","adminName1":"Indiana","lat":"41.56615","fcode":"PPL"},{"adminCode1":"MO","lng":"-92.06885","geonameId":4377276,"toponymName":"Township of Black Creek","countryId":"6252001","fcl":"A","population":0,"countryCode":"US","name":"Black Creek Township","fclName":"country, state, region,...","adminCodes1":{"ISO3166_2":"MO"},"countryName":"United States","fcodeName":"third-order administrative division","adminName1":"Missouri","lat":"39.82058","fcode":"ADM3"},{"adminCode1":"MO","lng":"-90.98378","geonameId":4377337,"toponymName":"Township of Black River","countryId":"6252001","fcl":"A","population":0,"countryCode":"US","name":"Black River Township","fclName":"country, state, region,...","adminCodes1":{"ISO3166_2":"MO"},"countryName":"United States","fcodeName":"third-order administrative division","adminName1":"Missouri","lat":"37.54689","fcode":"ADM3"},{"adminCode1":"MO","lng":"-90.42402","geonameId":4377338,"toponymName":"Township of Black River","countryId":"6252001","fcl":"A","population":0,"countryCode":"US","name":"Black River Township","fclName":"country, state, region,...","adminCodes1":{"ISO3166_2":"MO"},"countryName":"United States","fcodeName":"third-order administrative division","adminName1":"Missouri","lat":"36.97472","fcode":"ADM3"},{"adminCode1":"AR","lng":"-94.39755","geonameId":4102047,"toponymName":"Township of Black Fork","countryId":"6252001","fcl":"A","population":0,"countryCode":"US","name":"Black Fork Township","fclName":"country, state, region,...","adminCodes1":{"ISO3166_2":"AR"},"countryName":"United States","fcodeName":"third-order administrative division","adminName1":"Arkansas","lat":"34.77875","fcode":"ADM3"},{"adminCode1":"AR","lng":"-90.35762","geonameId":4102078,"toponymName":"Township of Black Oak","countryId":"6252001","fcl":"A","population":0,"countryCode":"US","name":"Black Oak Township","fclName":"country, state, region,...","adminCodes1":{"ISO3166_2":"AR"},"countryName":"United States","fcodeName":"third-order administrative division","adminName1":"Arkansas","lat":"35.77649","fcode":"ADM3"},{"adminCode1":"AR","lng":"-90.42174","geonameId":4102079,"toponymName":"Township of Black Oak","countryId":"6252001","fcl":"A","population":0,"countryCode":"US","name":"Black Oak Township","fclName":"country, state, region,...","adminCodes1":{"ISO3166_2":"AR"},"countryName":"United States","fcodeName":"third-order administrative division","adminName1":"Arkansas","lat":"35.38896","fcode":"ADM3"},{"adminCode1":"AR","lng":"-94.01419","geonameId":4102080,"toponymName":"Township of Black Oak","countryId":"6252001","fcl":"A","population":0,"countryCode":"US","name":"Black Oak Township","fclName":"country, state, region,...","adminCodes1":{"ISO3166_2":"AR"},"countryName":"United States","fcodeName":"third-order administrative division","adminName1":"Arkansas","lat":"35.62274","fcode":"ADM3"},{"adminCode1":"AR","lng":"-91.14876","geonameId":4102087,"toponymName":"Township of Black River","countryId":"6252001","fcl":"A","population":0,"countryCode":"US","name":"Black River Township","fclName":"country, state, region,...","adminCodes1":{"ISO3166_2":"AR"},"countryName":"United States","fcodeName":"third-order administrative division","adminName1":"Arkansas","lat":"36.05449","fcode":"ADM3"},{"adminCode1":"AR","lng":"-91.13515","geonameId":4102091,"toponymName":"Township of Black Rock","countryId":"6252001","fcl":"A","population":0,"countryCode":"US","name":"Black Rock Township","fclName":"country, state, region,...","adminCodes1":{"ISO3166_2":"AR"},"countryName":"United States","fcodeName":"third-order administrative division","adminName1":"Arkansas","lat":"36.12334","fcode":"ADM3"},{"adminCode1":"AR","lng":"-90.82344","geonameId":4119109,"toponymName":"Township of Little Black","countryId":"6252001","fcl":"A","population":0,"countryCode":"US","name":"Little Black Township","fclName":"country, state, region,...","adminCodes1":{"ISO3166_2":"AR"},"countryName":"United States","fcodeName":"third-order administrative division","adminName1":"Arkansas","lat":"36.45487","fcode":"ADM3"},{"adminCode1":"IN","lng":"-87.92254","geonameId":4254635,"toponymName":"Township of Black","countryId":"6252001","fcl":"A","population":0,"countryCode":"US","name":"Black Township","fclName":"country, state, region,...","adminCodes1":{"ISO3166_2":"IN"},"countryName":"United States","fcodeName":"third-order administrative division","adminName1":"Indiana","lat":"37.95312","fcode":"ADM3"},{"adminCode1":"KS","lng":"-98.31864","geonameId":4268375,"toponymName":"Township of Black Wolf","countryId":"6252001","fcl":"A","population":0,"countryCode":"US","name":"Black Wolf Township","fclName":"country, state, region,...","adminCodes1":{"ISO3166_2":"KS"},"countryName":"United States","fcodeName":"third-order administrative division","adminName1":"Kansas","lat":"38.74027","fcode":"ADM3"},{"adminCode1":"IA","lng":"-92.5925","geonameId":4848724,"toponymName":"Township of Black Hawk","countryId":"6252001","fcl":"A","population":0,"countryCode":"US","name":"Black Hawk Township","fclName":"country, state, region,...","adminCodes1":{"ISO3166_2":"IA"},"countryName":"United States","fcodeName":"third-order administrative division","adminName1":"Iowa","lat":"42.34048","fcode":"ADM3"},{"adminCode1":"IA","lng":"-92.00505","geonameId":4848725,"toponymName":"Township of Black Hawk","countryId":"6252001","fcl":"A","population":0,"countryCode":"US","name":"Black Hawk Township","fclName":"country, state, region,...","adminCodes1":{"ISO3166_2":"IA"},"countryName":"United States","fcodeName":"third-order administrative division","adminName1":"Iowa","lat":"41.11992","fcode":"ADM3"},{"adminCode1":"IA","lng":"-92.81585","geonameId":4848729,"toponymName":"Township of Black Oak","countryId":"6252001","fcl":"A","population":0,"countryCode":"US","name":"Black Oak Township","fclName":"country, state, region,...","adminCodes1":{"ISO3166_2":"IA"},"countryName":"United States","fcodeName":"third-order administrative division","adminName1":"Iowa","lat":"41.37602","fcode":"ADM3"},{"adminCode1":"MN","lng":"-91.67075","geonameId":5018576,"toponymName":"Township of Black Hammer","countryId":"6252001","fcl":"A","population":0,"countryCode":"US","name":"Black Hammer Township","fclName":"country, state, region,...","adminCodes1":{"ISO3166_2":"MN"},"countryName":"United States","fcodeName":"third-order administrative division","adminName1":"Minnesota","lat":"43.63044","fcode":"ADM3"},{"adminCode1":"MN","lng":"-96.28773","geonameId":5018604,"toponymName":"Township of Black River","countryId":"6252001","fcl":"A","population":0,"countryCode":"US","name":"Black River Township","fclName":"country, state, region,...","adminCodes1":{"ISO3166_2":"MN"},"countryName":"United States","fcodeName":"third-order administrative division","adminName1":"Minnesota","lat":"47.99184","fcode":"ADM3"},{"adminCode1":"IA","lng":"-92.5543","geonameId":11807975,"toponymName":"Cedar Hills Sand Prairie","countryId":"6252001","fcl":"L","population":0,"countryCode":"US","name":"Cedar Hills Sand Prairie","fclName":"parks,area, ...","adminCodes1":{"ISO3166_2":"IA"},"countryName":"United States","fcodeName":"nature reserve","adminName1":"Iowa","lat":"42.59464","fcode":"RESN"},{"adminCode1":"IA","lng":"-92.50913","geonameId":11837858,"toponymName":"Beaver Valley Wetland Wildlife Refuge","countryId":"6252001","fcl":"L","population":0,"countryCode":"US","name":"Beaver Valley Wetland Wildlife Refuge","fclName":"parks,area, ...","adminCodes1":{"ISO3166_2":"IA"},"countryName":"United States","fcodeName":"wildlife reserve","adminName1":"Iowa","lat":"42.57803","fcode":"RESW"},{"adminCode1":"IA","lng":"-92.51226","geonameId":11962200,"toponymName":"Turkey Ridge Wildlife Area","countryId":"6252001","fcl":"L","population":0,"countryCode":"US","name":"Turkey Ridge Wildlife Area","fclName":"parks,area, ...","adminCodes1":{"ISO3166_2":"IA"},"countryName":"United States","fcodeName":"nature reserve","adminName1":"Iowa","lat":"42.63576","fcode":"RESN"},{"adminCode1":"PA","lng":"-79.22698","geonameId":4559446,"toponymName":"Markleton","countryId":"6252001","fcl":"P","population":0,"countryCode":"US","name":"Markleton","fclName":"city, village,...","adminCodes1":{"ISO3166_2":"PA"},"countryName":"United States","fcodeName":"populated place","adminName1":"Pennsylvania","lat":"39.86063","fcode":"PPL"},{"adminCode1":"PA","lng":"-76.18438","geonameId":5208656,"toponymName":"Rock Glen","countryId":"6252001","fcl":"P","population":0,"countryCode":"US","name":"Rock Glen","fclName":"city, village,...","adminCodes1":{"ISO3166_2":"PA"},"countryName":"United States","fcodeName":"populated place","adminName1":"Pennsylvania","lat":"40.96536","fcode":"PPL"},{"adminCode1":"PA","lng":"-76.14216","geonameId":5219020,"toponymName":"Weston","countryId":"6252001","fcl":"P","population":321,"countryCode":"US","name":"Weston","fclName":"city, village,...","adminCodes1":{"ISO3166_2":"PA"},"countryName":"United States","fcodeName":"populated place","adminName1":"Pennsylvania","lat":"40.94147","fcode":"PPL"},{"adminCode1":"NC","lng":"-78.73918","geonameId":4452686,"toponymName":"Angier","countryId":"6252001","fcl":"P","population":4970,"countryCode":"US","name":"Angier","fclName":"city, village,...","adminCodes1":{"ISO3166_2":"NC"},"countryName":"United States","fcodeName":"populated place","adminName1":"North Carolina","lat":"35.5071","fcode":"PPL"},{"adminCode1":"MI","lng":"-84.26333","geonameId":6326370,"toponymName":"Black Mountain","countryId":"6252001","fcl":"T","population":0,"countryCode":"US","name":"Black Mountain","fclName":"mountain,hill,rock,... ","adminCodes1":{"ISO3166_2":"MI"},"countryName":"United States","fcodeName":"mountain","adminName1":"Michigan","lat":"45.52056","fcode":"MT"},{"adminCode1":"MO","lng":"-90.49604","geonameId":4377308,"toponymName":"Black Mountain","countryId":"6252001","fcl":"T","population":0,"countryCode":"US","name":"Black Mountain","fclName":"mountain,hill,rock,... ","adminCodes1":{"ISO3166_2":"MO"},"countryName":"United States","fcodeName":"mountain","adminName1":"Missouri","lat":"37.4691","fcode":"MT"},{"adminCode1":"IN","lng":"-87.08112","geonameId":4254628,"toponymName":"Black Oak","countryId":"6252001","fcl":"P","population":0,"countryCode":"US","name":"Black Oak","fclName":"city, village,...","adminCodes1":{"ISO3166_2":"IN"},"countryName":"United States","fcodeName":"populated place","adminName1":"Indiana","lat":"38.66255","fcode":"PPL"},{"adminCode1":"KS","lng":"-95.1158","geonameId":4268363,"toponymName":"Black Jack","countryId":"6252001","fcl":"P","population":0,"countryCode":"US","name":"Black Jack","fclName":"city, village,...","adminCodes1":{"ISO3166_2":"KS"},"countryName":"United States","fcodeName":"populated place","adminName1":"Kansas","lat":"38.76779","fcode":"PPL"},{"adminCode1":"IN","lng":"-85.6836","geonameId":4918179,"toponymName":"Black Point","countryId":"6252001","fcl":"P","population":0,"countryCode":"US","name":"Black Point","fclName":"city, village,...","adminCodes1":{"ISO3166_2":"IN"},"countryName":"United States","fcodeName":"populated place","adminName1":"Indiana","lat":"41.40505","fcode":"PPL"},{"adminCode1":"IN","lng":"-87.09696","geonameId":4918180,"toponymName":"Black Rock","countryId":"6252001","fcl":"P","population":0,"countryCode":"US","name":"Black Rock","fclName":"city, village,...","adminCodes1":{"ISO3166_2":"IN"},"countryName":"United States","fcodeName":"populated place","adminName1":"Indiana","lat":"40.36781","fcode":"PPL"},{"adminCode1":"PA","lng":"-80.27622","geonameId":5180728,"toponymName":"Black Rock Airport","countryId":"6252001","fcl":"S","population":0,"countryCode":"US","name":"Black Rock Airport","fclName":"spot, building, farm","adminCodes1":{"ISO3166_2":"PA"},"countryName":"United States","fcodeName":"airport","adminName1":"Pennsylvania","lat":"40.7331","fcode":"AIRP"},{"adminCode1":"PA","lng":"-79.25612","geonameId":5180711,"toponymName":"Township of Black Lick","countryId":"6252001","fcl":"A","population":0,"countryCode":"US","name":"Township of Black Lick","fclName":"country, state, region,...","adminCodes1":{"ISO3166_2":"PA"},"countryName":"United States","fcodeName":"third-order administrative division","adminName1":"Pennsylvania","lat":"40.49616","fcode":"ADM3"},{"adminCode1":"IL","lng":"-90.18113","geonameId":4888344,"toponymName":"Black Airport","countryId":"6252001","fcl":"S","population":0,"countryCode":"US","name":"Black Airport","fclName":"spot, building, farm","adminCodes1":{"ISO3166_2":"IL"},"countryName":"United States","fcodeName":"airport","adminName1":"Illinois","lat":"41.61241","fcode":"AIRP"},{"adminCode1":"NJ","lng":"-74.72072","geonameId":5096832,"toponymName":"Columbus","countryId":"6252001","fcl":"P","population":0,"countryCode":"US","name":"Columbus","fclName":"city, village,...","adminCodes1":{"ISO3166_2":"NJ"},"countryName":"United States","fcodeName":"populated place","adminName1":"New Jersey","lat":"40.07261","fcode":"PPL"},{"adminCode1":"MO","lng":"-90.88957","geonameId":4388137,"toponymName":"Goggins Mountain","countryId":"6252001","fcl":"T","population":0,"countryCode":"US","name":"Goggins Mountain","fclName":"mountain,hill,rock,... ","adminCodes1":{"ISO3166_2":"MO"},"countryName":"United States","fcodeName":"mountain","adminName1":"Missouri","lat":"37.53977","fcode":"MT"},{"adminCode1":"MO","lng":"-92.11462","geonameId":4393759,"toponymName":"Kirby","countryId":"6252001","fcl":"P","population":0,"countryCode":"US","name":"Kirby","fclName":"city, village,...","adminCodes1":{"ISO3166_2":"MO"},"countryName":"United States","fcodeName":"populated place","adminName1":"Missouri","lat":"39.84559","fcode":"PPL"},{"adminCode1":"MO","lng":"-90.47011","geonameId":4394044,"toponymName":"Ladero","countryId":"6252001","fcl":"P","population":0,"countryCode":"US","name":"Ladero","fclName":"city, village,...","adminCodes1":{"ISO3166_2":"MO"},"countryName":"United States","fcodeName":"populated place","adminName1":"Missouri","lat":"36.99589","fcode":"PPL"},{"adminCode1":"MO","lng":"-91.05652","geonameId":4401642,"toponymName":"Oates","countryId":"6252001","fcl":"P","population":0,"countryCode":"US","name":"Oates","fclName":"city, village,...","adminCodes1":{"ISO3166_2":"MO"},"countryName":"United States","fcodeName":"populated place","adminName1":"Missouri","lat":"37.56282","fcode":"PPL"},{"adminCode1":"MO","lng":"-90.469","geonameId":4390145,"toponymName":"Hendrickson","countryId":"6252001","fcl":"P","population":0,"countryCode":"US","name":"Hendrickson","fclName":"city, village,...","adminCodes1":{"ISO3166_2":"MO"},"countryName":"United States","fcodeName":"populated place","adminName1":"Missouri","lat":"36.9045","fcode":"PPL"},{"adminCode1":"MO","lng":"-90.50567","geonameId":4393293,"toponymName":"Keeners","countryId":"6252001","fcl":"P","population":0,"countryCode":"US","name":"Keeners","fclName":"city, village,...","adminCodes1":{"ISO3166_2":"MO"},"countryName":"United States","fcodeName":"populated place","adminName1":"Missouri","lat":"36.92311","fcode":"PPL"},{"adminCode1":"MO","lng":"-92.1349","geonameId":4393335,"toponymName":"Kellerville","countryId":"6252001","fcl":"P","population":0,"countryCode":"US","name":"Kellerville","fclName":"city, village,...","adminCodes1":{"ISO3166_2":"MO"},"countryName":"United States","fcodeName":"populated place","adminName1":"Missouri","lat":"39.82198","fcode":"PPL"},{"adminCode1":"MO","lng":"-92.04156","geonameId":4408350,"toponymName":"Shelbyville","countryId":"6252001","fcl":"P","population":526,"countryCode":"US","name":"Shelbyville","fclName":"city, village,...","adminCodes1":{"ISO3166_2":"MO"},"countryName":"United States","fcodeName":"seat of a second-order administrative division","adminName1":"Missouri","lat":"39.80587","fcode":"PPLA2"},{"adminCode1":"MO","lng":"-90.43983","geonameId":4414695,"toponymName":"Wilby","countryId":"6252001","fcl":"P","population":0,"countryCode":"US","name":"Wilby","fclName":"city, village,...","adminCodes1":{"ISO3166_2":"MO"},"countryName":"United States","fcodeName":"populated place","adminName1":"Missouri","lat":"36.87089","fcode":"PPL"},{"adminCode1":"IN","lng":"-87.98197","geonameId":4263345,"toponymName":"Prairie","countryId":"6252001","fcl":"P","population":0,"countryCode":"US","name":"Prairie","fclName":"city, village,...","adminCodes1":{"ISO3166_2":"IN"},"countryName":"United States","fcodeName":"populated place","adminName1":"Indiana","lat":"37.92143","fcode":"PPL"}]}
