{"totalResultsCount":948,"geonames":[{"adminCode1":"MI","lng":"-83.38356","geonameId":7259621,"toponymName":"West Bloomfield Township","countryId":"6252001","fcl":"P","population":64690,"countryCode":"US","name":"West Bloomfield","fclName":"city, village,...","adminCodes1":{"ISO3166_2":"MI"},"countryName":"United States","fcodeName":"populated place","adminName1":"Michigan","lat":"42.56891","fcode":"PPL"},{"adminCode1":"MI","lng":"-83.24549","geonameId":4986429,"toponymName":"Bloomfield Hills","countryId":"6252001","fcl":"P","population":4004,"countryCode":"US","name":"Bloomfield Hills","fclName":"city, village,...","adminCodes1":{"ISO3166_2":"MI"},"countryName":"United States","fcodeName":"populated place","adminName1":"Michigan","lat":"42.58364","fcode":"PPL"},{"adminCode1":"NJ","lng":"-74.18542","geonameId":5095779,"toponymName":"Bloomfield","countryId":"6252001","fcl":"P","population":49120,"countryCode":"US","name":"Bloomfield","fclName":"city, village,...","adminCodes1":{"ISO3166_2":"NJ"},"countryName":"United States","fcodeName":"seat of a third-order administrative division","adminName1":"New Jersey","lat":"40.80677","fcode":"PPLA3"},{"adminCode1":"OH","lng":"-80.86842","geonameId":5164677,"toponymName":"North Bloomfield","countryId":"6252001","fcl":"P","population":0,"countryCode":"US","name":"North Bloomfield","fclName":"city, village,...","adminCodes1":{"ISO3166_2":"OH"},"countryName":"United States","fcodeName":"populated place","adminName1":"Ohio","lat":"41.46422","fcode":"PPL"},{"adminCode1":"IA","lng":"-92.41491","geonameId":4848854,"toponymName":"Bloomfield","countryId":"6252001","fcl":"P","population":2617,"countryCode":"US","name":"Bloomfield","fclName":"city, village,...","adminCodes1":{"ISO3166_2":"IA"},"countryName":"United States","fcodeName":"seat of a second-order administrative division","adminName1":"Iowa","lat":"40.75169","fcode":"PPLA2"},{"adminCode1":"IA","lng":"-93.6586","geonameId":4853851,"toponymName":"Des Moines International Airport","countryId":"6252001","fcl":"S","population":0,"countryCode":"US","name":"Des Moines International Airport","fclName":"spot, building, farm","adminCodes1":{"ISO3166_2":"IA"},"countryName":"United States","fcodeName":"airport","adminName1":"Iowa","lat":"41.53934","fcode":"AIRP"},{"adminCode1":"CT","lng":"-72.73009","geonameId":5282526,"toponymName":"Bloomfield","countryId":"6252001","fcl":"P","population":0,"countryCode":"US","name":"Bloomfield","fclName":"city, village,...","adminCodes1":{"ISO3166_2":"CT"},"countryName":"United States","fcodeName":"populated place","adminName1":"Connecticut","lat":"41.82649","fcode":"PPL"},{"adminCode1":"IN","lng":"-86.93751","geonameId":4254671,"toponymName":"Bloomfield","countryId":"6252001","fcl":"P","population":2336,"countryCode":"US","name":"Bloomfield","fclName":"city, village,...","adminCodes1":{"ISO3166_2":"IN"},"countryName":"United States","fcodeName":"seat of a second-order administrative division","adminName1":"Indiana","lat":"39.02699","fcode":"PPLA2"},{"adminCode1":"OH","lng":"-82.98685","geonameId":4525028,"toponymName":"South Bloomfield","countryId":"6252001","fcl":"P","population":1851,"countryCode":"US","name":"South Bloomfield","fclName":"city, village,...","adminCodes1":{"ISO3166_2":"OH"},"countryName":"United States","fcodeName":"populated place","adminName1":"Ohio","lat":"39.7184","fcode":"PPL"},{"adminCode1":"NE","lng":"-97.64562","geonameId":5064284,"toponymName":"Bloomfield","countryId":"6252001","fcl":"P","population":977,"countryCode":"US","name":"Bloomfield","fclName":"city, village,...","adminCodes1":{"ISO3166_2":"NE"},"countryName":"United States","fcodeName":"populated place","adminName1":"Nebraska","lat":"42.59889","fcode":"PPL"},{"adminCode1":"KY","lng":"-85.31662","geonameId":4284890,"toponymName":"Bloomfield","countryId":"6252001","fcl":"P","population":1052,"countryCode":"US","name":"Bloomfield","fclName":"city, village,...","adminCodes1":{"ISO3166_2":"KY"},"countryName":"United States","fcodeName":"populated place","adminName1":"Kentucky","lat":"37.91034","fcode":"PPL"},{"adminCode1":"PA","lng":"-77.18637","geonameId":5203112,"toponymName":"New Bloomfield","countryId":"6252001","fcl":"P","population":1080,"countryCode":"US","name":"New Bloomfield","fclName":"city, village,...","adminCodes1":{"ISO3166_2":"PA"},"countryName":"United States","fcodeName":"seat of a second-order administrative division","adminName1":"Pennsylvania","lat":"40.41981","fcode":"PPLA2"},{"adminCode1":"VT","lng":"-71.63231","geonameId":5233945,"toponymName":"Bloomfield","countryId":"6252001","fcl":"P","population":217,"countryCode":"US","name":"Bloomfield","fclName":"city, village,...","adminCodes1":{"ISO3166_2":"VT"},"countryName":"United States","fcodeName":"populated place","adminName1":"Vermont","lat":"44.75394","fcode":"PPL"},{"adminCode1":"OH","lng":"-82.70045","geonameId":5172679,"toponymName":"Sparta","countryId":"6252001","fcl":"P","population":163,"countryCode":"US","name":"Sparta","fclName":"city, village,...","adminCodes1":{"ISO3166_2":"OH"},"countryName":"United States","fcodeName":"populated place","adminName1":"Ohio","lat":"40.39478","fcode":"PPL"},{"adminCode1":"NM","lng":"-107.98451","geonameId":5458067,"toponymName":"Bloomfield","countryId":"6252001","fcl":"P","population":7314,"countryCode":"US","name":"Bloomfield","fclName":"city, village,...","adminCodes1":{"ISO3166_2":"NM"},"countryName":"United States","fcodeName":"populated place","adminName1":"New Mexico","lat":"36.71112","fcode":"PPL"},{"adminCode1":"OH","lng":"-82.69267","geonameId":5172437,"toponymName":"Township of South Bloomfield","countryId":"6252001","fcl":"A","population":0,"countryCode":"US","name":"Township of South Bloomfield","fclName":"country, state, region,...","adminCodes1":{"ISO3166_2":"OH"},"countryName":"United States","fcodeName":"third-order administrative division","adminName1":"Ohio","lat":"40.38349","fcode":"ADM3"},{"adminCode1":"OH","lng":"-82.74587","geonameId":5164679,"toponymName":"Township of North Bloomfield","countryId":"6252001","fcl":"A","population":0,"countryCode":"US","name":"Township of North Bloomfield","fclName":"country, state, region,...","adminCodes1":{"ISO3166_2":"OH"},"countryName":"United States","fcodeName":"third-order administrative division","adminName1":"Ohio","lat":"40.6751","fcode":"ADM3"},{"adminCode1":"MT","lng":"-104.91719","geonameId":5641059,"toponymName":"Bloomfield","countryId":"6252001","fcl":"P","population":0,"countryCode":"US","name":"Bloomfield","fclName":"city, village,...","adminCodes1":{"ISO3166_2":"MT"},"countryName":"United States","fcodeName":"populated place","adminName1":"Montana","lat":"47.41279","fcode":"PPL"},{"adminCode1":"MO","lng":"-89.92926","geonameId":4377531,"toponymName":"Bloomfield","countryId":"6252001","fcl":"P","population":1903,"countryCode":"US","name":"Bloomfield","fclName":"city, village,...","adminCodes1":{"ISO3166_2":"MO"},"countryName":"United States","fcodeName":"seat of a second-order administrative division","adminName1":"Missouri","lat":"36.88589","fcode":"PPLA2"},{"adminCode1":"MO","lng":"-92.0913","geonameId":4400236,"toponymName":"New Bloomfield","countryId":"6252001","fcl":"P","population":676,"countryCode":"US","name":"New Bloomfield","fclName":"city, village,...","adminCodes1":{"ISO3166_2":"MO"},"countryName":"United States","fcodeName":"populated place","adminName1":"Missouri","lat":"38.72032","fcode":"PPL"},{"adminCode1":"IN","lng":"-85.41665","geonameId":4922472,"toponymName":"Lagrange","countryId":"6252001","fcl":"P","population":2715,"countryCode":"US","name":"Lagrange","fclName":"city, village,...","adminCodes1":{"ISO3166_2":"IN"},"countryName":"United States","fcodeName":"seat of a second-order administrative division","adminName1":"Indiana","lat":"41.64172","fcode":"PPLA2"},{"adminCode1":"MI","lng":"-83.27342","geonameId":7259551,"toponymName":"Bloomfield Township","countryId":"6252001","fcl":"P","population":0,"countryCode":"US","name":"Bloomfield Township","fclName":"city, village,...","adminCodes1":{"ISO3166_2":"MI"},"countryName":"United States","fcodeName":"populated place","adminName1":"Michigan","lat":"42.5756","fcode":"PPL"},{"adminCode1":"WI","lng":"-88.97178","geonameId":5278433,"toponymName":"West Bloomfield","countryId":"6252001","fcl":"P","population":0,"countryCode":"US","name":"West Bloomfield","fclName":"city, village,...","adminCodes1":{"ISO3166_2":"WI"},"countryName":"United States","fcodeName":"populated place","adminName1":"Wisconsin","lat":"44.22081","fcode":"PPL"},{"adminCode1":"NJ","lng":"-74.20903","geonameId":5101334,"toponymName":"Montclair","countryId":"6252001","fcl":"P","population":39701,"countryCode":"US","name":"Montclair","fclName":"city, village,...","adminCodes1":{"ISO3166_2":"NJ"},"countryName":"United States","fcodeName":"populated place","adminName1":"New Jersey","lat":"40.82593","fcode":"PPL"},{"adminCode1":"NY","lng":"-77.53916","geonameId":5143653,"toponymName":"West Bloomfield","countryId":"6252001","fcl":"P","population":0,"countryCode":"US","name":"West Bloomfield","fclName":"city, village,...","adminCodes1":{"ISO3166_2":"NY"},"countryName":"United States","fcodeName":"populated place","adminName1":"New York","lat":"42.9059","fcode":"PPL"},{"adminCode1":"OH","lng":"-84.45772","geonameId":4526469,"toponymName":"Trenton","countryId":"6252001","fcl":"P","population":12281,"countryCode":"US","name":"Trenton","fclName":"city, village,...","adminCodes1":{"ISO3166_2":"OH"},"countryName":"United States","fcodeName":"populated place","adminName1":"Ohio","lat":"39.48089","fcode":"PPL"},{"adminCode1":"OH","lng":"-81.204","geonameId":4506731,"toponymName":"Bloomfield","countryId":"6252001","fcl":"P","population":0,"countryCode":"US","name":"Bloomfield","fclName":"city, village,...","adminCodes1":{"ISO3166_2":"OH"},"countryName":"United States","fcodeName":"populated place","adminName1":"Ohio","lat":"39.56174","fcode":"PPL"},{"adminCode1":"VA","lng":"-77.82055","geonameId":4748008,"toponymName":"Bloomfield","countryId":"6252001","fcl":"P","population":0,"countryCode":"US","name":"Bloomfield","fclName":"city, village,...","adminCodes1":{"ISO3166_2":"VA"},"countryName":"United States","fcodeName":"populated place","adminName1":"Virginia","lat":"39.05344","fcode":"PPL"},{"adminCode1":"MI","lng":"-83.34825","geonameId":4986433,"toponymName":"Bloomfield Lake","countryId":"6252001","fcl":"H","population":0,"countryCode":"US","name":"Bloomfield Lake","fclName":"stream, lake, ...","adminCodes1":{"ISO3166_2":"MI"},"countryName":"United States","fcodeName":"lake","adminName1":"Michigan","lat":"42.57265","fcode":"LK"},{"adminCode1":"NY","lng":"-77.43471","geonameId":5115729,"toponymName":"East Bloomfield","countryId":"6252001","fcl":"P","population":0,"countryCode":"US","name":"East Bloomfield","fclName":"city, village,...","adminCodes1":{"ISO3166_2":"NY"},"countryName":"United States","fcodeName":"populated place","adminName1":"New York","lat":"42.89506","fcode":"PPL"},{"adminCode1":"IA","lng":"-91.67626","geonameId":4850610,"toponymName":"Castalia","countryId":"6252001","fcl":"P","population":168,"countryCode":"US","name":"Castalia","fclName":"city, village,...","adminCodes1":{"ISO3166_2":"IA"},"countryName":"United States","fcodeName":"populated place","adminName1":"Iowa","lat":"43.11192","fcode":"PPL"},{"adminCode1":"IA","lng":"-90.60708","geonameId":4853733,"toponymName":"Delmar","countryId":"6252001","fcl":"P","population":502,"countryCode":"US","name":"Delmar","fclName":"city, village,...","adminCodes1":{"ISO3166_2":"IA"},"countryName":"United States","fcodeName":"populated place","adminName1":"Iowa","lat":"42.00225","fcode":"PPL"},{"adminCode1":"PA","lng":"-79.95089","geonameId":5180905,"toponymName":"Bloomfield","countryId":"6252001","fcl":"P","population":1095,"countryCode":"US","name":"Bloomfield","fclName":"city, village,...","adminCodes1":{"ISO3166_2":"PA"},"countryName":"United States","fcodeName":"populated place","adminName1":"Pennsylvania","lat":"40.4609","fcode":"PPL"},{"adminCode1":"OH","lng":"-82.49827","geonameId":4506734,"toponymName":"Township of Bloomfield","countryId":"6252001","fcl":"A","population":0,"countryCode":"US","name":"Bloomfield Township","fclName":"country, state, region,...","adminCodes1":{"ISO3166_2":"OH"},"countryName":"United States","fcodeName":"third-order administrative division","adminName1":"Ohio","lat":"38.99467","fcode":"ADM3"},{"adminCode1":"KS","lng":"-98.09756","geonameId":4268425,"toponymName":"Township of Bloomfield","countryId":"6252001","fcl":"A","population":0,"countryCode":"US","name":"Bloomfield Township","fclName":"country, state, region,...","adminCodes1":{"ISO3166_2":"KS"},"countryName":"United States","fcodeName":"third-order administrative division","adminName1":"Kansas","lat":"39.34983","fcode":"ADM3"},{"adminCode1":"KS","lng":"-100.66453","geonameId":5445078,"toponymName":"Township of Bloomfield","countryId":"6252001","fcl":"A","population":0,"countryCode":"US","name":"Bloomfield Township","fclName":"country, state, region,...","adminCodes1":{"ISO3166_2":"KS"},"countryName":"United States","fcodeName":"third-order administrative division","adminName1":"Kansas","lat":"39.43744","fcode":"ADM3"},{"adminCode1":"VT","lng":"-71.64459","geonameId":5233948,"toponymName":"Town of Bloomfield","countryId":"6252001","fcl":"A","population":217,"countryCode":"US","name":"Town of Bloomfield","fclName":"country, state, region,...","adminCodes1":{"ISO3166_2":"VT"},"countryName":"United States","fcodeName":"third-order administrative division","adminName1":"Vermont","lat":"44.81207","fcode":"ADM3"},{"adminCode1":"IA","lng":"-90.60681","geonameId":4848875,"toponymName":"Township of Bloomfield","countryId":"6252001","fcl":"A","population":0,"countryCode":"US","name":"Bloomfield Township","fclName":"country, state, region,...","adminCodes1":{"ISO3166_2":"IA"},"countryName":"United States","fcodeName":"third-order administrative division","adminName1":"Iowa","lat":"41.98909","fcode":"ADM3"},{"adminCode1":"IA","lng":"-93.66748","geonameId":4848876,"toponymName":"Township of Bloomfield","countryId":"6252001","fcl":"A","population":0,"countryCode":"US","name":"Bloomfield Township","fclName":"country, state, region,...","adminCodes1":{"ISO3166_2":"IA"},"countryName":"United States","fcodeName":"third-order administrative division","adminName1":"Iowa","lat":"41.52954","fcode":"ADM3"},{"adminCode1":"IA","lng":"-91.6647","geonameId":4848877,"toponymName":"Township of Bloomfield","countryId":"6252001","fcl":"A","population":0,"countryCode":"US","name":"Bloomfield Township","fclName":"country, state, region,...","adminCodes1":{"ISO3166_2":"IA"},"countryName":"United States","fcodeName":"third-order administrative division","adminName1":"Iowa","lat":"43.12516","fcode":"ADM3"},{"adminCode1":"MI","lng":"-82.82399","geonameId":4986438,"toponymName":"Township of Bloomfield","countryId":"6252001","fcl":"A","population":0,"countryCode":"US","name":"Bloomfield Township","fclName":"country, state, region,...","adminCodes1":{"ISO3166_2":"MI"},"countryName":"United States","fcodeName":"third-order administrative division","adminName1":"Michigan","lat":"43.90093","fcode":"ADM3"},{"adminCode1":"MI","lng":"-85.27563","geonameId":4986439,"toponymName":"Township of Bloomfield","countryId":"6252001","fcl":"A","population":0,"countryCode":"US","name":"Bloomfield Township","fclName":"country, state, region,...","adminCodes1":{"ISO3166_2":"MI"},"countryName":"United States","fcodeName":"third-order administrative division","adminName1":"Michigan","lat":"44.46856","fcode":"ADM3"},{"adminCode1":"OH","lng":"-83.9619","geonameId":5147699,"toponymName":"Township of Bloomfield","countryId":"6252001","fcl":"A","population":0,"countryCode":"US","name":"Bloomfield Township","fclName":"country, state, region,...","adminCodes1":{"ISO3166_2":"OH"},"countryName":"United States","fcodeName":"third-order administrative division","adminName1":"Ohio","lat":"40.40971","fcode":"ADM3"},{"adminCode1":"OH","lng":"-80.85745","geonameId":5147700,"toponymName":"Township of Bloomfield","countryId":"6252001","fcl":"A","population":0,"countryCode":"US","name":"Bloomfield Township","fclName":"country, state, region,...","adminCodes1":{"ISO3166_2":"OH"},"countryName":"United States","fcodeName":"third-order administrative division","adminName1":"Ohio","lat":"41.46318","fcode":"ADM3"},{"adminCode1":"IN","lng":"-85.36755","geonameId":4918208,"toponymName":"Township of Bloomfield","countryId":"6252001","fcl":"A","population":0,"countryCode":"US","name":"Bloomfield Township","fclName":"country, state, region,...","adminCodes1":{"ISO3166_2":"IN"},"countryName":"United States","fcodeName":"third-order administrative division","adminName1":"Indiana","lat":"41.65626","fcode":"ADM3"},{"adminCode1":"MN","lng":"-92.38906","geonameId":5018722,"toponymName":"Township of Bloomfield","countryId":"6252001","fcl":"A","population":0,"countryCode":"US","name":"Bloomfield Township","fclName":"country, state, region,...","adminCodes1":{"ISO3166_2":"MN"},"countryName":"United States","fcodeName":"third-order administrative division","adminName1":"Minnesota","lat":"43.63116","fcode":"ADM3"},{"adminCode1":"CA","lng":"-120.89939","geonameId":5377294,"toponymName":"North Bloomfield","countryId":"6252001","fcl":"P","population":0,"countryCode":"US","name":"North Bloomfield","fclName":"city, village,...","adminCodes1":{"ISO3166_2":"CA"},"countryName":"United States","fcodeName":"populated place","adminName1":"California","lat":"39.36823","fcode":"PPL"},{"adminCode1":"MI","lng":"-83.38365","geonameId":5014411,"toponymName":"Charter Township of West Bloomfield","countryId":"6252001","fcl":"A","population":0,"countryCode":"US","name":"Charter Township of West Bloomfield","fclName":"country, state, region,...","adminCodes1":{"ISO3166_2":"MI"},"countryName":"United States","fcodeName":"third-order administrative division","adminName1":"Michigan","lat":"42.56889","fcode":"ADM3"},{"adminCode1":"MI","lng":"-83.27346","geonameId":4986440,"toponymName":"Charter Township of Bloomfield","countryId":"6252001","fcl":"A","population":0,"countryCode":"US","name":"Charter Township of Bloomfield","fclName":"country, state, region,...","adminCodes1":{"ISO3166_2":"MI"},"countryName":"United States","fcodeName":"third-order administrative division","adminName1":"Michigan","lat":"42.57568","fcode":"ADM3"},{"adminCode1":"CT","lng":"-72.74062","geonameId":5282555,"toponymName":"Town of Bloomfield","countryId":"6252001","fcl":"A","population":20749,"countryCode":"US","name":"Town of Bloomfield","fclName":"country, state, region,...","adminCodes1":{"ISO3166_2":"CT"},"countryName":"United States","fcodeName":"third-order administrative division","adminName1":"Connecticut","lat":"41.84258","fcode":"ADM3"},{"adminCode1":"WI","lng":"-88.394","geonameId":5246242,"toponymName":"Town of Bloomfield","countryId":"6252001","fcl":"A","population":1603,"countryCode":"US","name":"Town of Bloomfield","fclName":"country, state, region,...","adminCodes1":{"ISO3166_2":"WI"},"countryName":"United States","fcodeName":"third-order administrative division","adminName1":"Wisconsin","lat":"42.52237","fcode":"ADM3"},{"adminCode1":"WI","lng":"-88.94664","geonameId":5246243,"toponymName":"Town of Bloomfield","countryId":"6252001","fcl":"A","population":1039,"countryCode":"US","name":"Town of Bloomfield","fclName":"country, state, region,...","adminCodes1":{"ISO3166_2":"WI"},"countryName":"United States","fcodeName":"third-order administrative division","adminName1":"Wisconsin","lat":"44.19914","fcode":"ADM3"},{"adminCode1":"IN","lng":"-85.35414","geonameId":4922373,"toponymName":"The Knob","countryId":"6252001","fcl":"T","population":0,"countryCode":"US","name":"The Knob","fclName":"mountain,hill,rock,... ","adminCodes1":{"ISO3166_2":"IN"},"countryName":"United States","fcodeName":"mountain","adminName1":"Indiana","lat":"41.65227","fcode":"MT"},{"adminCode1":"IN","lng":"-85.33164","geonameId":4924866,"toponymName":"Plato","countryId":"6252001","fcl":"P","population":0,"countryCode":"US","name":"Plato","fclName":"city, village,...","adminCodes1":{"ISO3166_2":"IN"},"countryName":"United States","fcodeName":"populated place","adminName1":"Indiana","lat":"41.64227","fcode":"PPL"},{"adminCode1":"AR","lng":"-94.53827","geonameId":4102252,"toponymName":"Bloomfield","countryId":"6252001","fcl":"P","population":0,"countryCode":"US","name":"Bloomfield","fclName":"city, village,...","adminCodes1":{"ISO3166_2":"AR"},"countryName":"United States","fcodeName":"populated place","adminName1":"Arkansas","lat":"36.27619","fcode":"PPL"},{"adminCode1":"IL","lng":"-88.87506","geonameId":4234054,"toponymName":"Bloomfield","countryId":"6252001","fcl":"P","population":0,"countryCode":"US","name":"Bloomfield","fclName":"city, village,...","adminCodes1":{"ISO3166_2":"IL"},"countryName":"United States","fcodeName":"populated place","adminName1":"Illinois","lat":"37.45255","fcode":"PPL"},{"adminCode1":"WI","lng":"-88.35509","geonameId":5264713,"toponymName":"North Bloomfield","countryId":"6252001","fcl":"P","population":0,"countryCode":"US","name":"North Bloomfield","fclName":"city, village,...","adminCodes1":{"ISO3166_2":"WI"},"countryName":"United States","fcodeName":"populated place","adminName1":"Wisconsin","lat":"42.57446","fcode":"PPL"},{"adminCode1":"OH","lng":"-82.71657","geonameId":5147701,"toponymName":"Blooming Grove","countryId":"6252001","fcl":"P","population":0,"countryCode":"US","name":"Blooming Grove","fclName":"city, village,...","adminCodes1":{"ISO3166_2":"OH"},"countryName":"United States","fcodeName":"populated place","adminName1":"Ohio","lat":"40.70784","fcode":"PPL"},{"adminCode1":"IL","lng":"-91.30709","geonameId":4885152,"toponymName":"Bloomfield","countryId":"6252001","fcl":"P","population":0,"countryCode":"US","name":"Bloomfield","fclName":"city, village,...","adminCodes1":{"ISO3166_2":"IL"},"countryName":"United States","fcodeName":"populated place","adminName1":"Illinois","lat":"40.02088","fcode":"PPL"},{"adminCode1":"PA","lng":"-79.80283","geonameId":5208147,"toponymName":"Riceville","countryId":"6252001","fcl":"P","population":68,"countryCode":"US","name":"Riceville","fclName":"city, village,...","adminCodes1":{"ISO3166_2":"PA"},"countryName":"United States","fcodeName":"populated place","adminName1":"Pennsylvania","lat":"41.77756","fcode":"PPL"},{"adminCode1":"KY","lng":"-85.31509","geonameId":7169631,"toponymName":"City of Bloomfield","countryId":"6252001","fcl":"A","population":838,"countryCode":"US","name":"City of Bloomfield","fclName":"country, state, region,...","adminCodes1":{"ISO3166_2":"KY"},"countryName":"United States","fcodeName":"third-order administrative division","adminName1":"Kentucky","lat":"37.9118","fcode":"ADM3"},{"adminCode1":"NE","lng":"-97.64814","geonameId":5064301,"toponymName":"City of Bloomfield","countryId":"6252001","fcl":"A","population":1028,"countryCode":"US","name":"City of Bloomfield","fclName":"country, state, region,...","adminCodes1":{"ISO3166_2":"NE"},"countryName":"United States","fcodeName":"third-order administrative division","adminName1":"Nebraska","lat":"42.59841","fcode":"ADM3"},{"adminCode1":"IA","lng":"-92.41738","geonameId":4848874,"toponymName":"City of Bloomfield","countryId":"6252001","fcl":"A","population":2640,"countryCode":"US","name":"City of Bloomfield","fclName":"country, state, region,...","adminCodes1":{"ISO3166_2":"IA"},"countryName":"United States","fcodeName":"third-order administrative division","adminName1":"Iowa","lat":"40.74877","fcode":"ADM3"},{"adminCode1":"MI","lng":"-83.24567","geonameId":4986432,"toponymName":"City of Bloomfield Hills","countryId":"6252001","fcl":"A","population":3869,"countryCode":"US","name":"City of Bloomfield Hills","fclName":"country, state, region,...","adminCodes1":{"ISO3166_2":"MI"},"countryName":"United States","fcodeName":"third-order administrative division","adminName1":"Michigan","lat":"42.57803","fcode":"ADM3"},{"adminCode1":"CT","lng":"-72.69759","geonameId":5282550,"toponymName":"Blue Hills","countryId":"6252001","fcl":"P","population":2901,"countryCode":"US","name":"Blue Hills","fclName":"city, village,...","adminCodes1":{"ISO3166_2":"CT"},"countryName":"United States","fcodeName":"populated place","adminName1":"Connecticut","lat":"41.81288","fcode":"PPL"},{"adminCode1":"GA","lng":"-83.68241","geonameId":4183451,"toponymName":"Bloomfield Community Park","countryId":"6252001","fcl":"L","population":0,"countryCode":"US","name":"Bloomfield Community Park","fclName":"parks,area, ...","adminCodes1":{"ISO3166_2":"GA"},"countryName":"United States","fcodeName":"park","adminName1":"Georgia","lat":"32.78764","fcode":"PRK"},{"adminCode1":"GA","lng":"-83.38599","geonameId":4183458,"toponymName":"Bloomfield Street Historic District","countryId":"6252001","fcl":"L","population":0,"countryCode":"US","name":"Bloomfield Street Historic District","fclName":"parks,area, ...","adminCodes1":{"ISO3166_2":"GA"},"countryName":"United States","fcodeName":"park","adminName1":"Georgia","lat":"33.94845","fcode":"PRK"},{"adminCode1":"KS","lng":"-100.62758","geonameId":5446579,"toponymName":"Stevenson Private Airport","countryId":"6252001","fcl":"S","population":0,"countryCode":"US","name":"Stevenson Private Airport","fclName":"spot, building, farm","adminCodes1":{"ISO3166_2":"KS"},"countryName":"United States","fcodeName":"airport","adminName1":"Kansas","lat":"39.43787","fcode":"AIRP"},{"adminCode1":"MI","lng":"-82.88244","geonameId":5006789,"toponymName":"Rapson","countryId":"6252001","fcl":"P","population":0,"countryCode":"US","name":"Rapson","fclName":"city, village,...","adminCodes1":{"ISO3166_2":"MI"},"countryName":"United States","fcodeName":"populated place","adminName1":"Michigan","lat":"43.85612","fcode":"PPL"},{"adminCode1":"MN","lng":"-92.34684","geonameId":5025895,"toponymName":"Etna","countryId":"6252001","fcl":"P","population":0,"countryCode":"US","name":"Etna","fclName":"city, village,...","adminCodes1":{"ISO3166_2":"MN"},"countryName":"United States","fcodeName":"populated place","adminName1":"Minnesota","lat":"43.60219","fcode":"PPL"},{"adminCode1":"PA","lng":"-78.42054","geonameId":5180913,"toponymName":"Township of Bloomfield","countryId":"6252001","fcl":"A","population":0,"countryCode":"US","name":"Bloomfield Township","fclName":"country, state, region,...","adminCodes1":{"ISO3166_2":"PA"},"countryName":"United States","fcodeName":"third-order administrative division","adminName1":"Pennsylvania","lat":"40.24639","fcode":"ADM3"},{"adminCode1":"PA","lng":"-79.83956","geonameId":5180914,"toponymName":"Township of Bloomfield","countryId":"6252001","fcl":"A","population":0,"countryCode":"US","name":"Bloomfield Township","fclName":"country, state, region,...","adminCodes1":{"ISO3166_2":"PA"},"countryName":"United States","fcodeName":"third-order administrative division","adminName1":"Pennsylvania","lat":"41.81324","fcode":"ADM3"},{"adminCode1":"NJ","lng":"-74.18695","geonameId":5095785,"toponymName":"Township of Bloomfield","countryId":"6252001","fcl":"A","population":0,"countryCode":"US","name":"Bloomfield Township","fclName":"country, state, region,...","adminCodes1":{"ISO3166_2":"NJ"},"countryName":"United States","fcodeName":"third-order administrative division","adminName1":"New Jersey","lat":"40.80981","fcode":"ADM3"},{"adminCode1":"IN","lng":"-87.24974","geonameId":4254677,"toponymName":"Bloomingdale","countryId":"6252001","fcl":"P","population":327,"countryCode":"US","name":"Bloomingdale","fclName":"city, village,...","adminCodes1":{"ISO3166_2":"IN"},"countryName":"United States","fcodeName":"populated place","adminName1":"Indiana","lat":"39.83337","fcode":"PPL"},{"adminCode1":"IL","lng":"-88.87479","geonameId":4234063,"toponymName":"Township of Bloomfield (historical)","countryId":"6252001","fcl":"A","population":0,"countryCode":"US","name":"Bloomfield Township","fclName":"country, state, region,...","adminCodes1":{"ISO3166_2":"IL"},"countryName":"United States","fcodeName":"administrative division","adminName1":"Illinois","lat":"37.4695","fcode":"ADMD"},{"adminCode1":"IN","lng":"-87.09639","geonameId":4254672,"toponymName":"Bloomfield","countryId":"6252001","fcl":"P","population":0,"countryCode":"US","name":"Bloomfield","fclName":"city, village,...","adminCodes1":{"ISO3166_2":"IN"},"countryName":"United States","fcodeName":"populated place","adminName1":"Indiana","lat":"38.02449","fcode":"PPL"},{"adminCode1":"OH","lng":"-81.74235","geonameId":5147690,"toponymName":"Bloomfield","countryId":"6252001","fcl":"P","population":0,"countryCode":"US","name":"Bloomfield","fclName":"city, village,...","adminCodes1":{"ISO3166_2":"OH"},"countryName":"United States","fcodeName":"populated place","adminName1":"Ohio","lat":"40.05035","fcode":"PPL"},{"adminCode1":"CA","lng":"-122.8511","geonameId":5329416,"toponymName":"Bloomfield","countryId":"6252001","fcl":"P","population":345,"countryCode":"US","name":"Bloomfield","fclName":"city, village,...","adminCodes1":{"ISO3166_2":"CA"},"countryName":"United States","fcodeName":"populated place","adminName1":"California","lat":"38.31381","fcode":"PPL"},{"adminCode1":"OH","lng":"-82.72462","geonameId":5147689,"toponymName":"Bloomfield","countryId":"6252001","fcl":"P","population":0,"countryCode":"US","name":"Bloomfield","fclName":"city, village,...","adminCodes1":{"ISO3166_2":"OH"},"countryName":"United States","fcodeName":"populated place","adminName1":"Ohio","lat":"40.36367","fcode":"PPL"},{"adminCode1":"NY","lng":"-77.41971","geonameId":5120990,"toponymName":"Holcomb","countryId":"6252001","fcl":"P","population":1361,"countryCode":"US","name":"Holcomb","fclName":"city, village,...","adminCodes1":{"ISO3166_2":"NY"},"countryName":"United States","fcodeName":"populated place","adminName1":"New York","lat":"42.90229","fcode":"PPL"},{"adminCode1":"NJ","lng":"-74.18292","geonameId":5096049,"toponymName":"Brookdale","countryId":"6252001","fcl":"P","population":9239,"countryCode":"US","name":"Brookdale","fclName":"city, village,...","adminCodes1":{"ISO3166_2":"NJ"},"countryName":"United States","fcodeName":"populated place","adminName1":"New Jersey","lat":"40.83371","fcode":"PPL"},{"adminCode1":"MN","lng":"-93.10611","geonameId":6347470,"toponymName":"Bloomfield Park","countryId":"6252001","fcl":"L","population":0,"countryCode":"US","name":"Bloomfield Park","fclName":"parks,area, ...","adminCodes1":{"ISO3166_2":"MN"},"countryName":"United States","fcodeName":"park","adminName1":"Minnesota","lat":"44.74444","fcode":"PRK"},{"adminCode1":"MO","lng":"-89.9309","geonameId":7163296,"toponymName":"City of Bloomfield","countryId":"6252001","fcl":"A","population":1933,"countryCode":"US","name":"City of Bloomfield","fclName":"country, state, region,...","adminCodes1":{"ISO3166_2":"MO"},"countryName":"United States","fcodeName":"administrative division","adminName1":"Missouri","lat":"36.88777","fcode":"ADMD"},{"adminCode1":"MO","lng":"-92.09144","geonameId":7163802,"toponymName":"City of New Bloomfield","countryId":"6252001","fcl":"A","population":669,"countryCode":"US","name":"City of New Bloomfield","fclName":"country, state, region,...","adminCodes1":{"ISO3166_2":"MO"},"countryName":"United States","fcodeName":"administrative division","adminName1":"Missouri","lat":"38.7169","fcode":"ADMD"},{"adminCode1":"IN","lng":"-86.93729","geonameId":7164559,"toponymName":"Town of Bloomfield","countryId":"6252001","fcl":"A","population":2405,"countryCode":"US","name":"Town of Bloomfield","fclName":"country, state, region,...","adminCodes1":{"ISO3166_2":"IN"},"countryName":"United States","fcodeName":"administrative division","adminName1":"Indiana","lat":"39.02626","fcode":"ADMD"},{"adminCode1":"OH","lng":"-82.99278","geonameId":7167462,"toponymName":"Village of South Bloomfield","countryId":"6252001","fcl":"A","population":1744,"countryCode":"US","name":"Village of South Bloomfield","fclName":"country, state, region,...","adminCodes1":{"ISO3166_2":"OH"},"countryName":"United States","fcodeName":"administrative division","adminName1":"Ohio","lat":"39.71614","fcode":"ADMD"},{"adminCode1":"IL","lng":"-88.87407","geonameId":4234058,"toponymName":"Bloomfield Election Precinct","countryId":"6252001","fcl":"A","population":0,"countryCode":"US","name":"Bloomfield Election Precinct","fclName":"country, state, region,...","adminCodes1":{"ISO3166_2":"IL"},"countryName":"United States","fcodeName":"administrative division","adminName1":"Illinois","lat":"37.46805","fcode":"ADMD"},{"adminCode1":"IL","lng":"-90.55341","geonameId":4234059,"toponymName":"Bloomfield Election Precinct","countryId":"6252001","fcl":"A","population":0,"countryCode":"US","name":"Bloomfield Election Precinct","fclName":"country, state, region,...","adminCodes1":{"ISO3166_2":"IL"},"countryName":"United States","fcodeName":"administrative division","adminName1":"Illinois","lat":"39.65485","fcode":"ADMD"},{"adminCode1":"CT","lng":"-72.73676","geonameId":5282553,"toponymName":"Bloomfield Town Green","countryId":"6252001","fcl":"L","population":0,"countryCode":"US","name":"Bloomfield Town Green","fclName":"parks,area, ...","adminCodes1":{"ISO3166_2":"CT"},"countryName":"United States","fcodeName":"park","adminName1":"Connecticut","lat":"41.83121","fcode":"PRK"},{"adminCode1":"NE","lng":"-97.64729","geonameId":5064288,"toponymName":"Bloomfield City Park","countryId":"6252001","fcl":"L","population":0,"countryCode":"US","name":"Bloomfield City Park","fclName":"parks,area, ...","adminCodes1":{"ISO3166_2":"NE"},"countryName":"United States","fcodeName":"park","adminName1":"Nebraska","lat":"42.59361","fcode":"PRK"},{"adminCode1":"NE","lng":"-97.63979","geonameId":5064298,"toponymName":"Bloomfield Recreation Area","countryId":"6252001","fcl":"L","population":0,"countryCode":"US","name":"Bloomfield Recreation Area","fclName":"parks,area, ...","adminCodes1":{"ISO3166_2":"NE"},"countryName":"United States","fcodeName":"park","adminName1":"Nebraska","lat":"42.83917","fcode":"PRK"},{"adminCode1":"IA","lng":"-92.40463","geonameId":4848862,"toponymName":"Bloomfield City Park","countryId":"6252001","fcl":"L","population":0,"countryCode":"US","name":"Bloomfield City Park","fclName":"parks,area, ...","adminCodes1":{"ISO3166_2":"IA"},"countryName":"United States","fcodeName":"park","adminName1":"Iowa","lat":"40.75252","fcode":"PRK"},{"adminCode1":"IA","lng":"-90.65014","geonameId":4848868,"toponymName":"Bloomfield Park","countryId":"6252001","fcl":"L","population":0,"countryCode":"US","name":"Bloomfield Park","fclName":"parks,area, ...","adminCodes1":{"ISO3166_2":"IA"},"countryName":"United States","fcodeName":"park","adminName1":"Iowa","lat":"41.97086","fcode":"PRK"},{"adminCode1":"OH","lng":"-80.84703","geonameId":5161122,"toponymName":"Lockwood","countryId":"6252001","fcl":"P","population":0,"countryCode":"US","name":"Lockwood","fclName":"city, village,...","adminCodes1":{"ISO3166_2":"OH"},"countryName":"United States","fcodeName":"populated place","adminName1":"Ohio","lat":"41.46144","fcode":"PPL"},{"adminCode1":"MI","lng":"-84.43056","geonameId":7729619,"toponymName":"Bloomfield Park","countryId":"6252001","fcl":"L","population":0,"countryCode":"US","name":"Bloomfield Park","fclName":"parks,area, ...","adminCodes1":{"ISO3166_2":"MI"},"countryName":"United States","fcodeName":"park","adminName1":"Michigan","lat":"42.24639","fcode":"PRK"},{"adminCode1":"ND","lng":"-97.15508","geonameId":5058354,"toponymName":"Township of Bloomfield","countryId":"6252001","fcl":"A","population":0,"countryCode":"US","name":"Bloomfield Township","fclName":"country, state, region,...","adminCodes1":{"ISO3166_2":"ND"},"countryName":"United States","fcodeName":"third-order administrative division","adminName1":"North Dakota","lat":"47.36748","fcode":"ADM3"},{"adminCode1":"PA","lng":"-77.18897","geonameId":5180912,"toponymName":"Borough of Bloomfield","countryId":"6252001","fcl":"A","population":1247,"countryCode":"US","name":"Borough of Bloomfield","fclName":"country, state, region,...","adminCodes1":{"ISO3166_2":"PA"},"countryName":"United States","fcodeName":"third-order administrative division","adminName1":"Pennsylvania","lat":"40.41887","fcode":"ADM3"},{"adminCode1":"PA","lng":"-78.4214","geonameId":5178900,"toponymName":"Bakers Summit","countryId":"6252001","fcl":"P","population":0,"countryCode":"US","name":"Bakers Summit","fclName":"city, village,...","adminCodes1":{"ISO3166_2":"PA"},"countryName":"United States","fcodeName":"populated place","adminName1":"Pennsylvania","lat":"40.26258","fcode":"PPL"},{"adminCode1":"PA","lng":"-79.83477","geonameId":5183110,"toponymName":"Canadohta Lake","countryId":"6252001","fcl":"P","population":516,"countryCode":"US","name":"Canadohta Lake","fclName":"city, village,...","adminCodes1":{"ISO3166_2":"PA"},"countryName":"United States","fcodeName":"populated place","adminName1":"Pennsylvania","lat":"41.81367","fcode":"PPL"},{"adminCode1":"PA","lng":"-78.44613","geonameId":5187593,"toponymName":"Dunning Mountain","countryId":"6252001","fcl":"T","population":0,"countryCode":"US","name":"Dunning Mountain","fclName":"mountain,hill,rock,... ","adminCodes1":{"ISO3166_2":"PA"},"countryName":"United States","fcodeName":"mountain","adminName1":"Pennsylvania","lat":"40.24563","fcode":"MT"}]}
