{"totalResultsCount":85,"geonames":[{"adminCode1":"NC","lng":"-81.07056","geonameId":4456436,"toponymName":"Blue Ridge Parkway","countryId":"6252001","fcl":"L","population":0,"countryCode":"US","name":"Blue Ridge Parkway","fclName":"parks,area, ...","adminCodes1":{"ISO3166_2":"NC"},"countryName":"United States","fcodeName":"park","adminName1":"North Carolina","lat":"36.4365","fcode":"PRK"},{"adminCode1":"VA","lng":"-80.64257","geonameId":4748087,"toponymName":"Blue Ridge Parkway","countryId":"6252001","fcl":"L","population":0,"countryCode":"US","name":"Blue Ridge Parkway","fclName":"parks,area, ...","adminCodes1":{"ISO3166_2":"VA"},"countryName":"United States","fcodeName":"park","adminName1":"Virginia","lat":"36.67208","fcode":"PRK"},{"adminCode1":"VA","lng":"-80.76666","geonameId":9972992,"toponymName":"Blue Ridge Parkway, Milepost 205.2","countryId":"6252001","fcl":"L","population":0,"countryCode":"US","name":"Blue Ridge Parkway, Milepost 205.2","fclName":"parks,area, ...","adminCodes1":{"ISO3166_2":"VA"},"countryName":"United States","fcodeName":"locality","adminName1":"Virginia","lat":"36.62095","fcode":"LCTY"},{"adminCode1":"VA","lng":"-80.15723","geonameId":9973341,"toponymName":"Tract 1S-SE2, Blue Ridge Parkway","countryId":"6252001","fcl":"L","population":0,"countryCode":"US","name":"Tract 1S-SE2, Blue Ridge Parkway","fclName":"parks,area, ...","adminCodes1":{"ISO3166_2":"VA"},"countryName":"United States","fcodeName":"area","adminName1":"Virginia","lat":"36.95665","fcode":"AREA"},{"adminCode1":"VA","lng":"-80.39112","geonameId":9973342,"toponymName":"Tract 24-120, Blue Ridge Parkway","countryId":"6252001","fcl":"L","population":0,"countryCode":"US","name":"Tract 24-120, Blue Ridge Parkway","fclName":"parks,area, ...","adminCodes1":{"ISO3166_2":"VA"},"countryName":"United States","fcodeName":"area","adminName1":"Virginia","lat":"36.78076","fcode":"AREA"},{"adminCode1":"VA","lng":"-80.39304","geonameId":9973343,"toponymName":"Tract 24-119, Blue Ridge Parkway","countryId":"6252001","fcl":"L","population":0,"countryCode":"US","name":"Tract 24-119, Blue Ridge Parkway","fclName":"parks,area, ...","adminCodes1":{"ISO3166_2":"VA"},"countryName":"United States","fcodeName":"area","adminName1":"Virginia","lat":"36.78294","fcode":"AREA"},{"adminCode1":"VA","lng":"-80.3835","geonameId":9973344,"toponymName":"Tract 23-174, Blue Ridge Parkway","countryId":"6252001","fcl":"L","population":0,"countryCode":"US","name":"Tract 23-174, Blue Ridge Parkway","fclName":"parks,area, ...","adminCodes1":{"ISO3166_2":"VA"},"countryName":"United States","fcodeName":"area","adminName1":"Virginia","lat":"36.79642","fcode":"AREA"},{"adminCode1":"VA","lng":"-80.3807","geonameId":9973345,"toponymName":"Tract 23-181, Blue Ridge Parkway","countryId":"6252001","fcl":"L","population":0,"countryCode":"US","name":"Tract 23-181, Blue Ridge Parkway","fclName":"parks,area, ...","adminCodes1":{"ISO3166_2":"VA"},"countryName":"United States","fcodeName":"area","adminName1":"Virginia","lat":"36.79197","fcode":"AREA"},{"adminCode1":"VA","lng":"-80.38044","geonameId":9973346,"toponymName":"Tract 23-182, Blue Ridge Parkway","countryId":"6252001","fcl":"L","population":0,"countryCode":"US","name":"Tract 23-182, Blue Ridge Parkway","fclName":"parks,area, ...","adminCodes1":{"ISO3166_2":"VA"},"countryName":"United States","fcodeName":"area","adminName1":"Virginia","lat":"36.79973","fcode":"AREA"},{"adminCode1":"VA","lng":"-80.4459","geonameId":10098177,"toponymName":"Tract 25-112, Blue Ridge Parkway","countryId":"6252001","fcl":"L","population":0,"countryCode":"US","name":"Tract 25-112, Blue Ridge Parkway","fclName":"parks,area, ...","adminCodes1":{"ISO3166_2":"VA"},"countryName":"United States","fcodeName":"area","adminName1":"Virginia","lat":"36.70267","fcode":"AREA"},{"adminCode1":"NC","lng":"-81.0541","geonameId":9827996,"toponymName":"Blue Ridge Parkway, Station 570, Section 2A","countryId":"6252001","fcl":"L","population":0,"countryCode":"US","name":"Blue Ridge Parkway, Station 570, Section 2A","fclName":"parks,area, ...","adminCodes1":{"ISO3166_2":"NC"},"countryName":"United States","fcodeName":"locality","adminName1":"North Carolina","lat":"36.43176","fcode":"LCTY"},{"adminCode1":"NC","lng":"-81.08161","geonameId":7522251,"toponymName":"Blue Ridge Parkway Milepost 234 ca. 886 m","countryId":"6252001","fcl":"L","population":0,"countryCode":"US","name":"Blue Ridge Parkway Milepost 234 ca. 886 m","fclName":"parks,area, ...","adminCodes1":{"ISO3166_2":"NC"},"countryName":"United States","fcodeName":"park","adminName1":"North Carolina","lat":"36.44122","fcode":"PRK"},{"adminCode1":"NC","lng":"-81.37002","geonameId":9855674,"toponymName":"Cherry Hill Development, Blue Ridge Parkway","countryId":"6252001","fcl":"L","population":0,"countryCode":"US","name":"Cherry Hill Development, Blue Ridge Parkway","fclName":"parks,area, ...","adminCodes1":{"ISO3166_2":"NC"},"countryName":"United States","fcodeName":"park","adminName1":"North Carolina","lat":"36.35962","fcode":"PRK"},{"adminCode1":"NC","lng":"-80.9928","geonameId":7303900,"toponymName":"Blue Ridge Parkway Milepost 227","countryId":"6252001","fcl":"L","population":0,"countryCode":"US","name":"Blue Ridge Parkway Milepost 227","fclName":"parks,area, ...","adminCodes1":{"ISO3166_2":"NC"},"countryName":"United States","fcodeName":"park","adminName1":"North Carolina","lat":"36.46169","fcode":"PRK"},{"adminCode1":"NC","lng":"-81.00846","geonameId":7303901,"toponymName":"Blue Ridge Parkway Milepost 228","countryId":"6252001","fcl":"L","population":0,"countryCode":"US","name":"Blue Ridge Parkway Milepost 228","fclName":"parks,area, ...","adminCodes1":{"ISO3166_2":"NC"},"countryName":"United States","fcodeName":"park","adminName1":"North Carolina","lat":"36.46466","fcode":"PRK"},{"adminCode1":"NC","lng":"-81.03061","geonameId":7303902,"toponymName":"Blue Ridge Parkway Milepost 230","countryId":"6252001","fcl":"L","population":0,"countryCode":"US","name":"Blue Ridge Parkway Milepost 230","fclName":"parks,area, ...","adminCodes1":{"ISO3166_2":"NC"},"countryName":"United States","fcodeName":"park","adminName1":"North Carolina","lat":"36.44279","fcode":"PRK"},{"adminCode1":"NC","lng":"-81.07147","geonameId":7303909,"toponymName":"Blue Ridge Parkway Milepost 233","countryId":"6252001","fcl":"L","population":0,"countryCode":"US","name":"Blue Ridge Parkway Milepost 233","fclName":"parks,area, ...","adminCodes1":{"ISO3166_2":"NC"},"countryName":"United States","fcodeName":"park","adminName1":"North Carolina","lat":"36.43614","fcode":"PRK"},{"adminCode1":"NC","lng":"-81.09557","geonameId":7303910,"toponymName":"Blue Ridge Parkway Milepost 235","countryId":"6252001","fcl":"L","population":0,"countryCode":"US","name":"Blue Ridge Parkway Milepost 235","fclName":"parks,area, ...","adminCodes1":{"ISO3166_2":"NC"},"countryName":"United States","fcodeName":"park","adminName1":"North Carolina","lat":"36.44129","fcode":"PRK"},{"adminCode1":"NC","lng":"-81.14994","geonameId":7303911,"toponymName":"Blue Ridge Parkway Milepost 239","countryId":"6252001","fcl":"L","population":0,"countryCode":"US","name":"Blue Ridge Parkway Milepost 239","fclName":"parks,area, ...","adminCodes1":{"ISO3166_2":"NC"},"countryName":"United States","fcodeName":"park","adminName1":"North Carolina","lat":"36.42587","fcode":"PRK"},{"adminCode1":"NC","lng":"-80.90508","geonameId":4462721,"toponymName":"Cumberland Knob Recreation Area","countryId":"6252001","fcl":"L","population":0,"countryCode":"US","name":"Cumberland Knob Recreation Area","fclName":"parks,area, ...","adminCodes1":{"ISO3166_2":"NC"},"countryName":"United States","fcodeName":"park","adminName1":"North Carolina","lat":"36.54652","fcode":"PRK"},{"adminCode1":"VA","lng":"-79.92929","geonameId":9881729,"toponymName":"Route 668 Crossing, Blue Ridge Parkway","countryId":"6252001","fcl":"R","population":0,"countryCode":"US","name":"Route 668 Crossing, Blue Ridge Parkway","fclName":"road, railroad ","adminCodes1":{"ISO3166_2":"VA"},"countryName":"United States","fcodeName":"road junction","adminName1":"Virginia","lat":"37.22302","fcode":"RDJCT"},{"adminCode1":"VA","lng":"-80.84536","geonameId":9972532,"toponymName":"Blue Ridge Parkway and Coleman Ridge Rd","countryId":"6252001","fcl":"R","population":0,"countryCode":"US","name":"Blue Ridge Parkway and Coleman Ridge Rd","fclName":"road, railroad ","adminCodes1":{"ISO3166_2":"VA"},"countryName":"United States","fcodeName":"road junction","adminName1":"Virginia","lat":"36.59366","fcode":"RDJCT"},{"adminCode1":"VA","lng":"-79.47578","geonameId":9827978,"toponymName":"Blue Ridge Parkway, Section 1-H&J, Parcel No.1","countryId":"6252001","fcl":"R","population":0,"countryCode":"US","name":"Blue Ridge Parkway, Section 1-H&J, Parcel No.1","fclName":"road, railroad ","adminCodes1":{"ISO3166_2":"VA"},"countryName":"United States","fcodeName":"road","adminName1":"Virginia","lat":"37.54322","fcode":"RD"},{"adminCode1":"VA","lng":"-79.37326","geonameId":9821901,"toponymName":"Blue Ridge Parkway Station 20: Section 1-H","countryId":"6252001","fcl":"R","population":0,"countryCode":"US","name":"Blue Ridge Parkway Station 20: Section 1-H","fclName":"road, railroad ","adminCodes1":{"ISO3166_2":"VA"},"countryName":"United States","fcodeName":"road junction","adminName1":"Virginia","lat":"37.55402","fcode":"RDJCT"},{"adminCode1":"VA","lng":"-79.95599","geonameId":9863244,"toponymName":"US Route 220 Intersection with Blue Ridge Parkway","countryId":"6252001","fcl":"R","population":0,"countryCode":"US","name":"US Route 220 Intersection with Blue Ridge Parkway","fclName":"road, railroad ","adminCodes1":{"ISO3166_2":"VA"},"countryName":"United States","fcodeName":"road junction","adminName1":"Virginia","lat":"37.2103","fcode":"RDJCT"},{"adminCode1":"VA","lng":"-80.86101","geonameId":9972474,"toponymName":"Intersection of Blue Ridge Parkway and Virginia Route 612","countryId":"6252001","fcl":"R","population":0,"countryCode":"US","name":"Intersection of Blue Ridge Parkway and Virginia Route 612","fclName":"road, railroad ","adminCodes1":{"ISO3166_2":"VA"},"countryName":"United States","fcodeName":"road junction","adminName1":"Virginia","lat":"36.56972","fcode":"RDJCT"},{"adminCode1":"VA","lng":"-80.90139","geonameId":9972542,"toponymName":"Blue Ridge Parkway Underpass, Virginia Route 89","countryId":"6252001","fcl":"R","population":0,"countryCode":"US","name":"Blue Ridge Parkway Underpass, Virginia Route 89","fclName":"road, railroad ","adminCodes1":{"ISO3166_2":"VA"},"countryName":"United States","fcodeName":"road","adminName1":"Virginia","lat":"36.57126","fcode":"RD"},{"adminCode1":"VA","lng":"-80.16336","geonameId":9972757,"toponymName":"Intersection of Blue Ridge Parkway and Virginia Route 640","countryId":"6252001","fcl":"R","population":0,"countryCode":"US","name":"Intersection of Blue Ridge Parkway and Virginia Route 640","fclName":"road, railroad ","adminCodes1":{"ISO3166_2":"VA"},"countryName":"United States","fcodeName":"road junction","adminName1":"Virginia","lat":"36.9665","fcode":"RDJCT"},{"adminCode1":"VA","lng":"-80.727","geonameId":9972989,"toponymName":"Intersection of Virginia State Route 608 and Blue Ridge Parkway","countryId":"6252001","fcl":"R","population":0,"countryCode":"US","name":"Intersection of Virginia State Route 608 and Blue Ridge Parkway","fclName":"road, railroad ","adminCodes1":{"ISO3166_2":"VA"},"countryName":"United States","fcodeName":"road junction","adminName1":"Virginia","lat":"36.64618","fcode":"RDJCT"},{"adminCode1":"VA","lng":"-80.70533","geonameId":9973010,"toponymName":"Blue Ridge Parkway over Interstate 77","countryId":"6252001","fcl":"R","population":0,"countryCode":"US","name":"Blue Ridge Parkway over Interstate 77","fclName":"road, railroad ","adminCodes1":{"ISO3166_2":"VA"},"countryName":"United States","fcodeName":"road","adminName1":"Virginia","lat":"36.65167","fcode":"RD"},{"adminCode1":"VA","lng":"-80.25963","geonameId":9973280,"toponymName":"Route 860 intersection with Blue Ridge Parkway","countryId":"6252001","fcl":"R","population":0,"countryCode":"US","name":"Route 860 intersection with Blue Ridge Parkway","fclName":"road, railroad ","adminCodes1":{"ISO3166_2":"VA"},"countryName":"United States","fcodeName":"road junction","adminName1":"Virginia","lat":"36.89987","fcode":"RDJCT"},{"adminCode1":"VA","lng":"-80.25285","geonameId":9973289,"toponymName":"Route 637 intersection with Blue Ridge Parkway","countryId":"6252001","fcl":"R","population":0,"countryCode":"US","name":"Route 637 intersection with Blue Ridge Parkway","fclName":"road, railroad ","adminCodes1":{"ISO3166_2":"VA"},"countryName":"United States","fcodeName":"road junction","adminName1":"Virginia","lat":"36.9008","fcode":"RDJCT"},{"adminCode1":"VA","lng":"-80.2759","geonameId":9973335,"toponymName":"Route 615 Intersection with Blue Ridge Parkway","countryId":"6252001","fcl":"R","population":0,"countryCode":"US","name":"Route 615 Intersection with Blue Ridge Parkway","fclName":"road, railroad ","adminCodes1":{"ISO3166_2":"VA"},"countryName":"United States","fcodeName":"road junction","adminName1":"Virginia","lat":"36.87711","fcode":"RDJCT"},{"adminCode1":"VA","lng":"-80.19965","geonameId":9973339,"toponymName":"Route 793 Intersection with Blue Ridge Parkway","countryId":"6252001","fcl":"R","population":0,"countryCode":"US","name":"Route 793 Intersection with Blue Ridge Parkway","fclName":"road, railroad ","adminCodes1":{"ISO3166_2":"VA"},"countryName":"United States","fcodeName":"road junction","adminName1":"Virginia","lat":"36.9217","fcode":"RDJCT"},{"adminCode1":"VA","lng":"-79.85704","geonameId":9881679,"toponymName":"Route 634 Crossing, Blue Ridge Parkway","countryId":"6252001","fcl":"R","population":0,"countryCode":"US","name":"Route 634 Crossing, Blue Ridge Parkway","fclName":"road, railroad ","adminCodes1":{"ISO3166_2":"VA"},"countryName":"United States","fcodeName":"road junction","adminName1":"Virginia","lat":"37.26554","fcode":"RDJCT"},{"adminCode1":"VA","lng":"-79.8991","geonameId":9881680,"toponymName":"Route 617 Crossing, Blue Ridge Parkway","countryId":"6252001","fcl":"R","population":0,"countryCode":"US","name":"Route 617 Crossing, Blue Ridge Parkway","fclName":"road, railroad ","adminCodes1":{"ISO3166_2":"VA"},"countryName":"United States","fcodeName":"road junction","adminName1":"Virginia","lat":"37.23605","fcode":"RDJCT"},{"adminCode1":"VA","lng":"-79.92019","geonameId":9881684,"toponymName":"Route 666 Crossing, Blue Ridge Parkway","countryId":"6252001","fcl":"R","population":0,"countryCode":"US","name":"Route 666 Crossing, Blue Ridge Parkway","fclName":"road, railroad ","adminCodes1":{"ISO3166_2":"VA"},"countryName":"United States","fcodeName":"road junction","adminName1":"Virginia","lat":"37.22663","fcode":"RDJCT"},{"adminCode1":"VA","lng":"-79.90545","geonameId":9881721,"toponymName":"Route 116 Crossing, Blue Ridge Parkway","countryId":"6252001","fcl":"R","population":0,"countryCode":"US","name":"Route 116 Crossing, Blue Ridge Parkway","fclName":"road, railroad ","adminCodes1":{"ISO3166_2":"VA"},"countryName":"United States","fcodeName":"road junction","adminName1":"Virginia","lat":"37.23026","fcode":"RDJCT"},{"adminCode1":"VA","lng":"-79.85228","geonameId":9881733,"toponymName":"Route 24 Crossing, Blue Ridge Parkway","countryId":"6252001","fcl":"R","population":0,"countryCode":"US","name":"Route 24 Crossing, Blue Ridge Parkway","fclName":"road, railroad ","adminCodes1":{"ISO3166_2":"VA"},"countryName":"United States","fcodeName":"road junction","adminName1":"Virginia","lat":"37.28425","fcode":"RDJCT"},{"adminCode1":"VA","lng":"-80.53762","geonameId":10055406,"toponymName":"Intersection of Blue Ridge Parkway and Buck Hollar Road (access to Doe Run Lodge)","countryId":"6252001","fcl":"R","population":0,"countryCode":"US","name":"Intersection of Blue Ridge Parkway and Buck Hollar Road (access to Doe Run Lodge)","fclName":"road, railroad ","adminCodes1":{"ISO3166_2":"VA"},"countryName":"United States","fcodeName":"road junction","adminName1":"Virginia","lat":"36.6414","fcode":"RDJCT"},{"adminCode1":"NC","lng":"-81.62054","geonameId":10124138,"toponymName":"Sampson Road and Blue Ridge Parkway","countryId":"6252001","fcl":"R","population":0,"countryCode":"US","name":"Sampson Road and Blue Ridge Parkway","fclName":"road, railroad ","adminCodes1":{"ISO3166_2":"NC"},"countryName":"United States","fcodeName":"road junction","adminName1":"North Carolina","lat":"36.15908","fcode":"RDJCT"},{"adminCode1":"VA","lng":"-80.85568","geonameId":9972539,"toponymName":"Blue Ridge Music Center, Milepost 213 Blue Ridge Parkway","countryId":"6252001","fcl":"S","population":0,"countryCode":"US","name":"Blue Ridge Music Center, Milepost 213 Blue Ridge Parkway","fclName":"spot, building, farm","adminCodes1":{"ISO3166_2":"VA"},"countryName":"United States","fcodeName":"building(s)","adminName1":"Virginia","lat":"36.57445","fcode":"BLDG"},{"adminCode1":"VA","lng":"-78.89891","geonameId":4748088,"toponymName":"Blue Ridge Parkway Visitors Center","countryId":"6252001","fcl":"S","population":0,"countryCode":"US","name":"Blue Ridge Parkway Visitors Center","fclName":"spot, building, farm","adminCodes1":{"ISO3166_2":"VA"},"countryName":"United States","fcodeName":"building(s)","adminName1":"Virginia","lat":"37.97292","fcode":"BLDG"},{"adminCode1":"VA","lng":"-79.99644","geonameId":9970419,"toponymName":"N&W Blue Ridge Parkway Viaduct","countryId":"6252001","fcl":"S","population":0,"countryCode":"US","name":"N&W Blue Ridge Parkway Viaduct","fclName":"spot, building, farm","adminCodes1":{"ISO3166_2":"VA"},"countryName":"United States","fcodeName":"bridge","adminName1":"Virginia","lat":"37.19131","fcode":"BDG"},{"adminCode1":"VA","lng":"-79.38898","geonameId":9821902,"toponymName":"Route 600 Crossing Bridge, Blue Ridge Parkway","countryId":"6252001","fcl":"S","population":0,"countryCode":"US","name":"Route 600 Crossing Bridge, Blue Ridge Parkway","fclName":"spot, building, farm","adminCodes1":{"ISO3166_2":"VA"},"countryName":"United States","fcodeName":"bridge","adminName1":"Virginia","lat":"37.55277","fcode":"BDG"},{"adminCode1":"VA","lng":"-79.41137","geonameId":9821903,"toponymName":"James River Utility/Maintenance Area, Blue Ridge Parkway","countryId":"6252001","fcl":"S","population":0,"countryCode":"US","name":"James River Utility/Maintenance Area, Blue Ridge Parkway","fclName":"spot, building, farm","adminCodes1":{"ISO3166_2":"VA"},"countryName":"United States","fcodeName":"building(s)","adminName1":"Virginia","lat":"37.55781","fcode":"BLDG"},{"adminCode1":"VA","lng":"-79.35124","geonameId":9794370,"toponymName":"Otter Creek Bridge, Blue Ridge Parkway","countryId":"6252001","fcl":"S","population":0,"countryCode":"US","name":"Otter Creek Bridge, Blue Ridge Parkway","fclName":"spot, building, farm","adminCodes1":{"ISO3166_2":"VA"},"countryName":"United States","fcodeName":"bridge","adminName1":"Virginia","lat":"37.57303","fcode":"BDG"},{"adminCode1":"VA","lng":"-78.95567","geonameId":9781031,"toponymName":"Parking Overlook, Blue Ridge Parkway","countryId":"6252001","fcl":"S","population":0,"countryCode":"US","name":"Parking Overlook, Blue Ridge Parkway","fclName":"spot, building, farm","adminCodes1":{"ISO3166_2":"VA"},"countryName":"United States","fcodeName":"observation point","adminName1":"Virginia","lat":"37.93107","fcode":"OBPT"},{"adminCode1":"VA","lng":"-79.13903","geonameId":9781207,"toponymName":"Spy Mountain Parking Area, Blue Ridge Parkway","countryId":"6252001","fcl":"S","population":0,"countryCode":"US","name":"Spy Mountain Parking Area, Blue Ridge Parkway","fclName":"spot, building, farm","adminCodes1":{"ISO3166_2":"VA"},"countryName":"United States","fcodeName":"observation point","adminName1":"Virginia","lat":"37.89111","fcode":"OBPT"},{"adminCode1":"VA","lng":"-79.14645","geonameId":9781745,"toponymName":"Montebello Maintenance Area, Blue Ridge Parkway","countryId":"6252001","fcl":"S","population":0,"countryCode":"US","name":"Montebello Maintenance Area, Blue Ridge Parkway","fclName":"spot, building, farm","adminCodes1":{"ISO3166_2":"VA"},"countryName":"United States","fcodeName":"facility","adminName1":"Virginia","lat":"37.86988","fcode":"FCL"},{"adminCode1":"VA","lng":"-79.83548","geonameId":9858462,"toponymName":"US Route 460 Crossing of Blue Ridge Parkway","countryId":"6252001","fcl":"S","population":0,"countryCode":"US","name":"US Route 460 Crossing of Blue Ridge Parkway","fclName":"spot, building, farm","adminCodes1":{"ISO3166_2":"VA"},"countryName":"United States","fcodeName":"bridge","adminName1":"Virginia","lat":"37.35559","fcode":"BDG"},{"adminCode1":"VA","lng":"-79.83848","geonameId":9858464,"toponymName":"Blue Ridge Parkway Crossing of Route 652","countryId":"6252001","fcl":"S","population":0,"countryCode":"US","name":"Blue Ridge Parkway Crossing of Route 652","fclName":"spot, building, farm","adminCodes1":{"ISO3166_2":"VA"},"countryName":"United States","fcodeName":"bridge","adminName1":"Virginia","lat":"37.37625","fcode":"BDG"},{"adminCode1":"VA","lng":"-79.85682","geonameId":9863258,"toponymName":"Blue Ridge Parkway Crossing of Route 651","countryId":"6252001","fcl":"S","population":0,"countryCode":"US","name":"Blue Ridge Parkway Crossing of Route 651","fclName":"spot, building, farm","adminCodes1":{"ISO3166_2":"VA"},"countryName":"United States","fcodeName":"bridge","adminName1":"Virginia","lat":"37.29329","fcode":"BDG"},{"adminCode1":"VA","lng":"-79.83918","geonameId":9959861,"toponymName":"Blue Ridge Parkway Crossing of VA Route 657","countryId":"6252001","fcl":"S","population":0,"countryCode":"US","name":"Blue Ridge Parkway Crossing of VA Route 657","fclName":"spot, building, farm","adminCodes1":{"ISO3166_2":"VA"},"countryName":"United States","fcodeName":"bridge","adminName1":"Virginia","lat":"37.37022","fcode":"BDG"},{"adminCode1":"VA","lng":"-79.97034","geonameId":9970358,"toponymName":"Route 679 Crossing of Blue Ridge Parkway","countryId":"6252001","fcl":"S","population":0,"countryCode":"US","name":"Route 679 Crossing of Blue Ridge Parkway","fclName":"spot, building, farm","adminCodes1":{"ISO3166_2":"VA"},"countryName":"United States","fcodeName":"bridge","adminName1":"Virginia","lat":"37.20163","fcode":"BDG"},{"adminCode1":"VA","lng":"-80.09018","geonameId":9970375,"toponymName":"Route 612 Crossing of Blue Ridge Parkway","countryId":"6252001","fcl":"S","population":0,"countryCode":"US","name":"Route 612 Crossing of Blue Ridge Parkway","fclName":"spot, building, farm","adminCodes1":{"ISO3166_2":"VA"},"countryName":"United States","fcodeName":"bridge","adminName1":"Virginia","lat":"37.15262","fcode":"BDG"},{"adminCode1":"VA","lng":"-80.06282","geonameId":9970540,"toponymName":"Route 690 Blue Ridge Parkway Viaduct","countryId":"6252001","fcl":"S","population":0,"countryCode":"US","name":"Route 690 Blue Ridge Parkway Viaduct","fclName":"spot, building, farm","adminCodes1":{"ISO3166_2":"VA"},"countryName":"United States","fcodeName":"bridge","adminName1":"Virginia","lat":"37.17551","fcode":"BDG"},{"adminCode1":"VA","lng":"-80.12929","geonameId":9971097,"toponymName":"John Harmon Tract, Blue Ridge Parkway","countryId":"6252001","fcl":"S","population":0,"countryCode":"US","name":"John Harmon Tract, Blue Ridge Parkway","fclName":"spot, building, farm","adminCodes1":{"ISO3166_2":"VA"},"countryName":"United States","fcodeName":"farm","adminName1":"Virginia","lat":"37.11043","fcode":"FRM"},{"adminCode1":"VA","lng":"-80.12665","geonameId":9971110,"toponymName":"W.M. Harmon Tract, Blue Ridge Parkway","countryId":"6252001","fcl":"S","population":0,"countryCode":"US","name":"W.M. Harmon Tract, Blue Ridge Parkway","fclName":"spot, building, farm","adminCodes1":{"ISO3166_2":"VA"},"countryName":"United States","fcodeName":"farm","adminName1":"Virginia","lat":"37.10297","fcode":"FRM"},{"adminCode1":"VA","lng":"-80.12793","geonameId":9971128,"toponymName":"Cletus A. Reed Tract, Blue Ridge Parkway","countryId":"6252001","fcl":"S","population":0,"countryCode":"US","name":"Cletus A. Reed Tract, Blue Ridge Parkway","fclName":"spot, building, farm","adminCodes1":{"ISO3166_2":"VA"},"countryName":"United States","fcodeName":"farm","adminName1":"Virginia","lat":"37.10504","fcode":"FRM"},{"adminCode1":"VA","lng":"-80.90412","geonameId":9972536,"toponymName":"West Fork Chestnut Creek and Blue Ridge Parkway","countryId":"6252001","fcl":"H","population":0,"countryCode":"US","name":"West Fork Chestnut Creek and Blue Ridge Parkway","fclName":"stream, lake, ...","adminCodes1":{"ISO3166_2":"VA"},"countryName":"United States","fcodeName":"stream bank","adminName1":"Virginia","lat":"36.57067","fcode":"BNKR"},{"adminCode1":"VA","lng":"-80.85922","geonameId":9972540,"toponymName":"Bridge over East Fork Chestnut Creek, Blue Ridge Parkway","countryId":"6252001","fcl":"S","population":0,"countryCode":"US","name":"Bridge over East Fork Chestnut Creek, Blue Ridge Parkway","fclName":"spot, building, farm","adminCodes1":{"ISO3166_2":"VA"},"countryName":"United States","fcodeName":"bridge","adminName1":"Virginia","lat":"36.57028","fcode":"BDG"},{"adminCode1":"VA","lng":"-80.85689","geonameId":9972541,"toponymName":"Bridge over Hanks Branch, Blue Ridge Parkway","countryId":"6252001","fcl":"S","population":0,"countryCode":"US","name":"Bridge over Hanks Branch, Blue Ridge Parkway","fclName":"spot, building, farm","adminCodes1":{"ISO3166_2":"VA"},"countryName":"United States","fcodeName":"bridge","adminName1":"Virginia","lat":"36.58228","fcode":"BDG"},{"adminCode1":"VA","lng":"-80.77687","geonameId":9972994,"toponymName":"Overpass, Blue Ridge Parkway at Virginia State Route 620","countryId":"6252001","fcl":"S","population":0,"countryCode":"US","name":"Overpass, Blue Ridge Parkway at Virginia State Route 620","fclName":"spot, building, farm","adminCodes1":{"ISO3166_2":"VA"},"countryName":"United States","fcodeName":"bridge","adminName1":"Virginia","lat":"36.61756","fcode":"BDG"},{"adminCode1":"VA","lng":"-80.62987","geonameId":9972996,"toponymName":"Bridge over Virginia State Route 608, Blue Ridge Parkway","countryId":"6252001","fcl":"S","population":0,"countryCode":"US","name":"Bridge over Virginia State Route 608, Blue Ridge Parkway","fclName":"spot, building, farm","adminCodes1":{"ISO3166_2":"VA"},"countryName":"United States","fcodeName":"bridge","adminName1":"Virginia","lat":"36.67028","fcode":"BDG"},{"adminCode1":"VA","lng":"-80.69246","geonameId":9972997,"toponymName":"Bridge over Virginia State Route 52, Blue Ridge Parkway","countryId":"6252001","fcl":"S","population":0,"countryCode":"US","name":"Bridge over Virginia State Route 52, Blue Ridge Parkway","fclName":"spot, building, farm","adminCodes1":{"ISO3166_2":"VA"},"countryName":"United States","fcodeName":"bridge","adminName1":"Virginia","lat":"36.66585","fcode":"BDG"},{"adminCode1":"VA","lng":"-80.68895","geonameId":9973000,"toponymName":"Fancy Gap Sub-Maintenance Area, Blue Ridge Parkway","countryId":"6252001","fcl":"S","population":0,"countryCode":"US","name":"Fancy Gap Sub-Maintenance Area, Blue Ridge Parkway","fclName":"spot, building, farm","adminCodes1":{"ISO3166_2":"VA"},"countryName":"United States","fcodeName":"building(s)","adminName1":"Virginia","lat":"36.66696","fcode":"BLDG"},{"adminCode1":"VA","lng":"-80.69732","geonameId":9973004,"toponymName":"Residences, Fancy Gap area, Blue Ridge Parkway","countryId":"6252001","fcl":"S","population":0,"countryCode":"US","name":"Residences, Fancy Gap area, Blue Ridge Parkway","fclName":"spot, building, farm","adminCodes1":{"ISO3166_2":"VA"},"countryName":"United States","fcodeName":"house(s)","adminName1":"Virginia","lat":"36.66116","fcode":"HSE"},{"adminCode1":"VA","lng":"-80.64531","geonameId":9973014,"toponymName":"Bridge over Winchester Rd., Blue Ridge Parkway","countryId":"6252001","fcl":"S","population":0,"countryCode":"US","name":"Bridge over Winchester Rd., Blue Ridge Parkway","fclName":"spot, building, farm","adminCodes1":{"ISO3166_2":"VA"},"countryName":"United States","fcodeName":"bridge","adminName1":"Virginia","lat":"36.66863","fcode":"BDG"},{"adminCode1":"VA","lng":"-80.41118","geonameId":10109178,"toponymName":"Blue Ridge Parkway Overpass and U.S. Route 58","countryId":"6252001","fcl":"S","population":0,"countryCode":"US","name":"Blue Ridge Parkway Overpass and U.S. Route 58","fclName":"spot, building, farm","adminCodes1":{"ISO3166_2":"VA"},"countryName":"United States","fcodeName":"bridge","adminName1":"Virginia","lat":"36.73519","fcode":"BDG"},{"adminCode1":"VA","lng":"-80.537","geonameId":10055402,"toponymName":"Bridge over Dogwood Trail, Blue Ridge Parkway","countryId":"6252001","fcl":"S","population":0,"countryCode":"US","name":"Bridge over Dogwood Trail, Blue Ridge Parkway","fclName":"spot, building, farm","adminCodes1":{"ISO3166_2":"VA"},"countryName":"United States","fcodeName":"bridge","adminName1":"Virginia","lat":"36.64152","fcode":"BDG"},{"adminCode1":"VA","lng":"-80.48444","geonameId":10056986,"toponymName":"Bridge over Virginia Route 638, Blue Ridge Parkway","countryId":"6252001","fcl":"S","population":0,"countryCode":"US","name":"Bridge over Virginia Route 638, Blue Ridge Parkway","fclName":"spot, building, farm","adminCodes1":{"ISO3166_2":"VA"},"countryName":"United States","fcodeName":"bridge","adminName1":"Virginia","lat":"36.66501","fcode":"BDG"},{"adminCode1":"VA","lng":"-79.97017","geonameId":10234534,"toponymName":"Blue Ridge Parkway Headquarters at Buck Mountain","countryId":"6252001","fcl":"S","population":0,"countryCode":"US","name":"Blue Ridge Parkway Headquarters at Buck Mountain","fclName":"spot, building, farm","adminCodes1":{"ISO3166_2":"VA"},"countryName":"United States","fcodeName":"building(s)","adminName1":"Virginia","lat":"37.20135","fcode":"BLDG"},{"adminCode1":"NC","lng":"-81.61026","geonameId":10124134,"toponymName":"Bridge over George Hayes Road, Blue Ridge Parkway","countryId":"6252001","fcl":"S","population":0,"countryCode":"US","name":"Bridge over George Hayes Road, Blue Ridge Parkway","fclName":"spot, building, farm","adminCodes1":{"ISO3166_2":"NC"},"countryName":"United States","fcodeName":"bridge","adminName1":"North Carolina","lat":"36.18333","fcode":"BDG"},{"adminCode1":"NC","lng":"-81.62455","geonameId":10124136,"toponymName":"Bridge over Blackberry Road, Blue Ridge Parkway","countryId":"6252001","fcl":"S","population":0,"countryCode":"US","name":"Bridge over Blackberry Road, Blue Ridge Parkway","fclName":"spot, building, farm","adminCodes1":{"ISO3166_2":"NC"},"countryName":"United States","fcodeName":"bridge","adminName1":"North Carolina","lat":"36.15049","fcode":"BDG"},{"adminCode1":"NC","lng":"-81.60313","geonameId":10124137,"toponymName":"Bridge over Little Laurel Road, Blue Ridge Parkway","countryId":"6252001","fcl":"S","population":0,"countryCode":"US","name":"Bridge over Little Laurel Road, Blue Ridge Parkway","fclName":"spot, building, farm","adminCodes1":{"ISO3166_2":"NC"},"countryName":"United States","fcodeName":"bridge","adminName1":"North Carolina","lat":"36.19182","fcode":"BDG"},{"adminCode1":"NC","lng":"-81.02571","geonameId":9957239,"toponymName":"Blue Ridge Parkway Overpass on US-21","countryId":"6252001","fcl":"S","population":0,"countryCode":"US","name":"Blue Ridge Parkway Overpass on US-21","fclName":"spot, building, farm","adminCodes1":{"ISO3166_2":"NC"},"countryName":"United States","fcodeName":"bridge","adminName1":"North Carolina","lat":"36.44771","fcode":"BDG"},{"adminCode1":"NC","lng":"-81.24552","geonameId":9957303,"toponymName":"Blue Ridge Parkway Overpass on US-18","countryId":"6252001","fcl":"S","population":0,"countryCode":"US","name":"Blue Ridge Parkway Overpass on US-18","fclName":"spot, building, farm","adminCodes1":{"ISO3166_2":"NC"},"countryName":"United States","fcodeName":"bridge","adminName1":"North Carolina","lat":"36.39098","fcode":"BDG"},{"adminCode1":"NC","lng":"-82.48631","geonameId":9885769,"toponymName":"Blue Ridge Parkway Headquarters, Hemphill knob","countryId":"6252001","fcl":"S","population":0,"countryCode":"US","name":"Blue Ridge Parkway Headquarters, Hemphill knob","fclName":"spot, building, farm","adminCodes1":{"ISO3166_2":"NC"},"countryName":"United States","fcodeName":"office building","adminName1":"North Carolina","lat":"35.56582","fcode":"BLDO"},{"adminCode1":"NC","lng":"-81.49949","geonameId":10124130,"toponymName":"Bridge over U.S. 421, Blue Ridge Parkway","countryId":"6252001","fcl":"S","population":0,"countryCode":"US","name":"Bridge over U.S. 421, Blue Ridge Parkway","fclName":"spot, building, farm","adminCodes1":{"ISO3166_2":"NC"},"countryName":"United States","fcodeName":"bridge","adminName1":"North Carolina","lat":"36.22984","fcode":"BDG"},{"adminCode1":"NC","lng":"-81.66271","geonameId":10124132,"toponymName":"Bridge over US-321/221, Blue Ridge Parkway","countryId":"6252001","fcl":"S","population":0,"countryCode":"US","name":"Bridge over US-321/221, Blue Ridge Parkway","fclName":"spot, building, farm","adminCodes1":{"ISO3166_2":"NC"},"countryName":"United States","fcodeName":"bridge","adminName1":"North Carolina","lat":"36.14789","fcode":"BDG"},{"adminCode1":"NC","lng":"-81.58852","geonameId":10124135,"toponymName":"Bridge over Don Hayes Road, Blue Ridge Parkway","countryId":"6252001","fcl":"S","population":0,"countryCode":"US","name":"Bridge over Don Hayes Road, Blue Ridge Parkway","fclName":"spot, building, farm","adminCodes1":{"ISO3166_2":"NC"},"countryName":"United States","fcodeName":"bridge","adminName1":"North Carolina","lat":"36.21972","fcode":"BDG"},{"adminCode1":"NC","lng":"-81.549","geonameId":10124141,"toponymName":"Bridge over Stanberry Road, Blue Ridge Parkway","countryId":"6252001","fcl":"S","population":0,"countryCode":"US","name":"Bridge over Stanberry Road, Blue Ridge Parkway","fclName":"spot, building, farm","adminCodes1":{"ISO3166_2":"NC"},"countryName":"United States","fcodeName":"bridge","adminName1":"North Carolina","lat":"36.23006","fcode":"BDG"},{"adminCode1":"NC","lng":"-81.53751","geonameId":10124142,"toponymName":"Bridge over private road, Blue Ridge Parkway Station 156","countryId":"6252001","fcl":"S","population":0,"countryCode":"US","name":"Bridge over private road, Blue Ridge Parkway Station 156","fclName":"spot, building, farm","adminCodes1":{"ISO3166_2":"NC"},"countryName":"United States","fcodeName":"bridge","adminName1":"North Carolina","lat":"36.23004","fcode":"BDG"},{"adminCode1":"NC","lng":"-81.5341","geonameId":10124143,"toponymName":"Bridge over Wildcat Road, Blue Ridge Parkway","countryId":"6252001","fcl":"S","population":0,"countryCode":"US","name":"Bridge over Wildcat Road, Blue Ridge Parkway","fclName":"spot, building, farm","adminCodes1":{"ISO3166_2":"NC"},"countryName":"United States","fcodeName":"bridge","adminName1":"North Carolina","lat":"36.22979","fcode":"BDG"}]}
