{"totalResultsCount":109,"geonames":[{"adminCode1":"UT","lng":"-111.65103","geonameId":5771972,"toponymName":"Brigham Young University","countryId":"6252001","fcl":"S","population":0,"countryCode":"US","name":"Brigham Young University","fclName":"spot, building, farm","adminCodes1":{"ISO3166_2":"UT"},"countryName":"United States","fcodeName":"school","adminName1":"Utah","lat":"40.24579","fcode":"SCH"},{"adminCode1":"UT","lng":"-112.0155","geonameId":5771960,"toponymName":"Brigham City","countryId":"6252001","fcl":"P","population":18752,"countryCode":"US","name":"Brigham City","fclName":"city, village,...","adminCodes1":{"ISO3166_2":"UT"},"countryName":"United States","fcodeName":"seat of a second-order administrative division","adminName1":"Utah","lat":"41.51021","fcode":"PPLA2"},{"adminCode1":"UT","lng":"-112.06226","geonameId":5771966,"toponymName":"Brigham City Airport","countryId":"6252001","fcl":"S","population":0,"countryCode":"US","name":"Brigham City Airport","fclName":"spot, building, farm","adminCodes1":{"ISO3166_2":"UT"},"countryName":"United States","fcodeName":"airport","adminName1":"Utah","lat":"41.55239","fcode":"AIRP"},{"adminCode1":"WI","lng":"-89.89725","geonameId":5246749,"toponymName":"Town of Brigham","countryId":"6252001","fcl":"A","population":1057,"countryCode":"US","name":"Town of Brigham","fclName":"country, state, region,...","adminCodes1":{"ISO3166_2":"WI"},"countryName":"United States","fcodeName":"third-order administrative division","adminName1":"Wisconsin","lat":"42.99461","fcode":"ADM3"},{"adminCode1":"UT","lng":"-112.33798","geonameId":5535829,"toponymName":"Mount Brigham","countryId":"6252001","fcl":"T","population":0,"countryCode":"US","name":"Mount Brigham","fclName":"mountain,hill,rock,... ","adminCodes1":{"ISO3166_2":"UT"},"countryName":"United States","fcodeName":"mountain","adminName1":"Utah","lat":"38.38609","fcode":"MT"},{"adminCode1":"WA","lng":"-120.92111","geonameId":5788134,"toponymName":"Lake Brigham","countryId":"6252001","fcl":"H","population":0,"countryCode":"US","name":"Lake Brigham","fclName":"stream, lake, ...","adminCodes1":{"ISO3166_2":"WA"},"countryName":"United States","fcodeName":"lake","adminName1":"Washington","lat":"47.67007","fcode":"LK"},{"adminCode1":"AZ","lng":"-109.30897","geonameId":5286879,"toponymName":"Brigham Peak","countryId":"6252001","fcl":"T","population":0,"countryCode":"US","name":"Brigham Peak","fclName":"mountain,hill,rock,... ","adminCodes1":{"ISO3166_2":"AZ"},"countryName":"United States","fcodeName":"mountain","adminName1":"Arizona","lat":"33.43533","fcode":"MT"},{"adminCode1":"UT","lng":"-112.01939","geonameId":5771971,"toponymName":"Brigham Young Park","countryId":"6252001","fcl":"L","population":0,"countryCode":"US","name":"Brigham Young Park","fclName":"parks,area, ...","adminCodes1":{"ISO3166_2":"UT"},"countryName":"United States","fcodeName":"park","adminName1":"Utah","lat":"41.51077","fcode":"PRK"},{"adminCode1":"ID","lng":"-113.50034","geonameId":5586857,"toponymName":"Brigham Point Lake","countryId":"6252001","fcl":"H","population":0,"countryCode":"US","name":"Brigham Point Lake","fclName":"stream, lake, ...","adminCodes1":{"ISO3166_2":"ID"},"countryName":"United States","fcodeName":"lake","adminName1":"Idaho","lat":"42.92304","fcode":"LK"},{"adminCode1":"AZ","lng":"-110.65069","geonameId":5286878,"toponymName":"Brigham City (historical)","countryId":"6252001","fcl":"P","population":0,"countryCode":"US","name":"Brigham City (historical)","fclName":"city, village,...","adminCodes1":{"ISO3166_2":"AZ"},"countryName":"United States","fcodeName":"abandoned populated place","adminName1":"Arizona","lat":"35.04169","fcode":"PPLQ"},{"adminCode1":"WI","lng":"-88.83333","geonameId":5246746,"toponymName":"Brigham Lake","countryId":"6252001","fcl":"H","population":0,"countryCode":"US","name":"Brigham Lake","fclName":"stream, lake, ...","adminCodes1":{"ISO3166_2":"WI"},"countryName":"United States","fcodeName":"lake","adminName1":"Wisconsin","lat":"45.08103","fcode":"LK"},{"adminCode1":"WI","lng":"-89.81762","geonameId":5246747,"toponymName":"Brigham Park","countryId":"6252001","fcl":"L","population":0,"countryCode":"US","name":"Brigham Park","fclName":"parks,area, ...","adminCodes1":{"ISO3166_2":"WI"},"countryName":"United States","fcodeName":"park","adminName1":"Wisconsin","lat":"43.02805","fcode":"PRK"},{"adminCode1":"WI","lng":"-89.32151","geonameId":5246748,"toponymName":"Brigham Park","countryId":"6252001","fcl":"L","population":0,"countryCode":"US","name":"Brigham Park","fclName":"parks,area, ...","adminCodes1":{"ISO3166_2":"WI"},"countryName":"United States","fcodeName":"park","adminName1":"Wisconsin","lat":"43.11194","fcode":"PRK"},{"adminCode1":"UT","lng":"-113.58551","geonameId":5535828,"toponymName":"Brigham Young Winter Home","countryId":"6252001","fcl":"L","population":0,"countryCode":"US","name":"Brigham Young Winter Home","fclName":"parks,area, ...","adminCodes1":{"ISO3166_2":"UT"},"countryName":"United States","fcodeName":"park","adminName1":"Utah","lat":"37.11137","fcode":"PRK"},{"adminCode1":"MI","lng":"-85.12082","geonameId":4986989,"toponymName":"Brigham Lake","countryId":"6252001","fcl":"H","population":0,"countryCode":"US","name":"Brigham Lake","fclName":"stream, lake, ...","adminCodes1":{"ISO3166_2":"MI"},"countryName":"United States","fcodeName":"lake","adminName1":"Michigan","lat":"42.32254","fcode":"LK"},{"adminCode1":"MI","lng":"-83.4421","geonameId":4986990,"toponymName":"Brigham Lake","countryId":"6252001","fcl":"H","population":0,"countryCode":"US","name":"Brigham Lake","fclName":"stream, lake, ...","adminCodes1":{"ISO3166_2":"MI"},"countryName":"United States","fcodeName":"lake","adminName1":"Michigan","lat":"42.92964","fcode":"LK"},{"adminCode1":"MA","lng":"-71.5759","geonameId":4931345,"toponymName":"Brigham Pond (historical)","countryId":"6252001","fcl":"H","population":0,"countryCode":"US","name":"Brigham Pond (historical)","fclName":"stream, lake, ...","adminCodes1":{"ISO3166_2":"MA"},"countryName":"United States","fcodeName":"lake","adminName1":"Massachusetts","lat":"42.30426","fcode":"LK"},{"adminCode1":"UT","lng":"-112.04536","geonameId":11788657,"toponymName":"City of Brigham City","countryId":"6252001","fcl":"A","population":0,"countryCode":"US","name":"City of Brigham City","fclName":"country, state, region,...","adminCodes1":{"ISO3166_2":"UT"},"countryName":"United States","fcodeName":"third-order administrative division","adminName1":"Utah","lat":"41.50337","fcode":"ADM3"},{"adminCode1":"MA","lng":"-71.10698","geonameId":4931347,"toponymName":"Brigham and Women's Hospital","countryId":"6252001","fcl":"S","population":0,"countryCode":"US","name":"Brigham and Women's Hospital","fclName":"spot, building, farm","adminCodes1":{"ISO3166_2":"MA"},"countryName":"United States","fcodeName":"hospital","adminName1":"Massachusetts","lat":"42.33594","fcode":"HSP"},{"adminCode1":"WI","lng":"-89.88302","geonameId":9688823,"toponymName":"Middlebury","countryId":"6252001","fcl":"P","population":0,"countryCode":"US","name":"Middlebury","fclName":"city, village,...","adminCodes1":{"ISO3166_2":"WI"},"countryName":"United States","fcodeName":"populated place","adminName1":"Wisconsin","lat":"42.9373","fcode":"PPL"},{"adminCode1":"MA","lng":"-71.55923","geonameId":4931340,"toponymName":"Brigham Cemetery","countryId":"6252001","fcl":"S","population":0,"countryCode":"US","name":"Brigham Cemetery","fclName":"spot, building, farm","adminCodes1":{"ISO3166_2":"MA"},"countryName":"United States","fcodeName":"cemetery","adminName1":"Massachusetts","lat":"42.33898","fcode":"CMTY"},{"adminCode1":"UT","lng":"-111.98272","geonameId":5771968,"toponymName":"Brigham Face Wildlife Management Area","countryId":"6252001","fcl":"L","population":0,"countryCode":"US","name":"Brigham Face Wildlife Management Area","fclName":"parks,area, ...","adminCodes1":{"ISO3166_2":"UT"},"countryName":"United States","fcodeName":"park","adminName1":"Utah","lat":"41.47633","fcode":"PRK"},{"adminCode1":"UT","lng":"-112.02305","geonameId":7727234,"toponymName":"Brigham City Emergency Services Facility","countryId":"6252001","fcl":"S","population":0,"countryCode":"US","name":"Brigham City Emergency Services Facility","fclName":"spot, building, farm","adminCodes1":{"ISO3166_2":"UT"},"countryName":"United States","fcodeName":"building(s)","adminName1":"Utah","lat":"41.51108","fcode":"BLDG"},{"adminCode1":"UT","lng":"-112.33021","geonameId":5538787,"toponymName":"Edna Peak","countryId":"6252001","fcl":"T","population":0,"countryCode":"US","name":"Edna Peak","fclName":"mountain,hill,rock,... ","adminCodes1":{"ISO3166_2":"UT"},"countryName":"United States","fcodeName":"mountain","adminName1":"Utah","lat":"38.38609","fcode":"MT"},{"adminCode1":"WI","lng":"-89.89901","geonameId":5250501,"toponymName":"Desmet Airport","countryId":"6252001","fcl":"S","population":0,"countryCode":"US","name":"Desmet Airport","fclName":"spot, building, farm","adminCodes1":{"ISO3166_2":"WI"},"countryName":"United States","fcodeName":"airport","adminName1":"Wisconsin","lat":"42.94528","fcode":"AIRP"},{"adminCode1":"HI","lng":"-157.92536","geonameId":5856827,"toponymName":"Brigham Young University - Hawaii","countryId":"6252001","fcl":"S","population":0,"countryCode":"US","name":"Brigham Young University - Hawaii","fclName":"spot, building, farm","adminCodes1":{"ISO3166_2":"HI"},"countryName":"United States","fcodeName":"school","adminName1":"Hawaii","lat":"21.64117","fcode":"SCH"},{"adminCode1":"UT","lng":"-111.73049","geonameId":5771969,"toponymName":"Brigham Fork","countryId":"6252001","fcl":"T","population":0,"countryCode":"US","name":"Brigham Fork","fclName":"mountain,hill,rock,... ","adminCodes1":{"ISO3166_2":"UT"},"countryName":"United States","fcodeName":"valley","adminName1":"Utah","lat":"40.77828","fcode":"VAL"},{"adminCode1":"TN","lng":"-87.67835","geonameId":4608600,"toponymName":"Brigham Hill","countryId":"6252001","fcl":"T","population":0,"countryCode":"US","name":"Brigham Hill","fclName":"mountain,hill,rock,... ","adminCodes1":{"ISO3166_2":"TN"},"countryName":"United States","fcodeName":"mountain","adminName1":"Tennessee","lat":"36.46422","fcode":"MT"},{"adminCode1":"TN","lng":"-87.73669","geonameId":4608601,"toponymName":"Brigham Hollow","countryId":"6252001","fcl":"T","population":0,"countryCode":"US","name":"Brigham Hollow","fclName":"mountain,hill,rock,... ","adminCodes1":{"ISO3166_2":"TN"},"countryName":"United States","fcodeName":"valley","adminName1":"Tennessee","lat":"36.21783","fcode":"VAL"},{"adminCode1":"TN","lng":"-87.66974","geonameId":4608603,"toponymName":"Brigham Hollow","countryId":"6252001","fcl":"T","population":0,"countryCode":"US","name":"Brigham Hollow","fclName":"mountain,hill,rock,... ","adminCodes1":{"ISO3166_2":"TN"},"countryName":"United States","fcodeName":"valley","adminName1":"Tennessee","lat":"36.47505","fcode":"VAL"},{"adminCode1":"ID","lng":"-113.26556","geonameId":5586855,"toponymName":"Brigham Point","countryId":"6252001","fcl":"T","population":0,"countryCode":"US","name":"Brigham Point","fclName":"mountain,hill,rock,... ","adminCodes1":{"ISO3166_2":"ID"},"countryName":"United States","fcodeName":"mountain","adminName1":"Idaho","lat":"42.71185","fcode":"MT"},{"adminCode1":"ID","lng":"-113.47973","geonameId":5586856,"toponymName":"Brigham Point","countryId":"6252001","fcl":"T","population":0,"countryCode":"US","name":"Brigham Point","fclName":"mountain,hill,rock,... ","adminCodes1":{"ISO3166_2":"ID"},"countryName":"United States","fcodeName":"mountain","adminName1":"Idaho","lat":"42.9513","fcode":"MT"},{"adminCode1":"VT","lng":"-73.10096","geonameId":5234169,"toponymName":"Brigham Hill","countryId":"6252001","fcl":"T","population":0,"countryCode":"US","name":"Brigham Hill","fclName":"mountain,hill,rock,... ","adminCodes1":{"ISO3166_2":"VT"},"countryName":"United States","fcodeName":"mountain","adminName1":"Vermont","lat":"44.5581","fcode":"MT"},{"adminCode1":"UT","lng":"-111.311","geonameId":5535827,"toponymName":"Brigham Tea Bench","countryId":"6252001","fcl":"T","population":0,"countryCode":"US","name":"Brigham Tea Bench","fclName":"mountain,hill,rock,... ","adminCodes1":{"ISO3166_2":"UT"},"countryName":"United States","fcodeName":"bench","adminName1":"Utah","lat":"37.75777","fcode":"BNCH"},{"adminCode1":"UT","lng":"-111.88545","geonameId":5535836,"toponymName":"Brigham Plains","countryId":"6252001","fcl":"T","population":0,"countryCode":"US","name":"Brigham Plains","fclName":"mountain,hill,rock,... ","adminCodes1":{"ISO3166_2":"UT"},"countryName":"United States","fcodeName":"plain(s)","adminName1":"Utah","lat":"37.20359","fcode":"PLN"},{"adminCode1":"ME","lng":"-70.72506","geonameId":4959291,"toponymName":"Brigham Hill","countryId":"6252001","fcl":"T","population":0,"countryCode":"US","name":"Brigham Hill","fclName":"mountain,hill,rock,... ","adminCodes1":{"ISO3166_2":"ME"},"countryName":"United States","fcodeName":"mountain","adminName1":"Maine","lat":"44.10229","fcode":"MT"},{"adminCode1":"ME","lng":"-70.73395","geonameId":4959292,"toponymName":"Brigham Ledge","countryId":"6252001","fcl":"T","population":0,"countryCode":"US","name":"Brigham Ledge","fclName":"mountain,hill,rock,... ","adminCodes1":{"ISO3166_2":"ME"},"countryName":"United States","fcodeName":"cliff(s)","adminName1":"Maine","lat":"44.13479","fcode":"CLF"},{"adminCode1":"MA","lng":"-71.95619","geonameId":4931342,"toponymName":"Brigham Hill","countryId":"6252001","fcl":"T","population":0,"countryCode":"US","name":"Brigham Hill","fclName":"mountain,hill,rock,... ","adminCodes1":{"ISO3166_2":"MA"},"countryName":"United States","fcodeName":"mountain","adminName1":"Massachusetts","lat":"42.3187","fcode":"MT"},{"adminCode1":"MA","lng":"-71.7134","geonameId":4931343,"toponymName":"Brigham Hill","countryId":"6252001","fcl":"T","population":0,"countryCode":"US","name":"Brigham Hill","fclName":"mountain,hill,rock,... ","adminCodes1":{"ISO3166_2":"MA"},"countryName":"United States","fcodeName":"mountain","adminName1":"Massachusetts","lat":"42.20982","fcode":"MT"},{"adminCode1":"WI","lng":"-89.91512","geonameId":5276575,"toponymName":"Twin Parks 7 Dam","countryId":"6252001","fcl":"S","population":0,"countryCode":"US","name":"Twin Parks 7 Dam","fclName":"spot, building, farm","adminCodes1":{"ISO3166_2":"WI"},"countryName":"United States","fcodeName":"dam","adminName1":"Wisconsin","lat":"43.02","fcode":"DAM"},{"adminCode1":"WI","lng":"-89.95012","geonameId":5276576,"toponymName":"Twin Parks 8 2WP1781 Dam","countryId":"6252001","fcl":"S","population":0,"countryCode":"US","name":"Twin Parks 8 2WP1781 Dam","fclName":"spot, building, farm","adminCodes1":{"ISO3166_2":"WI"},"countryName":"United States","fcodeName":"dam","adminName1":"Wisconsin","lat":"43.06166","fcode":"DAM"},{"adminCode1":"WI","lng":"-89.93012","geonameId":5276577,"toponymName":"Twin Parks 9 D9400 Dam","countryId":"6252001","fcl":"S","population":0,"countryCode":"US","name":"Twin Parks 9 D9400 Dam","fclName":"spot, building, farm","adminCodes1":{"ISO3166_2":"WI"},"countryName":"United States","fcodeName":"dam","adminName1":"Wisconsin","lat":"43.065","fcode":"DAM"},{"adminCode1":"WI","lng":"-89.93179","geonameId":5264280,"toponymName":"Nelson G 7414 Dam","countryId":"6252001","fcl":"S","population":0,"countryCode":"US","name":"Nelson G 7414 Dam","fclName":"spot, building, farm","adminCodes1":{"ISO3166_2":"WI"},"countryName":"United States","fcodeName":"dam","adminName1":"Wisconsin","lat":"42.93","fcode":"DAM"},{"adminCode1":"WI","lng":"-89.83957","geonameId":4833840,"toponymName":"Blue Mounds","countryId":"6252001","fcl":"T","population":0,"countryCode":"US","name":"Blue Mounds","fclName":"mountain,hill,rock,... ","adminCodes1":{"ISO3166_2":"WI"},"countryName":"United States","fcodeName":"mountain","adminName1":"Wisconsin","lat":"43.02527","fcode":"MT"},{"adminCode1":"IL","lng":"-88.99397","geonameId":4885592,"toponymName":"Brigham Elementary School","countryId":"6252001","fcl":"S","population":0,"countryCode":"US","name":"Brigham Elementary School","fclName":"spot, building, farm","adminCodes1":{"ISO3166_2":"IL"},"countryName":"United States","fcodeName":"school","adminName1":"Illinois","lat":"40.44254","fcode":"SCH"},{"adminCode1":"NH","lng":"-72.1398","geonameId":5083809,"toponymName":"Brigham Hill","countryId":"6252001","fcl":"T","population":0,"countryCode":"US","name":"Brigham Hill","fclName":"mountain,hill,rock,... ","adminCodes1":{"ISO3166_2":"NH"},"countryName":"United States","fcodeName":"mountain","adminName1":"New Hampshire","lat":"42.74342","fcode":"MT"},{"adminCode1":"NH","lng":"-72.14175","geonameId":5083810,"toponymName":"Brigham Hill","countryId":"6252001","fcl":"T","population":0,"countryCode":"US","name":"Brigham Hill","fclName":"mountain,hill,rock,... ","adminCodes1":{"ISO3166_2":"NH"},"countryName":"United States","fcodeName":"mountain","adminName1":"New Hampshire","lat":"42.76036","fcode":"MT"},{"adminCode1":"TN","lng":"-87.66724","geonameId":4608597,"toponymName":"Brigham Branch","countryId":"6252001","fcl":"H","population":0,"countryCode":"US","name":"Brigham Branch","fclName":"stream, lake, ...","adminCodes1":{"ISO3166_2":"TN"},"countryName":"United States","fcodeName":"stream","adminName1":"Tennessee","lat":"36.34811","fcode":"STM"},{"adminCode1":"TN","lng":"-87.79391","geonameId":4608602,"toponymName":"Brigham Cemetery","countryId":"6252001","fcl":"S","population":0,"countryCode":"US","name":"Brigham Cemetery","fclName":"spot, building, farm","adminCodes1":{"ISO3166_2":"TN"},"countryName":"United States","fcodeName":"cemetery","adminName1":"Tennessee","lat":"36.46283","fcode":"CMTY"},{"adminCode1":"MI","lng":"-83.5116","geonameId":4986988,"toponymName":"Brigham Cemetery","countryId":"6252001","fcl":"S","population":0,"countryCode":"US","name":"Brigham Cemetery","fclName":"spot, building, farm","adminCodes1":{"ISO3166_2":"MI"},"countryName":"United States","fcodeName":"cemetery","adminName1":"Michigan","lat":"41.79921","fcode":"CMTY"},{"adminCode1":"UT","lng":"-111.87355","geonameId":5771993,"toponymName":"Brigham Madsen","countryId":"6252001","fcl":"P","population":0,"countryCode":"US","name":"Brigham Madsen","fclName":"city, village,...","adminCodes1":{"ISO3166_2":"UT"},"countryName":"United States","fcodeName":"section of populated place","adminName1":"Utah","lat":"40.67606","fcode":"PPLX"},{"adminCode1":"UT","lng":"-112.01997","geonameId":11102294,"toponymName":"Brigham City Museum of Art & History","countryId":"6252001","fcl":"S","population":0,"countryCode":"US","name":"Brigham City Museum of Art & History","fclName":"spot, building, farm","adminCodes1":{"ISO3166_2":"UT"},"countryName":"United States","fcodeName":"museum","adminName1":"Utah","lat":"41.51107","fcode":"MUS"},{"adminCode1":"SC","lng":"-81.94845","geonameId":4572238,"toponymName":"Brigham Woods","countryId":"6252001","fcl":"P","population":0,"countryCode":"US","name":"Brigham Woods","fclName":"city, village,...","adminCodes1":{"ISO3166_2":"SC"},"countryName":"United States","fcodeName":"section of populated place","adminName1":"South Carolina","lat":"33.49291","fcode":"PPLX"},{"adminCode1":"UT","lng":"-112.0152","geonameId":6476409,"toponymName":"Howard Johnson Brigham City","countryId":"6252001","fcl":"S","population":0,"countryCode":"US","name":"Howard Johnson Brigham City","fclName":"spot, building, farm","adminCodes1":{"ISO3166_2":"UT"},"countryName":"United States","fcodeName":"hotel","adminName1":"Utah","lat":"41.4921","fcode":"HTL"},{"adminCode1":"UT","lng":"-112.0261","geonameId":6510498,"toponymName":"Crystal Inn Brigham City","countryId":"6252001","fcl":"S","population":0,"countryCode":"US","name":"Crystal Inn Brigham City","fclName":"spot, building, farm","adminCodes1":{"ISO3166_2":"UT"},"countryName":"United States","fcodeName":"hotel","adminName1":"Utah","lat":"41.4875","fcode":"HTL"},{"adminCode1":"FL","lng":"-81.71758","geonameId":4148888,"toponymName":"Brigham School","countryId":"6252001","fcl":"S","population":0,"countryCode":"US","name":"Brigham School","fclName":"spot, building, farm","adminCodes1":{"ISO3166_2":"FL"},"countryName":"United States","fcodeName":"school","adminName1":"Florida","lat":"28.0203","fcode":"SCH"},{"adminCode1":"VT","lng":"-72.66148","geonameId":5237105,"toponymName":"Holland-Brigham-Bixby Cemetery","countryId":"6252001","fcl":"S","population":0,"countryCode":"US","name":"Holland-Brigham-Bixby Cemetery","fclName":"spot, building, farm","adminCodes1":{"ISO3166_2":"VT"},"countryName":"United States","fcodeName":"cemetery","adminName1":"Vermont","lat":"43.02425","fcode":"CMTY"},{"adminCode1":"UT","lng":"-111.95911","geonameId":5779210,"toponymName":"Ogden Brigham Canal","countryId":"6252001","fcl":"H","population":0,"countryCode":"US","name":"Ogden Brigham Canal","fclName":"stream, lake, ...","adminCodes1":{"ISO3166_2":"UT"},"countryName":"United States","fcodeName":"canal","adminName1":"Utah","lat":"41.31772","fcode":"CNL"},{"adminCode1":"OR","lng":"-116.90238","geonameId":5715799,"toponymName":"Brigham Creek","countryId":"6252001","fcl":"H","population":0,"countryCode":"US","name":"Brigham Creek","fclName":"stream, lake, ...","adminCodes1":{"ISO3166_2":"OR"},"countryName":"United States","fcodeName":"stream","adminName1":"Oregon","lat":"45.4421","fcode":"STM"},{"adminCode1":"UT","lng":"-112.03272","geonameId":5776610,"toponymName":"KBUH-AM (Brigham City)","countryId":"6252001","fcl":"S","population":0,"countryCode":"US","name":"KBUH-AM (Brigham City)","fclName":"spot, building, farm","adminCodes1":{"ISO3166_2":"UT"},"countryName":"United States","fcodeName":"tower","adminName1":"Utah","lat":"41.5116","fcode":"TOWR"},{"adminCode1":"UT","lng":"-112.03272","geonameId":5776611,"toponymName":"KBUH-FM (Brigham City)","countryId":"6252001","fcl":"S","population":0,"countryCode":"US","name":"KBUH-FM (Brigham City)","fclName":"spot, building, farm","adminCodes1":{"ISO3166_2":"UT"},"countryName":"United States","fcodeName":"tower","adminName1":"Utah","lat":"41.5116","fcode":"TOWR"},{"adminCode1":"UT","lng":"-112.01328","geonameId":5771961,"toponymName":"Brigham City Bible Church","countryId":"6252001","fcl":"S","population":0,"countryCode":"US","name":"Brigham City Bible Church","fclName":"spot, building, farm","adminCodes1":{"ISO3166_2":"UT"},"countryName":"United States","fcodeName":"church","adminName1":"Utah","lat":"41.49744","fcode":"CH"},{"adminCode1":"UT","lng":"-112.00856","geonameId":5771962,"toponymName":"Brigham City Cemetery","countryId":"6252001","fcl":"S","population":0,"countryCode":"US","name":"Brigham City Cemetery","fclName":"spot, building, farm","adminCodes1":{"ISO3166_2":"UT"},"countryName":"United States","fcodeName":"cemetery","adminName1":"Utah","lat":"41.50271","fcode":"CMTY"},{"adminCode1":"UT","lng":"-112.02588","geonameId":5771963,"toponymName":"Brigham City Community Hospital","countryId":"6252001","fcl":"S","population":0,"countryCode":"US","name":"Brigham City Community Hospital","fclName":"spot, building, farm","adminCodes1":{"ISO3166_2":"UT"},"countryName":"United States","fcodeName":"hospital","adminName1":"Utah","lat":"41.49115","fcode":"HSP"},{"adminCode1":"UT","lng":"-112.01995","geonameId":5771965,"toponymName":"Brigham City Country Club","countryId":"6252001","fcl":"S","population":0,"countryCode":"US","name":"Brigham City Country Club","fclName":"spot, building, farm","adminCodes1":{"ISO3166_2":"UT"},"countryName":"United States","fcodeName":"resort","adminName1":"Utah","lat":"41.52938","fcode":"RSRT"},{"adminCode1":"UT","lng":"-112.01633","geonameId":5771967,"toponymName":"Brigham City Shopping Center","countryId":"6252001","fcl":"S","population":0,"countryCode":"US","name":"Brigham City Shopping Center","fclName":"spot, building, farm","adminCodes1":{"ISO3166_2":"UT"},"countryName":"United States","fcodeName":"mall","adminName1":"Utah","lat":"41.4866","fcode":"MALL"},{"adminCode1":"AK","lng":"-147.52","geonameId":5858040,"toponymName":"Brigham Creek","countryId":"6252001","fcl":"H","population":0,"countryCode":"US","name":"Brigham Creek","fclName":"stream, lake, ...","adminCodes1":{"ISO3166_2":"AK"},"countryName":"United States","fcodeName":"stream","adminName1":"Alaska","lat":"65.37806","fcode":"STM"},{"adminCode1":"UT","lng":"-111.88889","geonameId":6351112,"toponymName":"Brigham Young Family Memorial Cemetery","countryId":"6252001","fcl":"S","population":0,"countryCode":"US","name":"Brigham Young Family Memorial Cemetery","fclName":"spot, building, farm","adminCodes1":{"ISO3166_2":"UT"},"countryName":"United States","fcodeName":"cemetery","adminName1":"Utah","lat":"40.77194","fcode":"CMTY"},{"adminCode1":"UT","lng":"-111.8852","geonameId":6491652,"toponymName":"Oakwood at The Brigham","countryId":"6252001","fcl":"S","population":0,"countryCode":"US","name":"Oakwood at The Brigham","fclName":"spot, building, farm","adminCodes1":{"ISO3166_2":"UT"},"countryName":"United States","fcodeName":"hotel","adminName1":"Utah","lat":"40.7694","fcode":"HTL"},{"adminCode1":"MI","lng":"-85.72833","geonameId":7119462,"toponymName":"Brigham Creek","countryId":"6252001","fcl":"H","population":0,"countryCode":"US","name":"Brigham Creek","fclName":"stream, lake, ...","adminCodes1":{"ISO3166_2":"MI"},"countryName":"United States","fcodeName":"stream","adminName1":"Michigan","lat":"44.62167","fcode":"STM"},{"adminCode1":"TX","lng":"-95.94219","geonameId":4676369,"toponymName":"Brigham Cemetery","countryId":"6252001","fcl":"S","population":0,"countryCode":"US","name":"Brigham Cemetery","fclName":"spot, building, farm","adminCodes1":{"ISO3166_2":"TX"},"countryName":"United States","fcodeName":"cemetery","adminName1":"Texas","lat":"33.17011","fcode":"CMTY"},{"adminCode1":"TN","lng":"-88.00642","geonameId":4608599,"toponymName":"Brigham Cemetery","countryId":"6252001","fcl":"S","population":0,"countryCode":"US","name":"Brigham Cemetery","fclName":"spot, building, farm","adminCodes1":{"ISO3166_2":"TN"},"countryName":"United States","fcodeName":"cemetery","adminName1":"Tennessee","lat":"36.5795","fcode":"CMTY"},{"adminCode1":"OK","lng":"-94.84994","geonameId":4531360,"toponymName":"Brigham Young Branch","countryId":"6252001","fcl":"H","population":0,"countryCode":"US","name":"Brigham Young Branch","fclName":"stream, lake, ...","adminCodes1":{"ISO3166_2":"OK"},"countryName":"United States","fcodeName":"stream","adminName1":"Oklahoma","lat":"34.19899","fcode":"STM"},{"adminCode1":"OK","lng":"-94.84883","geonameId":4531382,"toponymName":"Brigham Young Springs","countryId":"6252001","fcl":"H","population":0,"countryCode":"US","name":"Brigham Young Springs","fclName":"stream, lake, ...","adminCodes1":{"ISO3166_2":"OK"},"countryName":"United States","fcodeName":"spring(s)","adminName1":"Oklahoma","lat":"34.22066","fcode":"SPNG"},{"adminCode1":"AR","lng":"-93.08529","geonameId":4103013,"toponymName":"Brigham Lake","countryId":"6252001","fcl":"H","population":0,"countryCode":"US","name":"Brigham Lake","fclName":"stream, lake, ...","adminCodes1":{"ISO3166_2":"AR"},"countryName":"United States","fcodeName":"reservoir(s)","adminName1":"Arkansas","lat":"33.49121","fcode":"RSV"},{"adminCode1":"AR","lng":"-93.08683","geonameId":4047514,"toponymName":"Brigham Lake Dam","countryId":"6252001","fcl":"S","population":0,"countryCode":"US","name":"Brigham Lake Dam","fclName":"spot, building, farm","adminCodes1":{"ISO3166_2":"AR"},"countryName":"United States","fcodeName":"dam","adminName1":"Arkansas","lat":"33.49012","fcode":"DAM"},{"adminCode1":"ID","lng":"-113.5389","geonameId":5586858,"toponymName":"Brigham Point Trapper Cabin","countryId":"6252001","fcl":"S","population":0,"countryCode":"US","name":"Brigham Point Trapper Cabin","fclName":"spot, building, farm","adminCodes1":{"ISO3166_2":"ID"},"countryName":"United States","fcodeName":"","adminName1":"Idaho","lat":"42.94963"},{"adminCode1":"ID","lng":"-113.63816","geonameId":5586860,"toponymName":"Brigham Lake Reservoir","countryId":"6252001","fcl":"H","population":0,"countryCode":"US","name":"Brigham Lake Reservoir","fclName":"stream, lake, ...","adminCodes1":{"ISO3166_2":"ID"},"countryName":"United States","fcodeName":"reservoir(s)","adminName1":"Idaho","lat":"43.17779","fcode":"RSV"},{"adminCode1":"CT","lng":"-72.31202","geonameId":5282833,"toponymName":"Brigham Tavern Brook","countryId":"6252001","fcl":"H","population":0,"countryCode":"US","name":"Brigham Tavern Brook","fclName":"stream, lake, ...","adminCodes1":{"ISO3166_2":"CT"},"countryName":"United States","fcodeName":"stream","adminName1":"Connecticut","lat":"41.79982","fcode":"STM"},{"adminCode1":"VT","lng":"-72.86343","geonameId":5234170,"toponymName":"Brigham Young Memorial Cemetery","countryId":"6252001","fcl":"S","population":0,"countryCode":"US","name":"Brigham Young Memorial Cemetery","fclName":"spot, building, farm","adminCodes1":{"ISO3166_2":"VT"},"countryName":"United States","fcodeName":"cemetery","adminName1":"Vermont","lat":"42.78314","fcode":"CMTY"},{"adminCode1":"VT","lng":"-72.80346","geonameId":5235986,"toponymName":"F H Brigham Memorial Free Library","countryId":"6252001","fcl":"S","population":0,"countryCode":"US","name":"F H Brigham Memorial Free Library","fclName":"spot, building, farm","adminCodes1":{"ISO3166_2":"VT"},"countryName":"United States","fcodeName":"library","adminName1":"Vermont","lat":"44.78171","fcode":"LIBR"},{"adminCode1":"MA","lng":"-72.57592","geonameId":4931341,"toponymName":"Brigham Hall","countryId":"6252001","fcl":"S","population":0,"countryCode":"US","name":"Brigham Hall","fclName":"spot, building, farm","adminCodes1":{"ISO3166_2":"MA"},"countryName":"United States","fcodeName":"building(s)","adminName1":"Massachusetts","lat":"42.2562","fcode":"BLDG"},{"adminCode1":"MA","lng":"-71.99846","geonameId":4931344,"toponymName":"Brigham Pond","countryId":"6252001","fcl":"H","population":0,"countryCode":"US","name":"Brigham Pond","fclName":"stream, lake, ...","adminCodes1":{"ISO3166_2":"MA"},"countryName":"United States","fcodeName":"reservoir(s)","adminName1":"Massachusetts","lat":"42.47219","fcode":"RSV"},{"adminCode1":"MA","lng":"-71.99952","geonameId":4931346,"toponymName":"Brigham Pond Dam","countryId":"6252001","fcl":"S","population":0,"countryCode":"US","name":"Brigham Pond Dam","fclName":"spot, building, farm","adminCodes1":{"ISO3166_2":"MA"},"countryName":"United States","fcodeName":"dam","adminName1":"Massachusetts","lat":"42.46842","fcode":"DAM"},{"adminCode1":"UT","lng":"-111.65008","geonameId":8106120,"toponymName":"Brigham Young University Emergency Medical Services","countryId":"6252001","fcl":"S","population":0,"countryCode":"US","name":"Brigham Young University Emergency Medical Services","fclName":"spot, building, farm","adminCodes1":{"ISO3166_2":"UT"},"countryName":"United States","fcodeName":"building(s)","adminName1":"Utah","lat":"40.25407","fcode":"BLDG"},{"adminCode1":"WI","lng":"-89.89073","geonameId":8484872,"toponymName":"Barneveld - Brigham Volunteer Fire Department","countryId":"6252001","fcl":"S","population":0,"countryCode":"US","name":"Barneveld - Brigham Volunteer Fire Department","fclName":"spot, building, farm","adminCodes1":{"ISO3166_2":"WI"},"countryName":"United States","fcodeName":"building(s)","adminName1":"Wisconsin","lat":"43.01771","fcode":"BLDG"},{"adminCode1":"UT","lng":"-112.01539","geonameId":9672601,"toponymName":"Brigham City Police Department","countryId":"6252001","fcl":"S","population":0,"countryCode":"US","name":"Brigham City Police Department","fclName":"spot, building, farm","adminCodes1":{"ISO3166_2":"UT"},"countryName":"United States","fcodeName":"building(s)","adminName1":"Utah","lat":"41.51102","fcode":"BLDG"},{"adminCode1":"UT","lng":"-111.65022","geonameId":9672724,"toponymName":"Brigham Young University Police Department","countryId":"6252001","fcl":"S","population":0,"countryCode":"US","name":"Brigham Young University Police Department","fclName":"spot, building, farm","adminCodes1":{"ISO3166_2":"UT"},"countryName":"United States","fcodeName":"building(s)","adminName1":"Utah","lat":"40.25023","fcode":"BLDG"},{"adminCode1":"UT","lng":"-112.05613","geonameId":9858900,"toponymName":"Days Inn Brigham City","countryId":"6252001","fcl":"S","population":0,"countryCode":"US","name":"Days Inn Brigham City","fclName":"spot, building, farm","adminCodes1":{"ISO3166_2":"UT"},"countryName":"United States","fcodeName":"hotel","adminName1":"Utah","lat":"41.4866","fcode":"HTL"},{"adminCode1":"UT","lng":"-112.01574","geonameId":9968101,"toponymName":"Hampton Inn Brigham City","countryId":"6252001","fcl":"S","population":0,"countryCode":"US","name":"Hampton Inn Brigham City","fclName":"spot, building, farm","adminCodes1":{"ISO3166_2":"UT"},"countryName":"United States","fcodeName":"hotel","adminName1":"Utah","lat":"41.51154","fcode":"HTL"},{"adminCode1":"UT","lng":"-112.01775","geonameId":11386400,"toponymName":"Brigham City Post Office","countryId":"6252001","fcl":"S","population":0,"countryCode":"US","name":"Brigham City Post Office","fclName":"spot, building, farm","adminCodes1":{"ISO3166_2":"UT"},"countryName":"United States","fcodeName":"post office","adminName1":"Utah","lat":"41.50999","fcode":"PO"},{"adminCode1":"NY","lng":"-74.00264","geonameId":5137167,"toponymName":"School Number 6 (historical)","countryId":"6252001","fcl":"S","population":0,"countryCode":"US","name":"School Number 6 (historical)","fclName":"spot, building, farm","adminCodes1":{"ISO3166_2":"NY"},"countryName":"United States","fcodeName":"school","adminName1":"New York","lat":"41.93343","fcode":"SCH"},{"adminCode1":"MA","lng":"-71.107","geonameId":7143309,"toponymName":"Brigham and Women's Medical Library","countryId":"6252001","fcl":"S","population":0,"countryCode":"US","name":"Brigham and Women's Medical Library","fclName":"spot, building, farm","adminCodes1":{"ISO3166_2":"MA"},"countryName":"United States","fcodeName":"library","adminName1":"Massachusetts","lat":"42.3362","fcode":"LIBR"},{"adminCode1":"UT","lng":"-112.02245","geonameId":5771964,"toponymName":"Brigham City Community Hospital Heliport","countryId":"6252001","fcl":"S","population":0,"countryCode":"US","name":"Brigham City Community Hospital Heliport","fclName":"spot, building, farm","adminCodes1":{"ISO3166_2":"UT"},"countryName":"United States","fcodeName":"heliport","adminName1":"Utah","lat":"41.48994","fcode":"AIRH"},{"adminCode1":"UT","lng":"-112.01641","geonameId":9672708,"toponymName":"Utah Highway Patrol Section 1 Brigham City Office","countryId":"6252001","fcl":"S","population":0,"countryCode":"US","name":"Utah Highway Patrol Section 1 Brigham City Office","fclName":"spot, building, farm","adminCodes1":{"ISO3166_2":"UT"},"countryName":"United States","fcodeName":"building(s)","adminName1":"Utah","lat":"41.52503","fcode":"BLDG"},{"adminCode1":"UT","lng":"-112.02559","geonameId":9858013,"toponymName":"Crystal Inn Hotel & Suites Brigham","countryId":"6252001","fcl":"S","population":0,"countryCode":"US","name":"Crystal Inn Hotel & Suites Brigham","fclName":"spot, building, farm","adminCodes1":{"ISO3166_2":"UT"},"countryName":"United States","fcodeName":"hotel","adminName1":"Utah","lat":"41.48782","fcode":"HTL"},{"adminCode1":"UT","lng":"-112.0165","geonameId":9858901,"toponymName":"Howard Johnson Inn - Brigham City","countryId":"6252001","fcl":"S","population":0,"countryCode":"US","name":"Howard Johnson Inn - Brigham City","fclName":"spot, building, farm","adminCodes1":{"ISO3166_2":"UT"},"countryName":"United States","fcodeName":"hotel","adminName1":"Utah","lat":"41.48579","fcode":"HTL"},{"adminCode1":"HI","lng":"-157.92536","geonameId":10173007,"toponymName":"Brigham Young University-Hawaii","countryId":"6252001","fcl":"S","population":0,"countryCode":"US","name":"Brigham Young University-Hawaii","fclName":"spot, building, farm","adminCodes1":{"ISO3166_2":"HI"},"countryName":"United States","fcodeName":"university","adminName1":"Hawaii","lat":"21.64196","fcode":"UNIV"},{"adminCode1":"HI","lng":"-157.92518","geonameId":10173008,"toponymName":"Rugby Field, Brigham Young University-Hawaii","countryId":"6252001","fcl":"S","population":0,"countryCode":"US","name":"Rugby Field, Brigham Young University-Hawaii","fclName":"spot, building, farm","adminCodes1":{"ISO3166_2":"HI"},"countryName":"United States","fcodeName":"athletic field","adminName1":"Hawaii","lat":"21.64358","fcode":"ATHF"},{"adminCode1":"NM","lng":"-105.40612","geonameId":5458830,"toponymName":"Brigham J Young House Historic Site","countryId":"6252001","fcl":"S","population":0,"countryCode":"US","name":"Brigham J Young House Historic Site","fclName":"spot, building, farm","adminCodes1":{"ISO3166_2":"NM"},"countryName":"United States","fcodeName":"building(s)","adminName1":"New Mexico","lat":"36.70808","fcode":"BLDG"}]}
