{"totalResultsCount":124,"geonames":[{"adminCode1":"PA","lng":"-78.79947","geonameId":5181752,"toponymName":"Brockway","countryId":"6252001","fcl":"P","population":2040,"countryCode":"US","name":"Brockway","fclName":"city, village,...","adminCodes1":{"ISO3166_2":"PA"},"countryName":"United States","fcodeName":"populated place","adminName1":"Pennsylvania","lat":"41.24923","fcode":"PPL"},{"adminCode1":"MT","lng":"-105.76251","geonameId":5642098,"toponymName":"Brockway","countryId":"6252001","fcl":"P","population":0,"countryCode":"US","name":"Brockway","fclName":"city, village,...","adminCodes1":{"ISO3166_2":"MT"},"countryName":"United States","fcodeName":"populated place","adminName1":"Montana","lat":"47.29778","fcode":"PPL"},{"adminCode1":"WI","lng":"-90.83959","geonameId":5246813,"toponymName":"Brockway","countryId":"6252001","fcl":"P","population":0,"countryCode":"US","name":"Brockway","fclName":"city, village,...","adminCodes1":{"ISO3166_2":"WI"},"countryName":"United States","fcodeName":"populated place","adminName1":"Wisconsin","lat":"44.28468","fcode":"PPL"},{"adminCode1":"MI","lng":"-82.79053","geonameId":5015628,"toponymName":"Yale Airport","countryId":"6252001","fcl":"S","population":0,"countryCode":"US","name":"Yale Airport","fclName":"spot, building, farm","adminCodes1":{"ISO3166_2":"MI"},"countryName":"United States","fcodeName":"airport","adminName1":"Michigan","lat":"43.11026","fcode":"AIRP"},{"adminCode1":"CT","lng":"-72.38286","geonameId":5282897,"toponymName":"Brockway Reach","countryId":"6252001","fcl":"L","population":0,"countryCode":"US","name":"Brockway Reach","fclName":"parks,area, ...","adminCodes1":{"ISO3166_2":"CT"},"countryName":"United States","fcodeName":"area","adminName1":"Connecticut","lat":"41.38677","fcode":"AREA"},{"adminCode1":"MN","lng":"-94.31104","geonameId":5019301,"toponymName":"Township of Brockway","countryId":"6252001","fcl":"A","population":0,"countryCode":"US","name":"Brockway Township","fclName":"country, state, region,...","adminCodes1":{"ISO3166_2":"MN"},"countryName":"United States","fcodeName":"third-order administrative division","adminName1":"Minnesota","lat":"45.72099","fcode":"ADM3"},{"adminCode1":"MI","lng":"-82.81671","geonameId":4987042,"toponymName":"Township of Brockway","countryId":"6252001","fcl":"A","population":0,"countryCode":"US","name":"Brockway Township","fclName":"country, state, region,...","adminCodes1":{"ISO3166_2":"MI"},"countryName":"United States","fcodeName":"third-order administrative division","adminName1":"Michigan","lat":"43.11477","fcode":"ADM3"},{"adminCode1":"WI","lng":"-90.84774","geonameId":5246106,"toponymName":"Black River Falls Area Airport","countryId":"6252001","fcl":"S","population":0,"countryCode":"US","name":"Black River Falls Area Airport","fclName":"spot, building, farm","adminCodes1":{"ISO3166_2":"WI"},"countryName":"United States","fcodeName":"airport","adminName1":"Wisconsin","lat":"44.25299","fcode":"AIRP"},{"adminCode1":"OR","lng":"-123.45535","geonameId":5715855,"toponymName":"Brockway","countryId":"6252001","fcl":"P","population":0,"countryCode":"US","name":"Brockway","fclName":"city, village,...","adminCodes1":{"ISO3166_2":"OR"},"countryName":"United States","fcodeName":"populated place","adminName1":"Oregon","lat":"43.109","fcode":"PPL"},{"adminCode1":"WI","lng":"-90.76377","geonameId":5246816,"toponymName":"Town of Brockway","countryId":"6252001","fcl":"A","population":2861,"countryCode":"US","name":"Town of Brockway","fclName":"country, state, region,...","adminCodes1":{"ISO3166_2":"WI"},"countryName":"United States","fcodeName":"third-order administrative division","adminName1":"Wisconsin","lat":"44.28773","fcode":"ADM3"},{"adminCode1":"CA","lng":"-120.01213","geonameId":5330902,"toponymName":"Brockway","countryId":"6252001","fcl":"P","population":0,"countryCode":"US","name":"Brockway","fclName":"city, village,...","adminCodes1":{"ISO3166_2":"CA"},"countryName":"United States","fcodeName":"populated place","adminName1":"California","lat":"39.22657","fcode":"PPL"},{"adminCode1":"CT","lng":"-72.37647","geonameId":5282828,"toponymName":"Brockway Island","countryId":"6252001","fcl":"T","population":0,"countryCode":"US","name":"Brockway Island","fclName":"mountain,hill,rock,... ","adminCodes1":{"ISO3166_2":"CT"},"countryName":"United States","fcodeName":"island","adminName1":"Connecticut","lat":"41.37343","fcode":"ISL"},{"adminCode1":"MN","lng":"-94.36889","geonameId":5040291,"toponymName":"Opole","countryId":"6252001","fcl":"P","population":0,"countryCode":"US","name":"Opole","fclName":"city, village,...","adminCodes1":{"ISO3166_2":"MN"},"countryName":"United States","fcodeName":"populated place","adminName1":"Minnesota","lat":"45.74663","fcode":"PPL"},{"adminCode1":"WI","lng":"-90.74792","geonameId":5244934,"toponymName":"Bauer-Brockway Barrens State Natural Area","countryId":"6252001","fcl":"L","population":0,"countryCode":"US","name":"Bauer-Brockway Barrens State Natural Area","fclName":"parks,area, ...","adminCodes1":{"ISO3166_2":"WI"},"countryName":"United States","fcodeName":"park","adminName1":"Wisconsin","lat":"44.29663","fcode":"PRK"},{"adminCode1":"MN","lng":"-94.43688","geonameId":5019300,"toponymName":"Brockway Lake","countryId":"6252001","fcl":"H","population":0,"countryCode":"US","name":"Brockway Lake","fclName":"stream, lake, ...","adminCodes1":{"ISO3166_2":"MN"},"countryName":"United States","fcodeName":"lake","adminName1":"Minnesota","lat":"46.82012","fcode":"LK"},{"adminCode1":"MI","lng":"-85.29445","geonameId":4987040,"toponymName":"Brockway Lake","countryId":"6252001","fcl":"H","population":0,"countryCode":"US","name":"Brockway Lake","fclName":"stream, lake, ...","adminCodes1":{"ISO3166_2":"MI"},"countryName":"United States","fcodeName":"lake","adminName1":"Michigan","lat":"43.49885","fcode":"LK"},{"adminCode1":"PA","lng":"-78.79289","geonameId":5181755,"toponymName":"Borough of Brockway","countryId":"6252001","fcl":"A","population":2072,"countryCode":"US","name":"Borough of Brockway","fclName":"country, state, region,...","adminCodes1":{"ISO3166_2":"PA"},"countryName":"United States","fcodeName":"third-order administrative division","adminName1":"Pennsylvania","lat":"41.24694","fcode":"ADM3"},{"adminCode1":"WI","lng":"-90.7807","geonameId":5272973,"toponymName":"Sheppard","countryId":"6252001","fcl":"P","population":0,"countryCode":"US","name":"Sheppard","fclName":"city, village,...","adminCodes1":{"ISO3166_2":"WI"},"countryName":"United States","fcodeName":"populated place","adminName1":"Wisconsin","lat":"44.26079","fcode":"PPL"},{"adminCode1":"WI","lng":"-90.80986","geonameId":5277106,"toponymName":"Vaudreuil","countryId":"6252001","fcl":"P","population":0,"countryCode":"US","name":"Vaudreuil","fclName":"city, village,...","adminCodes1":{"ISO3166_2":"WI"},"countryName":"United States","fcodeName":"populated place","adminName1":"Wisconsin","lat":"44.30635","fcode":"PPL"},{"adminCode1":"CT","lng":"-72.38008","geonameId":5282884,"toponymName":"Brockway","countryId":"6252001","fcl":"P","population":0,"countryCode":"US","name":"Brockway","fclName":"city, village,...","adminCodes1":{"ISO3166_2":"CT"},"countryName":"United States","fcodeName":"populated place","adminName1":"Connecticut","lat":"41.39454","fcode":"PPL"},{"adminCode1":"MN","lng":"-94.27444","geonameId":5045651,"toponymName":"Saint Stephen","countryId":"6252001","fcl":"P","population":851,"countryCode":"US","name":"Saint Stephen","fclName":"city, village,...","adminCodes1":{"ISO3166_2":"MN"},"countryName":"United States","fcodeName":"populated place","adminName1":"Minnesota","lat":"45.70274","fcode":"PPL"},{"adminCode1":"CA","lng":"-121.49023","geonameId":5330906,"toponymName":"Brockway Park","countryId":"6252001","fcl":"L","population":0,"countryCode":"US","name":"Brockway Park","fclName":"parks,area, ...","adminCodes1":{"ISO3166_2":"CA"},"countryName":"United States","fcodeName":"park","adminName1":"California","lat":"38.5438","fcode":"PRK"},{"adminCode1":"MI","lng":"-82.76548","geonameId":4987038,"toponymName":"Brockway","countryId":"6252001","fcl":"P","population":0,"countryCode":"US","name":"Brockway","fclName":"city, village,...","adminCodes1":{"ISO3166_2":"MI"},"countryName":"United States","fcodeName":"populated place","adminName1":"Michigan","lat":"43.07447","fcode":"PPL"},{"adminCode1":"WI","lng":"-90.82125","geonameId":5248004,"toponymName":"Castle Mound","countryId":"6252001","fcl":"T","population":0,"countryCode":"US","name":"Castle Mound","fclName":"mountain,hill,rock,... ","adminCodes1":{"ISO3166_2":"WI"},"countryName":"United States","fcodeName":"mountain","adminName1":"Wisconsin","lat":"44.27996","fcode":"MT"},{"adminCode1":"CA","lng":"-120.0713","geonameId":5330909,"toponymName":"Brockway Summit","countryId":"6252001","fcl":"T","population":0,"countryCode":"US","name":"Brockway Summit","fclName":"mountain,hill,rock,... ","adminCodes1":{"ISO3166_2":"CA"},"countryName":"United States","fcodeName":"mountain","adminName1":"California","lat":"39.26102","fcode":"MT"},{"adminCode1":"VT","lng":"-72.5162","geonameId":5234209,"toponymName":"Brockways Mills","countryId":"6252001","fcl":"P","population":0,"countryCode":"US","name":"Brockways Mills","fclName":"city, village,...","adminCodes1":{"ISO3166_2":"VT"},"countryName":"United States","fcodeName":"populated place","adminName1":"Vermont","lat":"43.20702","fcode":"PPL"},{"adminCode1":"MT","lng":"-106.06946","geonameId":5642102,"toponymName":"Brockway Coulee","countryId":"6252001","fcl":"T","population":0,"countryCode":"US","name":"Brockway Coulee","fclName":"mountain,hill,rock,... ","adminCodes1":{"ISO3166_2":"MT"},"countryName":"United States","fcodeName":"valley","adminName1":"Montana","lat":"48.85308","fcode":"VAL"},{"adminCode1":"MT","lng":"-108.6018","geonameId":5642104,"toponymName":"Brockway Coulee","countryId":"6252001","fcl":"T","population":0,"countryCode":"US","name":"Brockway Coulee","fclName":"mountain,hill,rock,... ","adminCodes1":{"ISO3166_2":"MT"},"countryName":"United States","fcodeName":"valley","adminName1":"Montana","lat":"45.70606","fcode":"VAL"},{"adminCode1":"MI","lng":"-87.89844","geonameId":4987041,"toponymName":"Brockway Nose","countryId":"6252001","fcl":"T","population":0,"countryCode":"US","name":"Brockway Nose","fclName":"mountain,hill,rock,... ","adminCodes1":{"ISO3166_2":"MI"},"countryName":"United States","fcodeName":"mountain","adminName1":"Michigan","lat":"47.46713","fcode":"MT"},{"adminCode1":"MA","lng":"-71.56062","geonameId":4931452,"toponymName":"Brockway Corner","countryId":"6252001","fcl":"P","population":0,"countryCode":"US","name":"Brockway Corner","fclName":"city, village,...","adminCodes1":{"ISO3166_2":"MA"},"countryName":"United States","fcodeName":"populated place","adminName1":"Massachusetts","lat":"42.44287","fcode":"PPL"},{"adminCode1":"CA","lng":"-120.14763","geonameId":5330907,"toponymName":"Brockway Point","countryId":"6252001","fcl":"T","population":0,"countryCode":"US","name":"Brockway Point","fclName":"mountain,hill,rock,... ","adminCodes1":{"ISO3166_2":"CA"},"countryName":"United States","fcodeName":"cape","adminName1":"California","lat":"34.02472","fcode":"CAPE"},{"adminCode1":"CA","lng":"-120.01519","geonameId":5330910,"toponymName":"Brockway Vista","countryId":"6252001","fcl":"P","population":0,"countryCode":"US","name":"Brockway Vista","fclName":"city, village,...","adminCodes1":{"ISO3166_2":"CA"},"countryName":"United States","fcodeName":"populated place","adminName1":"California","lat":"39.23796","fcode":"PPL"},{"adminCode1":"CT","lng":"-72.38286","geonameId":5282876,"toponymName":"Brockway Bar","countryId":"6252001","fcl":"T","population":0,"countryCode":"US","name":"Brockway Bar","fclName":"mountain,hill,rock,... ","adminCodes1":{"ISO3166_2":"CT"},"countryName":"United States","fcodeName":"bar","adminName1":"Connecticut","lat":"41.38538","fcode":"BAR"},{"adminCode1":"CT","lng":"-72.38842","geonameId":5282896,"toponymName":"Brockway Landing","countryId":"6252001","fcl":"P","population":0,"countryCode":"US","name":"Brockway Landing","fclName":"city, village,...","adminCodes1":{"ISO3166_2":"CT"},"countryName":"United States","fcodeName":"populated place","adminName1":"Connecticut","lat":"41.38871","fcode":"PPL"},{"adminCode1":"WI","lng":"-90.77264","geonameId":5273238,"toponymName":"Silver Mound","countryId":"6252001","fcl":"T","population":0,"countryCode":"US","name":"Silver Mound","fclName":"mountain,hill,rock,... ","adminCodes1":{"ISO3166_2":"WI"},"countryName":"United States","fcodeName":"mountain","adminName1":"Wisconsin","lat":"44.28968","fcode":"MT"},{"adminCode1":"WI","lng":"-90.79181","geonameId":5266656,"toponymName":"Perry Creek Dam","countryId":"6252001","fcl":"S","population":0,"countryCode":"US","name":"Perry Creek Dam","fclName":"spot, building, farm","adminCodes1":{"ISO3166_2":"WI"},"countryName":"United States","fcodeName":"dam","adminName1":"Wisconsin","lat":"44.25829","fcode":"DAM"},{"adminCode1":"WI","lng":"-90.72347","geonameId":5257547,"toponymName":"Iron Mound (historical)","countryId":"6252001","fcl":"T","population":0,"countryCode":"US","name":"Iron Mound (historical)","fclName":"mountain,hill,rock,... ","adminCodes1":{"ISO3166_2":"WI"},"countryName":"United States","fcodeName":"mountain","adminName1":"Wisconsin","lat":"44.29218","fcode":"MT"},{"adminCode1":"NY","lng":"-73.97764","geonameId":5110234,"toponymName":"Brockway","countryId":"6252001","fcl":"P","population":0,"countryCode":"US","name":"Brockway","fclName":"city, village,...","adminCodes1":{"ISO3166_2":"NY"},"countryName":"United States","fcodeName":"populated place","adminName1":"New York","lat":"41.53065","fcode":"PPL"},{"adminCode1":"OH","lng":"-80.56896","geonameId":5148299,"toponymName":"Brockway Cemetery","countryId":"6252001","fcl":"S","population":0,"countryCode":"US","name":"Brockway Cemetery","fclName":"spot, building, farm","adminCodes1":{"ISO3166_2":"OH"},"countryName":"United States","fcodeName":"cemetery","adminName1":"Ohio","lat":"41.38283","fcode":"CMTY"},{"adminCode1":"MI","lng":"-82.7941","geonameId":5002436,"toponymName":"Moore Cemetery","countryId":"6252001","fcl":"S","population":0,"countryCode":"US","name":"Moore Cemetery","fclName":"spot, building, farm","adminCodes1":{"ISO3166_2":"MI"},"countryName":"United States","fcodeName":"cemetery","adminName1":"Michigan","lat":"43.08753","fcode":"CMTY"},{"adminCode1":"OH","lng":"-80.56841","geonameId":5148316,"toponymName":"Brockway (historical)","countryId":"6252001","fcl":"P","population":0,"countryCode":"US","name":"Brockway (historical)","fclName":"city, village,...","adminCodes1":{"ISO3166_2":"OH"},"countryName":"United States","fcodeName":"abandoned populated place","adminName1":"Ohio","lat":"41.27728","fcode":"PPLQ"},{"adminCode1":"CA","lng":"-120.01328","geonameId":5330908,"toponymName":"Brockway Spring","countryId":"6252001","fcl":"H","population":0,"countryCode":"US","name":"Brockway Spring","fclName":"stream, lake, ...","adminCodes1":{"ISO3166_2":"CA"},"countryName":"United States","fcodeName":"spring(s)","adminName1":"California","lat":"39.24802","fcode":"SPNG"},{"adminCode1":"MN","lng":"-95.85863","geonameId":5053549,"toponymName":"Yankton Lake Dam","countryId":"6252001","fcl":"S","population":0,"countryCode":"US","name":"Yankton Lake Dam","fclName":"spot, building, farm","adminCodes1":{"ISO3166_2":"MN"},"countryName":"United States","fcodeName":"dam","adminName1":"Minnesota","lat":"44.2283","fcode":"DAM"},{"adminCode1":"MN","lng":"-94.36833","geonameId":5038384,"toponymName":"Mount Carmel Cemetery","countryId":"6252001","fcl":"S","population":0,"countryCode":"US","name":"Mount Carmel Cemetery","fclName":"spot, building, farm","adminCodes1":{"ISO3166_2":"MN"},"countryName":"United States","fcodeName":"cemetery","adminName1":"Minnesota","lat":"45.74385","fcode":"CMTY"},{"adminCode1":"WI","lng":"-88.84186","geonameId":5268959,"toponymName":"Ripon College","countryId":"6252001","fcl":"S","population":0,"countryCode":"US","name":"Ripon College","fclName":"spot, building, farm","adminCodes1":{"ISO3166_2":"WI"},"countryName":"United States","fcodeName":"school","adminName1":"Wisconsin","lat":"43.84256","fcode":"SCH"},{"adminCode1":"WI","lng":"-90.84165","geonameId":5254129,"toponymName":"Gebhardt Elementary School","countryId":"6252001","fcl":"S","population":0,"countryCode":"US","name":"Gebhardt Elementary School","fclName":"spot, building, farm","adminCodes1":{"ISO3166_2":"WI"},"countryName":"United States","fcodeName":"school","adminName1":"Wisconsin","lat":"44.28176","fcode":"SCH"},{"adminCode1":"ND","lng":"-97.81482","geonameId":5058429,"toponymName":"Brockway (historical)","countryId":"6252001","fcl":"P","population":0,"countryCode":"US","name":"Brockway (historical)","fclName":"city, village,...","adminCodes1":{"ISO3166_2":"ND"},"countryName":"United States","fcodeName":"abandoned populated place","adminName1":"North Dakota","lat":"46.28885","fcode":"PPLQ"},{"adminCode1":"MI","lng":"-82.79944","geonameId":7314667,"toponymName":"Yale Post Office","countryId":"6252001","fcl":"S","population":0,"countryCode":"US","name":"Yale Post Office","fclName":"spot, building, farm","adminCodes1":{"ISO3166_2":"MI"},"countryName":"United States","fcodeName":"post office","adminName1":"Michigan","lat":"43.12778","fcode":"PO"},{"adminCode1":"MI","lng":"-82.79167","geonameId":7314788,"toponymName":"Brockway Township Fire Station One","countryId":"6252001","fcl":"S","population":0,"countryCode":"US","name":"Brockway Township Fire Station One","fclName":"spot, building, farm","adminCodes1":{"ISO3166_2":"MI"},"countryName":"United States","fcodeName":"building(s)","adminName1":"Michigan","lat":"43.11722","fcode":"BLDG"},{"adminCode1":"MN","lng":"-94.21666","geonameId":5019299,"toponymName":"Brockway Cemetery","countryId":"6252001","fcl":"S","population":0,"countryCode":"US","name":"Brockway Cemetery","fclName":"spot, building, farm","adminCodes1":{"ISO3166_2":"MN"},"countryName":"United States","fcodeName":"cemetery","adminName1":"Minnesota","lat":"45.68885","fcode":"CMTY"},{"adminCode1":"PA","lng":"-78.79449","geonameId":8092692,"toponymName":"Brockway Volunteer Hose Company","countryId":"6252001","fcl":"S","population":0,"countryCode":"US","name":"Brockway Volunteer Hose Company","fclName":"spot, building, farm","adminCodes1":{"ISO3166_2":"PA"},"countryName":"United States","fcodeName":"building(s)","adminName1":"Pennsylvania","lat":"41.2477","fcode":"BLDG"},{"adminCode1":"PA","lng":"-78.78705","geonameId":8494798,"toponymName":"Brockway Area Ambulance Service","countryId":"6252001","fcl":"S","population":0,"countryCode":"US","name":"Brockway Area Ambulance Service","fclName":"spot, building, farm","adminCodes1":{"ISO3166_2":"PA"},"countryName":"United States","fcodeName":"building(s)","adminName1":"Pennsylvania","lat":"41.24382","fcode":"BLDG"},{"adminCode1":"PA","lng":"-78.79801","geonameId":11392203,"toponymName":"Brockway Police Department","countryId":"6252001","fcl":"S","population":0,"countryCode":"US","name":"Brockway Police Department","fclName":"spot, building, farm","adminCodes1":{"ISO3166_2":"PA"},"countryName":"United States","fcodeName":"building(s)","adminName1":"Pennsylvania","lat":"41.24917","fcode":"BLDG"},{"adminCode1":"PA","lng":"-78.8006","geonameId":11393535,"toponymName":"Brockway Post Office","countryId":"6252001","fcl":"S","population":0,"countryCode":"US","name":"Brockway Post Office","fclName":"spot, building, farm","adminCodes1":{"ISO3166_2":"PA"},"countryName":"United States","fcodeName":"post office","adminName1":"Pennsylvania","lat":"41.24914","fcode":"PO"},{"adminCode1":"OR","lng":"-123.43646","geonameId":5715856,"toponymName":"Brockway Creek","countryId":"6252001","fcl":"H","population":0,"countryCode":"US","name":"Brockway Creek","fclName":"stream, lake, ...","adminCodes1":{"ISO3166_2":"OR"},"countryName":"United States","fcodeName":"stream","adminName1":"Oregon","lat":"43.11262","fcode":"STM"},{"adminCode1":"OR","lng":"-122.74537","geonameId":5715858,"toponymName":"Brockway Reservoir","countryId":"6252001","fcl":"H","population":0,"countryCode":"US","name":"Brockway Reservoir","fclName":"stream, lake, ...","adminCodes1":{"ISO3166_2":"OR"},"countryName":"United States","fcodeName":"reservoir(s)","adminName1":"Oregon","lat":"42.26749","fcode":"RSV"},{"adminCode1":"OR","lng":"-123.45535","geonameId":5715860,"toponymName":"Brockway Post Office (historical)","countryId":"6252001","fcl":"S","population":0,"countryCode":"US","name":"Brockway Post Office (historical)","fclName":"spot, building, farm","adminCodes1":{"ISO3166_2":"OR"},"countryName":"United States","fcodeName":"post office","adminName1":"Oregon","lat":"43.109","fcode":"PO"},{"adminCode1":"MT","lng":"-105.76306","geonameId":5642099,"toponymName":"Brockway (historical)","countryId":"6252001","fcl":"S","population":0,"countryCode":"US","name":"Brockway (historical)","fclName":"spot, building, farm","adminCodes1":{"ISO3166_2":"MT"},"countryName":"United States","fcodeName":"","adminName1":"Montana","lat":"47.30223"},{"adminCode1":"MT","lng":"-105.75194","geonameId":5642100,"toponymName":"Brockway Cemetery","countryId":"6252001","fcl":"S","population":0,"countryCode":"US","name":"Brockway Cemetery","fclName":"spot, building, farm","adminCodes1":{"ISO3166_2":"MT"},"countryName":"United States","fcodeName":"cemetery","adminName1":"Montana","lat":"47.29639","fcode":"CMTY"},{"adminCode1":"MT","lng":"-105.76334","geonameId":5642101,"toponymName":"Brockway Community Church","countryId":"6252001","fcl":"S","population":0,"countryCode":"US","name":"Brockway Community Church","fclName":"spot, building, farm","adminCodes1":{"ISO3166_2":"MT"},"countryName":"United States","fcodeName":"church","adminName1":"Montana","lat":"47.29778","fcode":"CH"},{"adminCode1":"MT","lng":"-105.76412","geonameId":5642105,"toponymName":"Brockway Post Office","countryId":"6252001","fcl":"S","population":0,"countryCode":"US","name":"Brockway Post Office","fclName":"spot, building, farm","adminCodes1":{"ISO3166_2":"MT"},"countryName":"United States","fcodeName":"post office","adminName1":"Montana","lat":"47.29998","fcode":"PO"},{"adminCode1":"MT","lng":"-106.02393","geonameId":5642106,"toponymName":"Brockway Spring","countryId":"6252001","fcl":"H","population":0,"countryCode":"US","name":"Brockway Spring","fclName":"stream, lake, ...","adminCodes1":{"ISO3166_2":"MT"},"countryName":"United States","fcodeName":"spring(s)","adminName1":"Montana","lat":"48.88809","fcode":"SPNG"},{"adminCode1":"MT","lng":"-105.76362","geonameId":5642113,"toponymName":"Brockway School (historical)","countryId":"6252001","fcl":"S","population":0,"countryCode":"US","name":"Brockway School (historical)","fclName":"spot, building, farm","adminCodes1":{"ISO3166_2":"MT"},"countryName":"United States","fcodeName":"school","adminName1":"Montana","lat":"47.29639","fcode":"SCH"},{"adminCode1":"MN","lng":"-93.11722","geonameId":6354293,"toponymName":"Brockway Golf Course","countryId":"6252001","fcl":"S","population":0,"countryCode":"US","name":"Brockway Golf Course","fclName":"spot, building, farm","adminCodes1":{"ISO3166_2":"MN"},"countryName":"United States","fcodeName":"golf course","adminName1":"Minnesota","lat":"44.75556","fcode":"RECG"},{"adminCode1":"MI","lng":"-85.30361","geonameId":7238208,"toponymName":"Brockway Christian Academy","countryId":"6252001","fcl":"S","population":0,"countryCode":"US","name":"Brockway Christian Academy","fclName":"spot, building, farm","adminCodes1":{"ISO3166_2":"MI"},"countryName":"United States","fcodeName":"school","adminName1":"Michigan","lat":"43.51056","fcode":"SCH"},{"adminCode1":"OR","lng":"-123.44306","geonameId":7177411,"toponymName":"Brockway Elementary School","countryId":"6252001","fcl":"S","population":0,"countryCode":"US","name":"Brockway Elementary School","fclName":"spot, building, farm","adminCodes1":{"ISO3166_2":"OR"},"countryName":"United States","fcodeName":"school","adminName1":"Oregon","lat":"43.12472","fcode":"SCH"},{"adminCode1":"TX","lng":"-96.45888","geonameId":4676486,"toponymName":"Brockway Branch","countryId":"6252001","fcl":"H","population":0,"countryCode":"US","name":"Brockway Branch","fclName":"stream, lake, ...","adminCodes1":{"ISO3166_2":"TX"},"countryName":"United States","fcodeName":"stream","adminName1":"Texas","lat":"32.87346","fcode":"STM"},{"adminCode1":"MO","lng":"-92.95075","geonameId":4378477,"toponymName":"Brockway Spring","countryId":"6252001","fcl":"H","population":0,"countryCode":"US","name":"Brockway Spring","fclName":"stream, lake, ...","adminCodes1":{"ISO3166_2":"MO"},"countryName":"United States","fcodeName":"spring(s)","adminName1":"Missouri","lat":"39.07502","fcode":"SPNG"},{"adminCode1":"AL","lng":"-88.18475","geonameId":4051873,"toponymName":"Brockway Creek","countryId":"6252001","fcl":"H","population":0,"countryCode":"US","name":"Brockway Creek","fclName":"stream, lake, ...","adminCodes1":{"ISO3166_2":"AL"},"countryName":"United States","fcodeName":"stream","adminName1":"Alabama","lat":"32.32292","fcode":"STM"},{"adminCode1":"IN","lng":"-87.3564","geonameId":4254977,"toponymName":"Brockway Cemetery","countryId":"6252001","fcl":"S","population":0,"countryCode":"US","name":"Brockway Cemetery","fclName":"spot, building, farm","adminCodes1":{"ISO3166_2":"IN"},"countryName":"United States","fcodeName":"cemetery","adminName1":"Indiana","lat":"39.93087","fcode":"CMTY"},{"adminCode1":"WI","lng":"-90.93485","geonameId":5246815,"toponymName":"Brockway School (historical)","countryId":"6252001","fcl":"S","population":0,"countryCode":"US","name":"Brockway School (historical)","fclName":"spot, building, farm","adminCodes1":{"ISO3166_2":"WI"},"countryName":"United States","fcodeName":"school","adminName1":"Wisconsin","lat":"43.33609","fcode":"SCH"},{"adminCode1":"IA","lng":"-91.20015","geonameId":4849415,"toponymName":"Brockway Cemetery","countryId":"6252001","fcl":"S","population":0,"countryCode":"US","name":"Brockway Cemetery","fclName":"spot, building, farm","adminCodes1":{"ISO3166_2":"IA"},"countryName":"United States","fcodeName":"cemetery","adminName1":"Iowa","lat":"41.32503","fcode":"CMTY"},{"adminCode1":"IA","lng":"-91.33016","geonameId":4849416,"toponymName":"Brockway Cemetery","countryId":"6252001","fcl":"S","population":0,"countryCode":"US","name":"Brockway Cemetery","fclName":"spot, building, farm","adminCodes1":{"ISO3166_2":"IA"},"countryName":"United States","fcodeName":"cemetery","adminName1":"Iowa","lat":"41.40641","fcode":"CMTY"},{"adminCode1":"IA","lng":"-91.32515","geonameId":4849421,"toponymName":"Brockway Cemetery","countryId":"6252001","fcl":"S","population":0,"countryCode":"US","name":"Brockway Cemetery","fclName":"spot, building, farm","adminCodes1":{"ISO3166_2":"IA"},"countryName":"United States","fcodeName":"cemetery","adminName1":"Iowa","lat":"40.70282","fcode":"CMTY"},{"adminCode1":"MI","lng":"-85.30365","geonameId":4987039,"toponymName":"Brockway Church","countryId":"6252001","fcl":"S","population":0,"countryCode":"US","name":"Brockway Church","fclName":"spot, building, farm","adminCodes1":{"ISO3166_2":"MI"},"countryName":"United States","fcodeName":"church","adminName1":"Michigan","lat":"43.51058","fcode":"CH"},{"adminCode1":"ME","lng":"-69.23088","geonameId":4959348,"toponymName":"Brockway School","countryId":"6252001","fcl":"S","population":0,"countryCode":"US","name":"Brockway School","fclName":"spot, building, farm","adminCodes1":{"ISO3166_2":"ME"},"countryName":"United States","fcodeName":"school","adminName1":"Maine","lat":"45.13867","fcode":"SCH"},{"adminCode1":"OH","lng":"-80.56785","geonameId":5148300,"toponymName":"Brockway Post Office (historical)","countryId":"6252001","fcl":"S","population":0,"countryCode":"US","name":"Brockway Post Office (historical)","fclName":"spot, building, farm","adminCodes1":{"ISO3166_2":"OH"},"countryName":"United States","fcodeName":"post office","adminName1":"Ohio","lat":"41.27783","fcode":"PO"},{"adminCode1":"MI","lng":"-82.79061","geonameId":7720618,"toponymName":"Brockway Township Fire Department","countryId":"6252001","fcl":"S","population":0,"countryCode":"US","name":"Brockway Township Fire Department","fclName":"spot, building, farm","adminCodes1":{"ISO3166_2":"MI"},"countryName":"United States","fcodeName":"building(s)","adminName1":"Michigan","lat":"43.12002","fcode":"BLDG"},{"adminCode1":"WA","lng":"-121.80456","geonameId":5788179,"toponymName":"Brockway Creek","countryId":"6252001","fcl":"H","population":0,"countryCode":"US","name":"Brockway Creek","fclName":"stream, lake, ...","adminCodes1":{"ISO3166_2":"WA"},"countryName":"United States","fcodeName":"stream","adminName1":"Washington","lat":"47.52899","fcode":"STM"},{"adminCode1":"CA","lng":"-120.0295","geonameId":6525620,"toponymName":"Brockway Springs Resort","countryId":"6252001","fcl":"S","population":0,"countryCode":"US","name":"Brockway Springs Resort","fclName":"spot, building, farm","adminCodes1":{"ISO3166_2":"CA"},"countryName":"United States","fcodeName":"hotel","adminName1":"California","lat":"39.2516","fcode":"HTL"},{"adminCode1":"FL","lng":"-80.1931","geonameId":4148978,"toponymName":"Brockway Memorial Library","countryId":"6252001","fcl":"S","population":0,"countryCode":"US","name":"Brockway Memorial Library","fclName":"spot, building, farm","adminCodes1":{"ISO3166_2":"FL"},"countryName":"United States","fcodeName":"library","adminName1":"Florida","lat":"25.86732","fcode":"LIBR"},{"adminCode1":"CA","lng":"-120.03352","geonameId":5330903,"toponymName":"Brockway Golf Club","countryId":"6252001","fcl":"S","population":0,"countryCode":"US","name":"Brockway Golf Club","fclName":"spot, building, farm","adminCodes1":{"ISO3166_2":"CA"},"countryName":"United States","fcodeName":"golf course","adminName1":"California","lat":"39.23907","fcode":"RECG"},{"adminCode1":"CA","lng":"-120.08575","geonameId":5330904,"toponymName":"Brockway Guard Station","countryId":"6252001","fcl":"S","population":0,"countryCode":"US","name":"Brockway Guard Station","fclName":"spot, building, farm","adminCodes1":{"ISO3166_2":"CA"},"countryName":"United States","fcodeName":"","adminName1":"California","lat":"39.26963"},{"adminCode1":"CA","lng":"-120.03602","geonameId":5330911,"toponymName":"Brockway Winter Sports Center","countryId":"6252001","fcl":"S","population":0,"countryCode":"US","name":"Brockway Winter Sports Center","fclName":"spot, building, farm","adminCodes1":{"ISO3166_2":"CA"},"countryName":"United States","fcodeName":"","adminName1":"California","lat":"39.24546"},{"adminCode1":"CT","lng":"-72.39036","geonameId":5282860,"toponymName":"Brockway Ferry","countryId":"6252001","fcl":"S","population":0,"countryCode":"US","name":"Brockway Ferry","fclName":"spot, building, farm","adminCodes1":{"ISO3166_2":"CT"},"countryName":"United States","fcodeName":"","adminName1":"Connecticut","lat":"41.38677"},{"adminCode1":"WI","lng":"-88.84733","geonameId":5246814,"toponymName":"Brockway Hall","countryId":"6252001","fcl":"S","population":0,"countryCode":"US","name":"Brockway Hall","fclName":"spot, building, farm","adminCodes1":{"ISO3166_2":"WI"},"countryName":"United States","fcodeName":"building(s)","adminName1":"Wisconsin","lat":"43.8422","fcode":"BLDG"},{"adminCode1":"PA","lng":"-78.70681","geonameId":5181753,"toponymName":"Brockway Reservoir","countryId":"6252001","fcl":"H","population":0,"countryCode":"US","name":"Brockway Reservoir","fclName":"stream, lake, ...","adminCodes1":{"ISO3166_2":"PA"},"countryName":"United States","fcodeName":"reservoir(s)","adminName1":"Pennsylvania","lat":"41.23975","fcode":"RSV"},{"adminCode1":"PA","lng":"-78.72432","geonameId":5181754,"toponymName":"Brockway Reservoir","countryId":"6252001","fcl":"H","population":0,"countryCode":"US","name":"Brockway Reservoir","fclName":"stream, lake, ...","adminCodes1":{"ISO3166_2":"PA"},"countryName":"United States","fcodeName":"reservoir(s)","adminName1":"Pennsylvania","lat":"41.22427","fcode":"RSV"},{"adminCode1":"MI","lng":"-82.79167","geonameId":7314789,"toponymName":"Family First Health Care Clinic","countryId":"6252001","fcl":"S","population":0,"countryCode":"US","name":"Family First Health Care Clinic","fclName":"spot, building, farm","adminCodes1":{"ISO3166_2":"MI"},"countryName":"United States","fcodeName":"hospital","adminName1":"Michigan","lat":"43.115","fcode":"HSP"},{"adminCode1":"MI","lng":"-82.79167","geonameId":7314790,"toponymName":"Greater Yale Medical Clinic","countryId":"6252001","fcl":"S","population":0,"countryCode":"US","name":"Greater Yale Medical Clinic","fclName":"spot, building, farm","adminCodes1":{"ISO3166_2":"MI"},"countryName":"United States","fcodeName":"hospital","adminName1":"Michigan","lat":"43.11806","fcode":"HSP"},{"adminCode1":"MI","lng":"-82.78111","geonameId":7314791,"toponymName":"Emanuel Redeemer Evangelical Lutheran Church","countryId":"6252001","fcl":"S","population":0,"countryCode":"US","name":"Emanuel Redeemer Evangelical Lutheran Church","fclName":"spot, building, farm","adminCodes1":{"ISO3166_2":"MI"},"countryName":"United States","fcodeName":"church","adminName1":"Michigan","lat":"43.13056","fcode":"CH"},{"adminCode1":"MI","lng":"-82.78111","geonameId":7314792,"toponymName":"Emanuel Redeemer Evangelical Lutheran School","countryId":"6252001","fcl":"S","population":0,"countryCode":"US","name":"Emanuel Redeemer Evangelical Lutheran School","fclName":"spot, building, farm","adminCodes1":{"ISO3166_2":"MI"},"countryName":"United States","fcodeName":"school","adminName1":"Michigan","lat":"43.13056","fcode":"SCH"},{"adminCode1":"MI","lng":"-82.81271","geonameId":5007942,"toponymName":"Sacred Heart Cemetery","countryId":"6252001","fcl":"S","population":0,"countryCode":"US","name":"Sacred Heart Cemetery","fclName":"spot, building, farm","adminCodes1":{"ISO3166_2":"MI"},"countryName":"United States","fcodeName":"cemetery","adminName1":"Michigan","lat":"43.13058","fcode":"CMTY"},{"adminCode1":"MN","lng":"-94.3575","geonameId":5046328,"toponymName":"School Number 1915","countryId":"6252001","fcl":"S","population":0,"countryCode":"US","name":"School Number 1915","fclName":"spot, building, farm","adminCodes1":{"ISO3166_2":"MN"},"countryName":"United States","fcodeName":"school","adminName1":"Minnesota","lat":"45.69635","fcode":"SCH"},{"adminCode1":"MN","lng":"-94.33667","geonameId":5046331,"toponymName":"School Number 1921","countryId":"6252001","fcl":"S","population":0,"countryCode":"US","name":"School Number 1921","fclName":"spot, building, farm","adminCodes1":{"ISO3166_2":"MN"},"countryName":"United States","fcodeName":"school","adminName1":"Minnesota","lat":"45.74719","fcode":"SCH"},{"adminCode1":"MN","lng":"-94.28527","geonameId":5046350,"toponymName":"School Number 1984","countryId":"6252001","fcl":"S","population":0,"countryCode":"US","name":"School Number 1984","fclName":"spot, building, farm","adminCodes1":{"ISO3166_2":"MN"},"countryName":"United States","fcodeName":"school","adminName1":"Minnesota","lat":"45.71747","fcode":"SCH"},{"adminCode1":"MI","lng":"-82.85576","geonameId":4989280,"toponymName":"Cole Church","countryId":"6252001","fcl":"S","population":0,"countryCode":"US","name":"Cole Church","fclName":"spot, building, farm","adminCodes1":{"ISO3166_2":"MI"},"countryName":"United States","fcodeName":"church","adminName1":"Michigan","lat":"43.10003","fcode":"CH"},{"adminCode1":"MI","lng":"-82.81438","geonameId":4992065,"toponymName":"Elmwood Cemetery","countryId":"6252001","fcl":"S","population":0,"countryCode":"US","name":"Elmwood Cemetery","fclName":"spot, building, farm","adminCodes1":{"ISO3166_2":"MI"},"countryName":"United States","fcodeName":"cemetery","adminName1":"Michigan","lat":"43.13114","fcode":"CMTY"},{"adminCode1":"MI","lng":"-82.83854","geonameId":5001355,"toponymName":"McFadden Cemetery","countryId":"6252001","fcl":"S","population":0,"countryCode":"US","name":"McFadden Cemetery","fclName":"spot, building, farm","adminCodes1":{"ISO3166_2":"MI"},"countryName":"United States","fcodeName":"cemetery","adminName1":"Michigan","lat":"43.14447","fcode":"CMTY"},{"adminCode1":"MN","lng":"-94.36861","geonameId":5040292,"toponymName":"Opole Post Office (historical)","countryId":"6252001","fcl":"S","population":0,"countryCode":"US","name":"Opole Post Office (historical)","fclName":"spot, building, farm","adminCodes1":{"ISO3166_2":"MN"},"countryName":"United States","fcodeName":"post office","adminName1":"Minnesota","lat":"45.74667","fcode":"PO"}]}
