{"totalResultsCount":1759,"geonames":[{"adminCode1":"NY","lng":"-73.86641","geonameId":5110266,"toponymName":"The Bronx","countryId":"6252001","fcl":"P","population":1385108,"countryCode":"US","name":"Bronx","fclName":"city, village,...","adminCodes1":{"ISO3166_2":"NY"},"countryName":"United States","fcodeName":"seat of a second-order administrative division","adminName1":"New York","lat":"40.84985","fcode":"PPLA2"},{"adminCode1":"NY","lng":"-73.92357","geonameId":5110253,"toponymName":"Bronx County","countryId":"6252001","fcl":"A","population":1385108,"countryCode":"US","name":"Bronx County","fclName":"country, state, region,...","adminCodes1":{"ISO3166_2":"NY"},"countryName":"United States","fcodeName":"second-order administrative division","adminName1":"New York","lat":"40.82732","fcode":"ADM2"},{"adminCode1":"NY","lng":"-73.87833","geonameId":6348798,"toponymName":"Bronx Zoo","countryId":"6252001","fcl":"L","population":0,"countryCode":"US","name":"Bronx Zoo","fclName":"parks,area, ...","adminCodes1":{"ISO3166_2":"NY"},"countryName":"United States","fcodeName":"park","adminName1":"New York","lat":"40.85139","fcode":"PRK"},{"adminCode1":"NY","lng":"-73.89847","geonameId":5117549,"toponymName":"Fordham","countryId":"6252001","fcl":"P","population":94678,"countryCode":"US","name":"Fordham","fclName":"city, village,...","adminCodes1":{"ISO3166_2":"NY"},"countryName":"United States","fcodeName":"populated place","adminName1":"New York","lat":"40.85927","fcode":"PPL"},{"adminCode1":"NY","lng":"-73.85236","geonameId":5143056,"toponymName":"Wakefield","countryId":"6252001","fcl":"P","population":52201,"countryCode":"US","name":"Wakefield","fclName":"city, village,...","adminCodes1":{"ISO3166_2":"NY"},"countryName":"United States","fcodeName":"populated place","adminName1":"New York","lat":"40.89788","fcode":"PPL"},{"adminCode1":"NY","lng":"-73.86041","geonameId":5130572,"toponymName":"Parkchester","countryId":"6252001","fcl":"P","population":65876,"countryCode":"US","name":"Parkchester","fclName":"city, village,...","adminCodes1":{"ISO3166_2":"NY"},"countryName":"United States","fcodeName":"populated place","adminName1":"New York","lat":"40.83899","fcode":"PPL"},{"adminCode1":"NY","lng":"-73.87541","geonameId":5110260,"toponymName":"Bronx Park","countryId":"6252001","fcl":"L","population":0,"countryCode":"US","name":"Bronx Park","fclName":"parks,area, ...","adminCodes1":{"ISO3166_2":"NY"},"countryName":"United States","fcodeName":"park","adminName1":"New York","lat":"40.85677","fcode":"PRK"},{"adminCode1":"NY","lng":"-73.92083","geonameId":6348717,"toponymName":"Roberto Clemente State Park","countryId":"6252001","fcl":"L","population":0,"countryCode":"US","name":"Roberto Clemente State Park","fclName":"parks,area, ...","adminCodes1":{"ISO3166_2":"NY"},"countryName":"United States","fcodeName":"park","adminName1":"New York","lat":"40.85444","fcode":"PRK"},{"adminCode1":"NY","lng":"-73.88111","geonameId":7132596,"toponymName":"Hunts Point Riverside Park","countryId":"6252001","fcl":"L","population":0,"countryCode":"US","name":"Hunts Point Riverside Park","fclName":"parks,area, ...","adminCodes1":{"ISO3166_2":"NY"},"countryName":"United States","fcodeName":"park","adminName1":"New York","lat":"40.8175","fcode":"PRK"},{"adminCode1":"NY","lng":"-73.85639","geonameId":7155850,"toponymName":"Harding Park","countryId":"6252001","fcl":"L","population":0,"countryCode":"US","name":"Harding Park","fclName":"parks,area, ...","adminCodes1":{"ISO3166_2":"NY"},"countryName":"United States","fcodeName":"park","adminName1":"New York","lat":"40.80944","fcode":"PRK"},{"adminCode1":"NY","lng":"-73.91736","geonameId":5139356,"toponymName":"Spuyten Duyvil","countryId":"6252001","fcl":"P","population":10971,"countryCode":"US","name":"Spuyten Duyvil","fclName":"city, village,...","adminCodes1":{"ISO3166_2":"NY"},"countryName":"United States","fcodeName":"populated place","adminName1":"New York","lat":"40.88121","fcode":"PPL"},{"adminCode1":"NY","lng":"-73.90569","geonameId":5141342,"toponymName":"Tremont","countryId":"6252001","fcl":"P","population":22870,"countryCode":"US","name":"Tremont","fclName":"city, village,...","adminCodes1":{"ISO3166_2":"NY"},"countryName":"United States","fcodeName":"populated place","adminName1":"New York","lat":"40.84954","fcode":"PPL"},{"adminCode1":"NY","lng":"-73.9093","geonameId":5141963,"toponymName":"University Heights","countryId":"6252001","fcl":"P","population":27935,"countryCode":"US","name":"University Heights","fclName":"city, village,...","adminCodes1":{"ISO3166_2":"NY"},"countryName":"United States","fcodeName":"populated place","adminName1":"New York","lat":"40.8601","fcode":"PPL"},{"adminCode1":"NY","lng":"-73.88347","geonameId":5142150,"toponymName":"Van Cortlandt Park","countryId":"6252001","fcl":"L","population":0,"countryCode":"US","name":"Van Cortlandt Park","fclName":"parks,area, ...","adminCodes1":{"ISO3166_2":"NY"},"countryName":"United States","fcodeName":"park","adminName1":"New York","lat":"40.89788","fcode":"PRK"},{"adminCode1":"NY","lng":"-73.80791","geonameId":5130856,"toponymName":"Pelham Bay Park","countryId":"6252001","fcl":"L","population":0,"countryCode":"US","name":"Pelham Bay Park","fclName":"parks,area, ...","adminCodes1":{"ISO3166_2":"NY"},"countryName":"United States","fcodeName":"park","adminName1":"New York","lat":"40.86566","fcode":"PRK"},{"adminCode1":"NY","lng":"-73.91041","geonameId":5126550,"toponymName":"Melrose","countryId":"6252001","fcl":"P","population":22470,"countryCode":"US","name":"Melrose","fclName":"city, village,...","adminCodes1":{"ISO3166_2":"NY"},"countryName":"United States","fcodeName":"populated place","adminName1":"New York","lat":"40.82455","fcode":"PPL"},{"adminCode1":"NY","lng":"-73.85347","geonameId":5127542,"toponymName":"Morris Park","countryId":"6252001","fcl":"P","population":10289,"countryCode":"US","name":"Morris Park","fclName":"city, village,...","adminCodes1":{"ISO3166_2":"NY"},"countryName":"United States","fcodeName":"populated place","adminName1":"New York","lat":"40.85232","fcode":"PPL"},{"adminCode1":"NY","lng":"-73.90653","geonameId":5127550,"toponymName":"Morrisania","countryId":"6252001","fcl":"P","population":23127,"countryCode":"US","name":"Morrisania","fclName":"city, village,...","adminCodes1":{"ISO3166_2":"NY"},"countryName":"United States","fcodeName":"populated place","adminName1":"New York","lat":"40.82927","fcode":"PPL"},{"adminCode1":"NY","lng":"-73.89097","geonameId":5116083,"toponymName":"East Tremont","countryId":"6252001","fcl":"P","population":22886,"countryCode":"US","name":"East Tremont","fclName":"city, village,...","adminCodes1":{"ISO3166_2":"NY"},"countryName":"United States","fcodeName":"populated place","adminName1":"New York","lat":"40.84538","fcode":"PPL"},{"adminCode1":"NY","lng":"-73.83347","geonameId":5117049,"toponymName":"Ferry Point Park","countryId":"6252001","fcl":"L","population":0,"countryCode":"US","name":"Ferry Point Park","fclName":"parks,area, ...","adminCodes1":{"ISO3166_2":"NY"},"countryName":"United States","fcodeName":"park","adminName1":"New York","lat":"40.81288","fcode":"PRK"},{"adminCode1":"NY","lng":"-73.88402","geonameId":5121666,"toponymName":"Hunts Point","countryId":"6252001","fcl":"P","population":27204,"countryCode":"US","name":"Hunts Point","fclName":"city, village,...","adminCodes1":{"ISO3166_2":"NY"},"countryName":"United States","fcodeName":"populated place","adminName1":"New York","lat":"40.8126","fcode":"PPL"},{"adminCode1":"NY","lng":"-73.90514","geonameId":5123443,"toponymName":"Kings Bridge","countryId":"6252001","fcl":"P","population":75132,"countryCode":"US","name":"Kings Bridge","fclName":"city, village,...","adminCodes1":{"ISO3166_2":"NY"},"countryName":"United States","fcodeName":"populated place","adminName1":"New York","lat":"40.87871","fcode":"PPL"},{"adminCode1":"NY","lng":"-73.89514","geonameId":5114222,"toponymName":"Crotona Park","countryId":"6252001","fcl":"L","population":0,"countryCode":"US","name":"Crotona Park","fclName":"parks,area, ...","adminCodes1":{"ISO3166_2":"NY"},"countryName":"United States","fcodeName":"park","adminName1":"New York","lat":"40.83871","fcode":"PRK"},{"adminCode1":"NY","lng":"-73.90152","geonameId":5118166,"toponymName":"Gaelic Park","countryId":"6252001","fcl":"L","population":0,"countryCode":"US","name":"Gaelic Park","fclName":"parks,area, ...","adminCodes1":{"ISO3166_2":"NY"},"countryName":"United States","fcodeName":"park","adminName1":"New York","lat":"40.88732","fcode":"PRK"},{"adminCode1":"NY","lng":"-73.92694","geonameId":8479381,"toponymName":"Bridge Park","countryId":"6252001","fcl":"L","population":0,"countryCode":"US","name":"Bridge Park","fclName":"parks,area, ...","adminCodes1":{"ISO3166_2":"NY"},"countryName":"United States","fcodeName":"park","adminName1":"New York","lat":"40.84667","fcode":"PRK"},{"adminCode1":"NY","lng":"-73.86764","geonameId":5110262,"toponymName":"Bronx River","countryId":"6252001","fcl":"H","population":0,"countryCode":"US","name":"Bronx River","fclName":"stream, lake, ...","adminCodes1":{"ISO3166_2":"NY"},"countryName":"United States","fcodeName":"stream","adminName1":"New York","lat":"40.80816","fcode":"STM"},{"adminCode1":"NY","lng":"-73.86375","geonameId":5142182,"toponymName":"Van Nest","countryId":"6252001","fcl":"P","population":23700,"countryCode":"US","name":"Van Nest","fclName":"city, village,...","adminCodes1":{"ISO3166_2":"NY"},"countryName":"United States","fcodeName":"section of populated place","adminName1":"New York","lat":"40.84843","fcode":"PPLX"},{"adminCode1":"NY","lng":"-73.90361","geonameId":6352228,"toponymName":"Chapel Farm","countryId":"6252001","fcl":"S","population":0,"countryCode":"US","name":"Chapel Farm","fclName":"spot, building, farm","adminCodes1":{"ISO3166_2":"NY"},"countryName":"United States","fcodeName":"farm","adminName1":"New York","lat":"40.89833","fcode":"FRM"},{"adminCode1":"NY","lng":"-73.81444","geonameId":6348680,"toponymName":"Bicentennial Veterans Park At Weir Creek","countryId":"6252001","fcl":"L","population":0,"countryCode":"US","name":"Bicentennial Veterans Park At Weir Creek","fclName":"parks,area, ...","adminCodes1":{"ISO3166_2":"NY"},"countryName":"United States","fcodeName":"park","adminName1":"New York","lat":"40.82389","fcode":"PRK"},{"adminCode1":"NY","lng":"-73.89556","geonameId":7158355,"toponymName":"Tremont Park","countryId":"6252001","fcl":"L","population":0,"countryCode":"US","name":"Tremont Park","fclName":"parks,area, ...","adminCodes1":{"ISO3166_2":"NY"},"countryName":"United States","fcodeName":"park","adminName1":"New York","lat":"40.845","fcode":"PRK"},{"adminCode1":"NY","lng":"-73.89806","geonameId":7158376,"toponymName":"Muller Triangle","countryId":"6252001","fcl":"L","population":0,"countryCode":"US","name":"Muller Triangle","fclName":"parks,area, ...","adminCodes1":{"ISO3166_2":"NY"},"countryName":"United States","fcodeName":"park","adminName1":"New York","lat":"40.8625","fcode":"PRK"},{"adminCode1":"NY","lng":"-73.91417","geonameId":7158453,"toponymName":"Arcilla Playground","countryId":"6252001","fcl":"L","population":0,"countryCode":"US","name":"Arcilla Playground","fclName":"parks,area, ...","adminCodes1":{"ISO3166_2":"NY"},"countryName":"United States","fcodeName":"park","adminName1":"New York","lat":"40.82694","fcode":"PRK"},{"adminCode1":"NY","lng":"-73.9032","geonameId":7184844,"toponymName":"Keskeskick (historical)","countryId":"6252001","fcl":"L","population":0,"countryCode":"US","name":"Keskeskick (historical)","fclName":"parks,area, ...","adminCodes1":{"ISO3166_2":"NY"},"countryName":"United States","fcodeName":"area","adminName1":"New York","lat":"40.8591","fcode":"AREA"},{"adminCode1":"NY","lng":"-73.90639","geonameId":5133917,"toponymName":"Riverdale","countryId":"6252001","fcl":"P","population":9174,"countryCode":"US","name":"Riverdale","fclName":"city, village,...","adminCodes1":{"ISO3166_2":"NY"},"countryName":"United States","fcodeName":"populated place","adminName1":"New York","lat":"40.90056","fcode":"PPL"},{"adminCode1":"NY","lng":"-73.80097","geonameId":5134246,"toponymName":"Rodman Neck","countryId":"6252001","fcl":"T","population":0,"countryCode":"US","name":"Rodman Neck","fclName":"mountain,hill,rock,... ","adminCodes1":{"ISO3166_2":"NY"},"countryName":"United States","fcodeName":"cape","adminName1":"New York","lat":"40.85343","fcode":"CAPE"},{"adminCode1":"NY","lng":"-73.81958","geonameId":5140945,"toponymName":"Throgs Neck","countryId":"6252001","fcl":"P","population":33683,"countryCode":"US","name":"Throgs Neck","fclName":"city, village,...","adminCodes1":{"ISO3166_2":"NY"},"countryName":"United States","fcodeName":"populated place","adminName1":"New York","lat":"40.8226","fcode":"PPL"},{"adminCode1":"NY","lng":"-73.92291","geonameId":5127670,"toponymName":"Mott Haven","countryId":"6252001","fcl":"P","population":51450,"countryCode":"US","name":"Mott Haven","fclName":"city, village,...","adminCodes1":{"ISO3166_2":"NY"},"countryName":"United States","fcodeName":"populated place","adminName1":"New York","lat":"40.80899","fcode":"PPL"},{"adminCode1":"NY","lng":"-73.92617","geonameId":5145179,"toponymName":"Yankee Stadium","countryId":"6252001","fcl":"S","population":0,"countryCode":"US","name":"Yankee Stadium","fclName":"spot, building, farm","adminCodes1":{"ISO3166_2":"NY"},"countryName":"United States","fcodeName":"stadium","adminName1":"New York","lat":"40.82964","fcode":"STDM"},{"adminCode1":"NY","lng":"-73.92264","geonameId":5122915,"toponymName":"Joyce Kilmer Park","countryId":"6252001","fcl":"L","population":0,"countryCode":"US","name":"Joyce Kilmer Park","fclName":"parks,area, ...","adminCodes1":{"ISO3166_2":"NY"},"countryName":"United States","fcodeName":"park","adminName1":"New York","lat":"40.82843","fcode":"PRK"},{"adminCode1":"NY","lng":"-73.78652","geonameId":5112735,"toponymName":"City Island","countryId":"6252001","fcl":"P","population":4362,"countryCode":"US","name":"City Island","fclName":"city, village,...","adminCodes1":{"ISO3166_2":"NY"},"countryName":"United States","fcodeName":"populated place","adminName1":"New York","lat":"40.84732","fcode":"PPL"},{"adminCode1":"NY","lng":"-73.84917","geonameId":5112852,"toponymName":"Clason Point","countryId":"6252001","fcl":"T","population":0,"countryCode":"US","name":"Clason Point","fclName":"mountain,hill,rock,... ","adminCodes1":{"ISO3166_2":"NY"},"countryName":"United States","fcodeName":"cape","adminName1":"New York","lat":"40.80556","fcode":"CAPE"},{"adminCode1":"WY","lng":"-110.11572","geonameId":5819656,"toponymName":"Bronx","countryId":"6252001","fcl":"P","population":0,"countryCode":"US","name":"Bronx","fclName":"city, village,...","adminCodes1":{"ISO3166_2":"WY"},"countryName":"United States","fcodeName":"populated place","adminName1":"Wyoming","lat":"42.99272","fcode":"PPL"},{"adminCode1":"NY","lng":"-73.82804","geonameId":5116119,"toponymName":"Eastchester","countryId":"6252001","fcl":"P","population":5000,"countryCode":"US","name":"Eastchester","fclName":"city, village,...","adminCodes1":{"ISO3166_2":"NY"},"countryName":"United States","fcodeName":"section of populated place","adminName1":"New York","lat":"40.88601","fcode":"PPLX"},{"adminCode1":"NY","lng":"-73.89444","geonameId":7158373,"toponymName":"A Farm In The Bronx","countryId":"6252001","fcl":"L","population":0,"countryCode":"US","name":"A Farm In The Bronx","fclName":"parks,area, ...","adminCodes1":{"ISO3166_2":"NY"},"countryName":"United States","fcodeName":"park","adminName1":"New York","lat":"40.8525","fcode":"PRK"},{"adminCode1":"NY","lng":"-73.88306","geonameId":7158516,"toponymName":"Bronx River Park","countryId":"6252001","fcl":"L","population":0,"countryCode":"US","name":"Bronx River Park","fclName":"parks,area, ...","adminCodes1":{"ISO3166_2":"NY"},"countryName":"United States","fcodeName":"park","adminName1":"New York","lat":"40.83139","fcode":"PRK"},{"adminCode1":"NY","lng":"-73.85833","geonameId":6352257,"toponymName":"Woodrow Wilson Triangle","countryId":"6252001","fcl":"L","population":0,"countryCode":"US","name":"Woodrow Wilson Triangle","fclName":"parks,area, ...","adminCodes1":{"ISO3166_2":"NY"},"countryName":"United States","fcodeName":"park","adminName1":"New York","lat":"40.81333","fcode":"PRK"},{"adminCode1":"NY","lng":"-73.88861","geonameId":6352258,"toponymName":"Bryant Triangle","countryId":"6252001","fcl":"L","population":0,"countryCode":"US","name":"Bryant Triangle","fclName":"parks,area, ...","adminCodes1":{"ISO3166_2":"NY"},"countryName":"United States","fcodeName":"park","adminName1":"New York","lat":"40.82667","fcode":"PRK"},{"adminCode1":"NY","lng":"-73.85056","geonameId":6352265,"toponymName":"Church Triangle","countryId":"6252001","fcl":"L","population":0,"countryCode":"US","name":"Church Triangle","fclName":"parks,area, ...","adminCodes1":{"ISO3166_2":"NY"},"countryName":"United States","fcodeName":"park","adminName1":"New York","lat":"40.82972","fcode":"PRK"},{"adminCode1":"NY","lng":"-73.81972","geonameId":6332658,"toponymName":"Country Club","countryId":"6252001","fcl":"P","population":0,"countryCode":"US","name":"Country Club","fclName":"city, village,...","adminCodes1":{"ISO3166_2":"NY"},"countryName":"United States","fcodeName":"populated place","adminName1":"New York","lat":"40.83917","fcode":"PPL"},{"adminCode1":"NY","lng":"-73.82944","geonameId":6332659,"toponymName":"Co-Op City","countryId":"6252001","fcl":"P","population":0,"countryCode":"US","name":"Co-Op City","fclName":"city, village,...","adminCodes1":{"ISO3166_2":"NY"},"countryName":"United States","fcodeName":"populated place","adminName1":"New York","lat":"40.87389","fcode":"PPL"},{"adminCode1":"NY","lng":"-73.80639","geonameId":6332670,"toponymName":"Silver Beach","countryId":"6252001","fcl":"P","population":0,"countryCode":"US","name":"Silver Beach","fclName":"city, village,...","adminCodes1":{"ISO3166_2":"NY"},"countryName":"United States","fcodeName":"populated place","adminName1":"New York","lat":"40.81167","fcode":"PPL"},{"adminCode1":"NY","lng":"-73.85278","geonameId":6348678,"toponymName":"Eastchester Playground","countryId":"6252001","fcl":"L","population":0,"countryCode":"US","name":"Eastchester Playground","fclName":"parks,area, ...","adminCodes1":{"ISO3166_2":"NY"},"countryName":"United States","fcodeName":"park","adminName1":"New York","lat":"40.86972","fcode":"PRK"},{"adminCode1":"NY","lng":"-73.82583","geonameId":6348716,"toponymName":"Schneider-Sampson Park","countryId":"6252001","fcl":"L","population":0,"countryCode":"US","name":"Schneider-Sampson Park","fclName":"parks,area, ...","adminCodes1":{"ISO3166_2":"NY"},"countryName":"United States","fcodeName":"park","adminName1":"New York","lat":"40.83611","fcode":"PRK"},{"adminCode1":"NY","lng":"-73.89806","geonameId":6348720,"toponymName":"George Farkas Square","countryId":"6252001","fcl":"L","population":0,"countryCode":"US","name":"George Farkas Square","fclName":"parks,area, ...","adminCodes1":{"ISO3166_2":"NY"},"countryName":"United States","fcodeName":"park","adminName1":"New York","lat":"40.8625","fcode":"PRK"},{"adminCode1":"NY","lng":"-73.89667","geonameId":6348769,"toponymName":"Sheridan Triangle","countryId":"6252001","fcl":"L","population":0,"countryCode":"US","name":"Sheridan Triangle","fclName":"parks,area, ...","adminCodes1":{"ISO3166_2":"NY"},"countryName":"United States","fcodeName":"park","adminName1":"New York","lat":"40.90472","fcode":"PRK"},{"adminCode1":"NY","lng":"-73.89972","geonameId":6348773,"toponymName":"Barnhill Triangle","countryId":"6252001","fcl":"L","population":0,"countryCode":"US","name":"Barnhill Triangle","fclName":"parks,area, ...","adminCodes1":{"ISO3166_2":"NY"},"countryName":"United States","fcodeName":"park","adminName1":"New York","lat":"40.86806","fcode":"PRK"},{"adminCode1":"NY","lng":"-73.89028","geonameId":6348775,"toponymName":"Rose Hill Park","countryId":"6252001","fcl":"L","population":0,"countryCode":"US","name":"Rose Hill Park","fclName":"parks,area, ...","adminCodes1":{"ISO3166_2":"NY"},"countryName":"United States","fcodeName":"park","adminName1":"New York","lat":"40.86222","fcode":"PRK"},{"adminCode1":"NY","lng":"-73.89778","geonameId":6348778,"toponymName":"Horseshoe Park","countryId":"6252001","fcl":"L","population":0,"countryCode":"US","name":"Horseshoe Park","fclName":"parks,area, ...","adminCodes1":{"ISO3166_2":"NY"},"countryName":"United States","fcodeName":"park","adminName1":"New York","lat":"40.82389","fcode":"PRK"},{"adminCode1":"NY","lng":"-73.89139","geonameId":6348779,"toponymName":"Corporal Walter J Fufidio Square","countryId":"6252001","fcl":"L","population":0,"countryCode":"US","name":"Corporal Walter J Fufidio Square","fclName":"parks,area, ...","adminCodes1":{"ISO3166_2":"NY"},"countryName":"United States","fcodeName":"park","adminName1":"New York","lat":"40.81361","fcode":"PRK"},{"adminCode1":"NY","lng":"-73.91139","geonameId":6348804,"toponymName":"O'Neill Triangle","countryId":"6252001","fcl":"L","population":0,"countryCode":"US","name":"O'Neill Triangle","fclName":"parks,area, ...","adminCodes1":{"ISO3166_2":"NY"},"countryName":"United States","fcodeName":"park","adminName1":"New York","lat":"40.82361","fcode":"PRK"},{"adminCode1":"NY","lng":"-73.90417","geonameId":7158352,"toponymName":"Cleopatra Park","countryId":"6252001","fcl":"L","population":0,"countryCode":"US","name":"Cleopatra Park","fclName":"parks,area, ...","adminCodes1":{"ISO3166_2":"NY"},"countryName":"United States","fcodeName":"park","adminName1":"New York","lat":"40.84528","fcode":"PRK"},{"adminCode1":"NY","lng":"-73.89083","geonameId":7158370,"toponymName":"Flood Triangle","countryId":"6252001","fcl":"L","population":0,"countryCode":"US","name":"Flood Triangle","fclName":"parks,area, ...","adminCodes1":{"ISO3166_2":"NY"},"countryName":"United States","fcodeName":"park","adminName1":"New York","lat":"40.85833","fcode":"PRK"},{"adminCode1":"NY","lng":"-73.90528","geonameId":7158389,"toponymName":"Mount Hope Garden","countryId":"6252001","fcl":"L","population":0,"countryCode":"US","name":"Mount Hope Garden","fclName":"parks,area, ...","adminCodes1":{"ISO3166_2":"NY"},"countryName":"United States","fcodeName":"park","adminName1":"New York","lat":"40.8525","fcode":"PRK"},{"adminCode1":"NY","lng":"-73.91556","geonameId":7158393,"toponymName":"Galileo Park","countryId":"6252001","fcl":"L","population":0,"countryCode":"US","name":"Galileo Park","fclName":"parks,area, ...","adminCodes1":{"ISO3166_2":"NY"},"countryName":"United States","fcodeName":"park","adminName1":"New York","lat":"40.84889","fcode":"PRK"},{"adminCode1":"NY","lng":"-73.91667","geonameId":7158394,"toponymName":"Beanstalk Playground","countryId":"6252001","fcl":"L","population":0,"countryCode":"US","name":"Beanstalk Playground","fclName":"parks,area, ...","adminCodes1":{"ISO3166_2":"NY"},"countryName":"United States","fcodeName":"park","adminName1":"New York","lat":"40.85389","fcode":"PRK"},{"adminCode1":"NY","lng":"-73.91917","geonameId":7158399,"toponymName":"Brook Park","countryId":"6252001","fcl":"L","population":0,"countryCode":"US","name":"Brook Park","fclName":"parks,area, ...","adminCodes1":{"ISO3166_2":"NY"},"countryName":"United States","fcodeName":"park","adminName1":"New York","lat":"40.80972","fcode":"PRK"},{"adminCode1":"NY","lng":"-73.89722","geonameId":7158428,"toponymName":"Bill Rainey Park","countryId":"6252001","fcl":"L","population":0,"countryCode":"US","name":"Bill Rainey Park","fclName":"parks,area, ...","adminCodes1":{"ISO3166_2":"NY"},"countryName":"United States","fcodeName":"park","adminName1":"New York","lat":"40.81972","fcode":"PRK"},{"adminCode1":"NY","lng":"-73.91028","geonameId":7158433,"toponymName":"I Am Park","countryId":"6252001","fcl":"L","population":0,"countryCode":"US","name":"I Am Park","fclName":"parks,area, ...","adminCodes1":{"ISO3166_2":"NY"},"countryName":"United States","fcodeName":"park","adminName1":"New York","lat":"40.81111","fcode":"PRK"},{"adminCode1":"NY","lng":"-73.92361","geonameId":7158435,"toponymName":"Willis Playground","countryId":"6252001","fcl":"L","population":0,"countryCode":"US","name":"Willis Playground","fclName":"parks,area, ...","adminCodes1":{"ISO3166_2":"NY"},"countryName":"United States","fcodeName":"park","adminName1":"New York","lat":"40.81083","fcode":"PRK"},{"adminCode1":"NY","lng":"-73.91889","geonameId":7158442,"toponymName":"Mayaro Playground","countryId":"6252001","fcl":"L","population":0,"countryCode":"US","name":"Mayaro Playground","fclName":"parks,area, ...","adminCodes1":{"ISO3166_2":"NY"},"countryName":"United States","fcodeName":"park","adminName1":"New York","lat":"40.82056","fcode":"PRK"},{"adminCode1":"NY","lng":"-73.90667","geonameId":7158443,"toponymName":"Captain Rivera Playground","countryId":"6252001","fcl":"L","population":0,"countryCode":"US","name":"Captain Rivera Playground","fclName":"parks,area, ...","adminCodes1":{"ISO3166_2":"NY"},"countryName":"United States","fcodeName":"park","adminName1":"New York","lat":"40.81806","fcode":"PRK"},{"adminCode1":"NY","lng":"-73.90611","geonameId":7158450,"toponymName":"Dunbar Playground","countryId":"6252001","fcl":"L","population":0,"countryCode":"US","name":"Dunbar Playground","fclName":"parks,area, ...","adminCodes1":{"ISO3166_2":"NY"},"countryName":"United States","fcodeName":"park","adminName1":"New York","lat":"40.82333","fcode":"PRK"},{"adminCode1":"NY","lng":"-73.915","geonameId":7158452,"toponymName":"Railroad Park","countryId":"6252001","fcl":"L","population":0,"countryCode":"US","name":"Railroad Park","fclName":"parks,area, ...","adminCodes1":{"ISO3166_2":"NY"},"countryName":"United States","fcodeName":"park","adminName1":"New York","lat":"40.825","fcode":"PRK"},{"adminCode1":"NY","lng":"-73.88611","geonameId":7158502,"toponymName":"Hunts Point Playground","countryId":"6252001","fcl":"L","population":0,"countryCode":"US","name":"Hunts Point Playground","fclName":"parks,area, ...","adminCodes1":{"ISO3166_2":"NY"},"countryName":"United States","fcodeName":"park","adminName1":"New York","lat":"40.81417","fcode":"PRK"},{"adminCode1":"NY","lng":"-73.88917","geonameId":7158503,"toponymName":"Julio Carballo Field","countryId":"6252001","fcl":"L","population":0,"countryCode":"US","name":"Julio Carballo Field","fclName":"parks,area, ...","adminCodes1":{"ISO3166_2":"NY"},"countryName":"United States","fcodeName":"park","adminName1":"New York","lat":"40.81583","fcode":"PRK"},{"adminCode1":"NY","lng":"-73.89083","geonameId":7158506,"toponymName":"Sunnyvale Courts","countryId":"6252001","fcl":"L","population":0,"countryCode":"US","name":"Sunnyvale Courts","fclName":"parks,area, ...","adminCodes1":{"ISO3166_2":"NY"},"countryName":"United States","fcodeName":"park","adminName1":"New York","lat":"40.82333","fcode":"PRK"},{"adminCode1":"NY","lng":"-73.89417","geonameId":7158509,"toponymName":"Tiffany Playground","countryId":"6252001","fcl":"L","population":0,"countryCode":"US","name":"Tiffany Playground","fclName":"parks,area, ...","adminCodes1":{"ISO3166_2":"NY"},"countryName":"United States","fcodeName":"park","adminName1":"New York","lat":"40.825","fcode":"PRK"},{"adminCode1":"NY","lng":"-73.89861","geonameId":7158522,"toponymName":"Stebbins Playground","countryId":"6252001","fcl":"L","population":0,"countryCode":"US","name":"Stebbins Playground","fclName":"parks,area, ...","adminCodes1":{"ISO3166_2":"NY"},"countryName":"United States","fcodeName":"park","adminName1":"New York","lat":"40.82278","fcode":"PRK"},{"adminCode1":"NY","lng":"-73.90139","geonameId":7158524,"toponymName":"Basil Behagen Playground","countryId":"6252001","fcl":"L","population":0,"countryCode":"US","name":"Basil Behagen Playground","fclName":"parks,area, ...","adminCodes1":{"ISO3166_2":"NY"},"countryName":"United States","fcodeName":"park","adminName1":"New York","lat":"40.82556","fcode":"PRK"},{"adminCode1":"NY","lng":"-73.90417","geonameId":7158529,"toponymName":"Hines Park","countryId":"6252001","fcl":"L","population":0,"countryCode":"US","name":"Hines Park","fclName":"parks,area, ...","adminCodes1":{"ISO3166_2":"NY"},"countryName":"United States","fcodeName":"park","adminName1":"New York","lat":"40.83028","fcode":"PRK"},{"adminCode1":"NY","lng":"-73.90333","geonameId":7158530,"toponymName":"Drew Playground","countryId":"6252001","fcl":"L","population":0,"countryCode":"US","name":"Drew Playground","fclName":"parks,area, ...","adminCodes1":{"ISO3166_2":"NY"},"countryName":"United States","fcodeName":"park","adminName1":"New York","lat":"40.83333","fcode":"PRK"},{"adminCode1":"NY","lng":"-73.90361","geonameId":7155393,"toponymName":"Brust Park","countryId":"6252001","fcl":"L","population":0,"countryCode":"US","name":"Brust Park","fclName":"parks,area, ...","adminCodes1":{"ISO3166_2":"NY"},"countryName":"United States","fcodeName":"park","adminName1":"New York","lat":"40.88972","fcode":"PRK"},{"adminCode1":"NY","lng":"-73.91778","geonameId":7155399,"toponymName":"Raoul Wallenberg Forest","countryId":"6252001","fcl":"L","population":0,"countryCode":"US","name":"Raoul Wallenberg Forest","fclName":"parks,area, ...","adminCodes1":{"ISO3166_2":"NY"},"countryName":"United States","fcodeName":"park","adminName1":"New York","lat":"40.88639","fcode":"PRK"},{"adminCode1":"NY","lng":"-73.90528","geonameId":7155835,"toponymName":"Vinmont Veteran Park","countryId":"6252001","fcl":"L","population":0,"countryCode":"US","name":"Vinmont Veteran Park","fclName":"parks,area, ...","adminCodes1":{"ISO3166_2":"NY"},"countryName":"United States","fcodeName":"park","adminName1":"New York","lat":"40.90222","fcode":"PRK"},{"adminCode1":"NY","lng":"-73.85056","geonameId":7155837,"toponymName":"Allerton Playground","countryId":"6252001","fcl":"L","population":0,"countryCode":"US","name":"Allerton Playground","fclName":"parks,area, ...","adminCodes1":{"ISO3166_2":"NY"},"countryName":"United States","fcodeName":"park","adminName1":"New York","lat":"40.86611","fcode":"PRK"},{"adminCode1":"NY","lng":"-73.78417","geonameId":7155838,"toponymName":"Ambrosini Field","countryId":"6252001","fcl":"L","population":0,"countryCode":"US","name":"Ambrosini Field","fclName":"parks,area, ...","adminCodes1":{"ISO3166_2":"NY"},"countryName":"United States","fcodeName":"park","adminName1":"New York","lat":"40.84417","fcode":"PRK"},{"adminCode1":"NY","lng":"-73.84278","geonameId":7155855,"toponymName":"Lynch Triangle","countryId":"6252001","fcl":"L","population":0,"countryCode":"US","name":"Lynch Triangle","fclName":"parks,area, ...","adminCodes1":{"ISO3166_2":"NY"},"countryName":"United States","fcodeName":"park","adminName1":"New York","lat":"40.86889","fcode":"PRK"},{"adminCode1":"NY","lng":"-73.85833","geonameId":7155858,"toponymName":"Mazzei Playground","countryId":"6252001","fcl":"L","population":0,"countryCode":"US","name":"Mazzei Playground","fclName":"parks,area, ...","adminCodes1":{"ISO3166_2":"NY"},"countryName":"United States","fcodeName":"park","adminName1":"New York","lat":"40.8625","fcode":"PRK"},{"adminCode1":"NY","lng":"-73.85139","geonameId":7156148,"toponymName":"Police Officer Hilario Serrano Playground","countryId":"6252001","fcl":"L","population":0,"countryCode":"US","name":"Police Officer Hilario Serrano Playground","fclName":"parks,area, ...","adminCodes1":{"ISO3166_2":"NY"},"countryName":"United States","fcodeName":"park","adminName1":"New York","lat":"40.82333","fcode":"PRK"},{"adminCode1":"NY","lng":"-73.84972","geonameId":7156149,"toponymName":"Randall Playground","countryId":"6252001","fcl":"L","population":0,"countryCode":"US","name":"Randall Playground","fclName":"parks,area, ...","adminCodes1":{"ISO3166_2":"NY"},"countryName":"United States","fcodeName":"park","adminName1":"New York","lat":"40.81917","fcode":"PRK"},{"adminCode1":"NY","lng":"-73.86306","geonameId":7156153,"toponymName":"Story Playground","countryId":"6252001","fcl":"L","population":0,"countryCode":"US","name":"Story Playground","fclName":"parks,area, ...","adminCodes1":{"ISO3166_2":"NY"},"countryName":"United States","fcodeName":"park","adminName1":"New York","lat":"40.82306","fcode":"PRK"},{"adminCode1":"NY","lng":"-73.85389","geonameId":7156154,"toponymName":"Susan Caserta Playground","countryId":"6252001","fcl":"L","population":0,"countryCode":"US","name":"Susan Caserta Playground","fclName":"parks,area, ...","adminCodes1":{"ISO3166_2":"NY"},"countryName":"United States","fcodeName":"park","adminName1":"New York","lat":"40.8375","fcode":"PRK"},{"adminCode1":"NY","lng":"-73.85861","geonameId":7156164,"toponymName":"Rienzi Playground","countryId":"6252001","fcl":"L","population":0,"countryCode":"US","name":"Rienzi Playground","fclName":"parks,area, ...","adminCodes1":{"ISO3166_2":"NY"},"countryName":"United States","fcodeName":"park","adminName1":"New York","lat":"40.8875","fcode":"PRK"},{"adminCode1":"NY","lng":"-73.90389","geonameId":7156169,"toponymName":"Claremont Community Park","countryId":"6252001","fcl":"L","population":0,"countryCode":"US","name":"Claremont Community Park","fclName":"parks,area, ...","adminCodes1":{"ISO3166_2":"NY"},"countryName":"United States","fcodeName":"park","adminName1":"New York","lat":"40.83889","fcode":"PRK"},{"adminCode1":"NY","lng":"-73.89764","geonameId":5138791,"toponymName":"South Brother Island","countryId":"6252001","fcl":"T","population":0,"countryCode":"US","name":"South Brother Island","fclName":"mountain,hill,rock,... ","adminCodes1":{"ISO3166_2":"NY"},"countryName":"United States","fcodeName":"island","adminName1":"New York","lat":"40.79621","fcode":"ISL"},{"adminCode1":"NY","lng":"-73.78124","geonameId":5133441,"toponymName":"Rat Island","countryId":"6252001","fcl":"T","population":0,"countryCode":"US","name":"Rat Island","fclName":"mountain,hill,rock,... ","adminCodes1":{"ISO3166_2":"NY"},"countryName":"United States","fcodeName":"island","adminName1":"New York","lat":"40.85482","fcode":"ISL"},{"adminCode1":"NY","lng":"-73.88097","geonameId":5133874,"toponymName":"Rikers Island","countryId":"6252001","fcl":"T","population":0,"countryCode":"US","name":"Rikers Island","fclName":"mountain,hill,rock,... ","adminCodes1":{"ISO3166_2":"NY"},"countryName":"United States","fcodeName":"island","adminName1":"New York","lat":"40.79066","fcode":"ISL"},{"adminCode1":"NY","lng":"-73.91208","geonameId":5135689,"toponymName":"Saint Marys Park","countryId":"6252001","fcl":"L","population":0,"countryCode":"US","name":"Saint Marys Park","fclName":"parks,area, ...","adminCodes1":{"ISO3166_2":"NY"},"countryName":"United States","fcodeName":"park","adminName1":"New York","lat":"40.81149","fcode":"PRK"},{"adminCode1":"NY","lng":"-73.80291","geonameId":5140946,"toponymName":"Throgs Neck","countryId":"6252001","fcl":"T","population":0,"countryCode":"US","name":"Throgs Neck","fclName":"mountain,hill,rock,... ","adminCodes1":{"ISO3166_2":"NY"},"countryName":"United States","fcodeName":"cape","adminName1":"New York","lat":"40.80982","fcode":"CAPE"},{"adminCode1":"NY","lng":"-73.78569","geonameId":5141687,"toponymName":"Twin Island","countryId":"6252001","fcl":"T","population":0,"countryCode":"US","name":"Twin Island","fclName":"mountain,hill,rock,... ","adminCodes1":{"ISO3166_2":"NY"},"countryName":"United States","fcodeName":"island","adminName1":"New York","lat":"40.87121","fcode":"ISL"}]}
