{"totalResultsCount":642,"geonames":[{"adminCode1":"AZ","lng":"-112.58378","geonameId":5287262,"toponymName":"Buckeye","countryId":"6252001","fcl":"P","population":50876,"countryCode":"US","name":"Buckeye","fclName":"city, village,...","adminCodes1":{"ISO3166_2":"AZ"},"countryName":"United States","fcodeName":"populated place","adminName1":"Arizona","lat":"33.37032","fcode":"PPL"},{"adminCode1":"AZ","lng":"-112.68397","geonameId":5287280,"toponymName":"Buckeye Municipal Airport","countryId":"6252001","fcl":"S","population":0,"countryCode":"US","name":"Buckeye Municipal Airport","fclName":"spot, building, farm","adminCodes1":{"ISO3166_2":"AZ"},"countryName":"United States","fcodeName":"airport","adminName1":"Arizona","lat":"33.42137","fcode":"AIRP"},{"adminCode1":"OH","lng":"-83.00018","geonameId":5165418,"toponymName":"Ohio","countryId":"6252001","fcl":"A","population":11467123,"countryCode":"US","name":"Ohio","fclName":"country, state, region,...","adminCodes1":{"ISO3166_2":"OH"},"countryName":"United States","fcodeName":"first-order administrative division","adminName1":"Ohio","lat":"40.25034","fcode":"ADM1"},{"adminCode1":"IA","lng":"-93.37493","geonameId":4849643,"toponymName":"Buckeye","countryId":"6252001","fcl":"P","population":108,"countryCode":"US","name":"Buckeye","fclName":"city, village,...","adminCodes1":{"ISO3166_2":"IA"},"countryName":"United States","fcodeName":"populated place","adminName1":"Iowa","lat":"42.4172","fcode":"PPL"},{"adminCode1":"FL","lng":"-81.70593","geonameId":4149224,"toponymName":"Lake Buckeye","countryId":"6252001","fcl":"H","population":0,"countryCode":"US","name":"Lake Buckeye","fclName":"stream, lake, ...","adminCodes1":{"ISO3166_2":"FL"},"countryName":"United States","fcodeName":"lake","adminName1":"Florida","lat":"28.04045","fcode":"LK"},{"adminCode1":"OH","lng":"-82.54053","geonameId":4507369,"toponymName":"Buckeye Airport","countryId":"6252001","fcl":"S","population":0,"countryCode":"US","name":"Buckeye Airport","fclName":"spot, building, farm","adminCodes1":{"ISO3166_2":"OH"},"countryName":"United States","fcodeName":"airport","adminName1":"Ohio","lat":"39.9637","fcode":"AIRP"},{"adminCode1":"AZ","lng":"-112.65139","geonameId":5287275,"toponymName":"Buckeye Hills Regional Park","countryId":"6252001","fcl":"L","population":0,"countryCode":"US","name":"Buckeye Hills Regional Park","fclName":"parks,area, ...","adminCodes1":{"ISO3166_2":"AZ"},"countryName":"United States","fcodeName":"park","adminName1":"Arizona","lat":"33.28806","fcode":"PRK"},{"adminCode1":"OH","lng":"-81.59529","geonameId":8062672,"toponymName":"Buckeye Shaker","countryId":"6252001","fcl":"P","population":0,"countryCode":"US","name":"Buckeye Shaker","fclName":"city, village,...","adminCodes1":{"ISO3166_2":"OH"},"countryName":"United States","fcodeName":"populated place","adminName1":"Ohio","lat":"41.48061","fcode":"PPL"},{"adminCode1":"KS","lng":"-99.3282","geonameId":4268772,"toponymName":"Township of Buckeye","countryId":"6252001","fcl":"A","population":0,"countryCode":"US","name":"Buckeye Township","fclName":"country, state, region,...","adminCodes1":{"ISO3166_2":"KS"},"countryName":"United States","fcodeName":"third-order administrative division","adminName1":"Kansas","lat":"39.03332","fcode":"ADM3"},{"adminCode1":"KS","lng":"-97.52887","geonameId":4268773,"toponymName":"Township of Buckeye","countryId":"6252001","fcl":"A","population":0,"countryCode":"US","name":"Buckeye Township","fclName":"country, state, region,...","adminCodes1":{"ISO3166_2":"KS"},"countryName":"United States","fcodeName":"third-order administrative division","adminName1":"Kansas","lat":"39.00165","fcode":"ADM3"},{"adminCode1":"KS","lng":"-97.20416","geonameId":4268775,"toponymName":"Township of Buckeye","countryId":"6252001","fcl":"A","population":0,"countryCode":"US","name":"Buckeye Township","fclName":"country, state, region,...","adminCodes1":{"ISO3166_2":"KS"},"countryName":"United States","fcodeName":"third-order administrative division","adminName1":"Kansas","lat":"39.00261","fcode":"ADM3"},{"adminCode1":"IA","lng":"-93.40479","geonameId":4849668,"toponymName":"Township of Buckeye","countryId":"6252001","fcl":"A","population":0,"countryCode":"US","name":"Buckeye Township","fclName":"country, state, region,...","adminCodes1":{"ISO3166_2":"IA"},"countryName":"United States","fcodeName":"third-order administrative division","adminName1":"Iowa","lat":"42.42711","fcode":"ADM3"},{"adminCode1":"MI","lng":"-84.42418","geonameId":4987273,"toponymName":"Township of Buckeye","countryId":"6252001","fcl":"A","population":0,"countryCode":"US","name":"Buckeye Township","fclName":"country, state, region,...","adminCodes1":{"ISO3166_2":"MI"},"countryName":"United States","fcodeName":"third-order administrative division","adminName1":"Michigan","lat":"43.94307","fcode":"ADM3"},{"adminCode1":"IL","lng":"-89.63317","geonameId":4886857,"toponymName":"Cedarville","countryId":"6252001","fcl":"P","population":716,"countryCode":"US","name":"Cedarville","fclName":"city, village,...","adminCodes1":{"ISO3166_2":"IL"},"countryName":"United States","fcodeName":"populated place","adminName1":"Illinois","lat":"42.37585","fcode":"PPL"},{"adminCode1":"GA","lng":"-83.99825","geonameId":4185047,"toponymName":"Buckeye Knob","countryId":"6252001","fcl":"T","population":0,"countryCode":"US","name":"Buckeye Knob","fclName":"mountain,hill,rock,... ","adminCodes1":{"ISO3166_2":"GA"},"countryName":"United States","fcodeName":"mountain","adminName1":"Georgia","lat":"34.78731","fcode":"MT"},{"adminCode1":"OH","lng":"-82.47238","geonameId":4507378,"toponymName":"Buckeye Lake","countryId":"6252001","fcl":"P","population":2760,"countryCode":"US","name":"Buckeye Lake","fclName":"city, village,...","adminCodes1":{"ISO3166_2":"OH"},"countryName":"United States","fcodeName":"populated place","adminName1":"Ohio","lat":"39.93368","fcode":"PPL"},{"adminCode1":"MO","lng":"-89.49258","geonameId":4378951,"toponymName":"Buckeye","countryId":"6252001","fcl":"P","population":0,"countryCode":"US","name":"Buckeye","fclName":"city, village,...","adminCodes1":{"ISO3166_2":"MO"},"countryName":"United States","fcodeName":"populated place","adminName1":"Missouri","lat":"36.9045","fcode":"PPL"},{"adminCode1":"KY","lng":"-84.50549","geonameId":4285987,"toponymName":"Buckeye","countryId":"6252001","fcl":"P","population":0,"countryCode":"US","name":"Buckeye","fclName":"city, village,...","adminCodes1":{"ISO3166_2":"KY"},"countryName":"United States","fcodeName":"populated place","adminName1":"Kentucky","lat":"37.71564","fcode":"PPL"},{"adminCode1":"KS","lng":"-97.16696","geonameId":4268766,"toponymName":"Buckeye","countryId":"6252001","fcl":"P","population":0,"countryCode":"US","name":"Buckeye","fclName":"city, village,...","adminCodes1":{"ISO3166_2":"KS"},"countryName":"United States","fcodeName":"populated place","adminName1":"Kansas","lat":"39.04666","fcode":"PPL"},{"adminCode1":"CO","lng":"-105.09498","geonameId":5575226,"toponymName":"Buckeye","countryId":"6252001","fcl":"P","population":0,"countryCode":"US","name":"Buckeye","fclName":"city, village,...","adminCodes1":{"ISO3166_2":"CO"},"countryName":"United States","fcodeName":"populated place","adminName1":"Colorado","lat":"40.8272","fcode":"PPL"},{"adminCode1":"AZ","lng":"-109.58229","geonameId":5287276,"toponymName":"Buckeye Mill","countryId":"6252001","fcl":"P","population":0,"countryCode":"US","name":"Buckeye Mill","fclName":"city, village,...","adminCodes1":{"ISO3166_2":"AZ"},"countryName":"United States","fcodeName":"populated place","adminName1":"Arizona","lat":"32.25619","fcode":"PPL"},{"adminCode1":"AZ","lng":"-112.72211","geonameId":5287288,"toponymName":"Buckeye Valley","countryId":"6252001","fcl":"T","population":0,"countryCode":"US","name":"Buckeye Valley","fclName":"mountain,hill,rock,... ","adminCodes1":{"ISO3166_2":"AZ"},"countryName":"United States","fcodeName":"valley","adminName1":"Arizona","lat":"33.35671","fcode":"VAL"},{"adminCode1":"CO","lng":"-102.12879","geonameId":5415242,"toponymName":"Buckeye Crossroads","countryId":"6252001","fcl":"P","population":0,"countryCode":"US","name":"Buckeye Crossroads","fclName":"city, village,...","adminCodes1":{"ISO3166_2":"CO"},"countryName":"United States","fcodeName":"populated place","adminName1":"Colorado","lat":"37.55751","fcode":"PPL"},{"adminCode1":"IN","lng":"-85.35386","geonameId":4918495,"toponymName":"Buckeye","countryId":"6252001","fcl":"P","population":0,"countryCode":"US","name":"Buckeye","fclName":"city, village,...","adminCodes1":{"ISO3166_2":"IN"},"countryName":"United States","fcodeName":"populated place","adminName1":"Indiana","lat":"40.69116","fcode":"PPL"},{"adminCode1":"WV","lng":"-80.13451","geonameId":4800570,"toponymName":"Buckeye","countryId":"6252001","fcl":"P","population":0,"countryCode":"US","name":"Buckeye","fclName":"city, village,...","adminCodes1":{"ISO3166_2":"WV"},"countryName":"United States","fcodeName":"populated place","adminName1":"West Virginia","lat":"38.18595","fcode":"PPL"},{"adminCode1":"TN","lng":"-83.25543","geonameId":4609533,"toponymName":"Buckeye Lead","countryId":"6252001","fcl":"T","population":0,"countryCode":"US","name":"Buckeye Lead","fclName":"mountain,hill,rock,... ","adminCodes1":{"ISO3166_2":"TN"},"countryName":"United States","fcodeName":"ridge(s)","adminName1":"Tennessee","lat":"35.7501","fcode":"RDGE"},{"adminCode1":"IL","lng":"-89.63343","geonameId":4885888,"toponymName":"Township of Buckeye","countryId":"6252001","fcl":"A","population":0,"countryCode":"US","name":"Township of Buckeye","fclName":"country, state, region,...","adminCodes1":{"ISO3166_2":"IL"},"countryName":"United States","fcodeName":"third-order administrative division","adminName1":"Illinois","lat":"42.41735","fcode":"ADM3"},{"adminCode1":"KS","lng":"-99.24565","geonameId":4280715,"toponymName":"Turkville","countryId":"6252001","fcl":"P","population":0,"countryCode":"US","name":"Turkville","fclName":"city, village,...","adminCodes1":{"ISO3166_2":"KS"},"countryName":"United States","fcodeName":"populated place","adminName1":"Kansas","lat":"39.10334","fcode":"PPL"},{"adminCode1":"KS","lng":"-97.50309","geonameId":4280977,"toponymName":"Verdi","countryId":"6252001","fcl":"P","population":0,"countryCode":"US","name":"Verdi","fclName":"city, village,...","adminCodes1":{"ISO3166_2":"KS"},"countryName":"United States","fcodeName":"populated place","adminName1":"Kansas","lat":"38.99167","fcode":"PPL"},{"adminCode1":"IL","lng":"-89.67178","geonameId":4907233,"toponymName":"Red Oak","countryId":"6252001","fcl":"P","population":0,"countryCode":"US","name":"Red Oak","fclName":"city, village,...","adminCodes1":{"ISO3166_2":"IL"},"countryName":"United States","fcodeName":"populated place","adminName1":"Illinois","lat":"42.39224","fcode":"PPL"},{"adminCode1":"IL","lng":"-89.63845","geonameId":4885892,"toponymName":"Buckhorn Corners","countryId":"6252001","fcl":"P","population":0,"countryCode":"US","name":"Buckhorn Corners","fclName":"city, village,...","adminCodes1":{"ISO3166_2":"IL"},"countryName":"United States","fcodeName":"populated place","adminName1":"Illinois","lat":"42.42474","fcode":"PPL"},{"adminCode1":"IL","lng":"-89.6779","geonameId":4885921,"toponymName":"Buena Vista","countryId":"6252001","fcl":"P","population":0,"countryCode":"US","name":"Buena Vista","fclName":"city, village,...","adminCodes1":{"ISO3166_2":"IL"},"countryName":"United States","fcodeName":"populated place","adminName1":"Illinois","lat":"42.42557","fcode":"PPL"},{"adminCode1":"MO","lng":"-91.25291","geonameId":4378958,"toponymName":"Township of Buckeye (historical)","countryId":"6252001","fcl":"A","population":0,"countryCode":"US","name":"Buckeye Township","fclName":"country, state, region,...","adminCodes1":{"ISO3166_2":"MO"},"countryName":"United States","fcodeName":"administrative division","adminName1":"Missouri","lat":"37.14394","fcode":"ADMD"},{"adminCode1":"WA","lng":"-117.37438","geonameId":5788362,"toponymName":"Buckeye","countryId":"6252001","fcl":"P","population":0,"countryCode":"US","name":"Buckeye","fclName":"city, village,...","adminCodes1":{"ISO3166_2":"WA"},"countryName":"United States","fcodeName":"populated place","adminName1":"Washington","lat":"47.84239","fcode":"PPL"},{"adminCode1":"OH","lng":"-82.26016","geonameId":5151688,"toponymName":"Danville","countryId":"6252001","fcl":"P","population":1018,"countryCode":"US","name":"Danville","fclName":"city, village,...","adminCodes1":{"ISO3166_2":"OH"},"countryName":"United States","fcodeName":"populated place","adminName1":"Ohio","lat":"40.44756","fcode":"PPL"},{"adminCode1":"OH","lng":"-84.07911","geonameId":5155783,"toponymName":"Glandorf","countryId":"6252001","fcl":"P","population":1006,"countryCode":"US","name":"Glandorf","fclName":"city, village,...","adminCodes1":{"ISO3166_2":"OH"},"countryName":"United States","fcodeName":"populated place","adminName1":"Ohio","lat":"41.02894","fcode":"PPL"},{"adminCode1":"OR","lng":"-122.52181","geonameId":5716409,"toponymName":"Buckeye Lake","countryId":"6252001","fcl":"H","population":0,"countryCode":"US","name":"Buckeye Lake","fclName":"stream, lake, ...","adminCodes1":{"ISO3166_2":"OR"},"countryName":"United States","fcodeName":"lake","adminName1":"Oregon","lat":"43.06308","fcode":"LK"},{"adminCode1":"UT","lng":"-110.97447","geonameId":5772137,"toponymName":"Buckeye Lake","countryId":"6252001","fcl":"H","population":0,"countryCode":"US","name":"Buckeye Lake","fclName":"stream, lake, ...","adminCodes1":{"ISO3166_2":"UT"},"countryName":"United States","fcodeName":"lake","adminName1":"Utah","lat":"40.63819","fcode":"LK"},{"adminCode1":"OH","lng":"-82.48264","geonameId":7165249,"toponymName":"Village of Buckeye Lake","countryId":"6252001","fcl":"A","population":2746,"countryCode":"US","name":"Village of Buckeye Lake","fclName":"country, state, region,...","adminCodes1":{"ISO3166_2":"OH"},"countryName":"United States","fcodeName":"administrative division","adminName1":"Ohio","lat":"39.93553","fcode":"ADMD"},{"adminCode1":"AZ","lng":"-112.64309","geonameId":7174340,"toponymName":"Town of Buckeye","countryId":"6252001","fcl":"A","population":50876,"countryCode":"US","name":"Town of Buckeye","fclName":"country, state, region,...","adminCodes1":{"ISO3166_2":"AZ"},"countryName":"United States","fcodeName":"administrative division","adminName1":"Arizona","lat":"33.43189","fcode":"ADMD"},{"adminCode1":"IA","lng":"-93.37583","geonameId":7316661,"toponymName":"City of Buckeye","countryId":"6252001","fcl":"A","population":108,"countryCode":"US","name":"City of Buckeye","fclName":"country, state, region,...","adminCodes1":{"ISO3166_2":"IA"},"countryName":"United States","fcodeName":"administrative division","adminName1":"Iowa","lat":"42.41947","fcode":"ADMD"},{"adminCode1":"TX","lng":"-98.52141","geonameId":4677122,"toponymName":"Buckeye Park","countryId":"6252001","fcl":"L","population":0,"countryCode":"US","name":"Buckeye Park","fclName":"parks,area, ...","adminCodes1":{"ISO3166_2":"TX"},"countryName":"United States","fcodeName":"park","adminName1":"Texas","lat":"29.47912","fcode":"PRK"},{"adminCode1":"OH","lng":"-82.45599","geonameId":4507372,"toponymName":"Buckeye Furnace State Memorial","countryId":"6252001","fcl":"L","population":0,"countryCode":"US","name":"Buckeye Furnace State Memorial","fclName":"parks,area, ...","adminCodes1":{"ISO3166_2":"OH"},"countryName":"United States","fcodeName":"park","adminName1":"Ohio","lat":"39.06257","fcode":"PRK"},{"adminCode1":"OH","lng":"-81.42595","geonameId":4507383,"toponymName":"Buckeye Park","countryId":"6252001","fcl":"L","population":0,"countryCode":"US","name":"Buckeye Park","fclName":"parks,area, ...","adminCodes1":{"ISO3166_2":"OH"},"countryName":"United States","fcodeName":"park","adminName1":"Ohio","lat":"39.41952","fcode":"PRK"},{"adminCode1":"OH","lng":"-82.4471","geonameId":4507389,"toponymName":"Buckeye State Lake Park","countryId":"6252001","fcl":"L","population":0,"countryCode":"US","name":"Buckeye State Lake Park","fclName":"parks,area, ...","adminCodes1":{"ISO3166_2":"OH"},"countryName":"United States","fcodeName":"park","adminName1":"Ohio","lat":"39.92979","fcode":"PRK"},{"adminCode1":"OH","lng":"-82.73109","geonameId":4507390,"toponymName":"Buckeye Swamp","countryId":"6252001","fcl":"H","population":0,"countryCode":"US","name":"Buckeye Swamp","fclName":"stream, lake, ...","adminCodes1":{"ISO3166_2":"OH"},"countryName":"United States","fcodeName":"lake","adminName1":"Ohio","lat":"39.03535","fcode":"LK"},{"adminCode1":"LA","lng":"-92.27374","geonameId":4345009,"toponymName":"Buckeye Ward Eleven","countryId":"6252001","fcl":"A","population":0,"countryCode":"US","name":"Buckeye Ward Eleven","fclName":"country, state, region,...","adminCodes1":{"ISO3166_2":"LA"},"countryName":"United States","fcodeName":"administrative division","adminName1":"Louisiana","lat":"31.35851","fcode":"ADMD"},{"adminCode1":"AL","lng":"-86.78102","geonameId":4052377,"toponymName":"Buckeye Pond","countryId":"6252001","fcl":"H","population":0,"countryCode":"US","name":"Buckeye Pond","fclName":"stream, lake, ...","adminCodes1":{"ISO3166_2":"AL"},"countryName":"United States","fcodeName":"lake","adminName1":"Alabama","lat":"34.56023","fcode":"LK"},{"adminCode1":"AL","lng":"-86.80361","geonameId":4052379,"toponymName":"Buckeye Pond","countryId":"6252001","fcl":"H","population":0,"countryCode":"US","name":"Buckeye Pond","fclName":"stream, lake, ...","adminCodes1":{"ISO3166_2":"AL"},"countryName":"United States","fcodeName":"lake","adminName1":"Alabama","lat":"34.56176","fcode":"LK"},{"adminCode1":"IA","lng":"-92.18907","geonameId":4862755,"toponymName":"Johnson/Noel Buckeye Area","countryId":"6252001","fcl":"L","population":0,"countryCode":"US","name":"Johnson/Noel Buckeye Area","fclName":"parks,area, ...","adminCodes1":{"ISO3166_2":"IA"},"countryName":"United States","fcodeName":"park","adminName1":"Iowa","lat":"41.04168","fcode":"PRK"},{"adminCode1":"AZ","lng":"-112.58822","geonameId":5287284,"toponymName":"Buckeye Sports Field","countryId":"6252001","fcl":"L","population":0,"countryCode":"US","name":"Buckeye Sports Field","fclName":"parks,area, ...","adminCodes1":{"ISO3166_2":"AZ"},"countryName":"United States","fcodeName":"park","adminName1":"Arizona","lat":"33.36504","fcode":"PRK"},{"adminCode1":"AZ","lng":"-112.57655","geonameId":5287286,"toponymName":"Buckeye Town Park","countryId":"6252001","fcl":"L","population":0,"countryCode":"US","name":"Buckeye Town Park","fclName":"parks,area, ...","adminCodes1":{"ISO3166_2":"AZ"},"countryName":"United States","fcodeName":"park","adminName1":"Arizona","lat":"33.37199","fcode":"PRK"},{"adminCode1":"CO","lng":"-106.25328","geonameId":5415243,"toponymName":"Buckeye Lake","countryId":"6252001","fcl":"H","population":0,"countryCode":"US","name":"Buckeye Lake","fclName":"stream, lake, ...","adminCodes1":{"ISO3166_2":"CO"},"countryName":"United States","fcodeName":"lake","adminName1":"Colorado","lat":"39.3371","fcode":"LK"},{"adminCode1":"CO","lng":"-105.56222","geonameId":5415250,"toponymName":"Buckeye Mountain","countryId":"6252001","fcl":"T","population":0,"countryCode":"US","name":"Buckeye Mountain","fclName":"mountain,hill,rock,... ","adminCodes1":{"ISO3166_2":"CO"},"countryName":"United States","fcodeName":"mountain","adminName1":"Colorado","lat":"39.92471","fcode":"MT"},{"adminCode1":"CO","lng":"-106.25364","geonameId":5415252,"toponymName":"Buckeye Peak","countryId":"6252001","fcl":"T","population":0,"countryCode":"US","name":"Buckeye Peak","fclName":"mountain,hill,rock,... ","adminCodes1":{"ISO3166_2":"CO"},"countryName":"United States","fcodeName":"mountain","adminName1":"Colorado","lat":"39.34554","fcode":"MT"},{"adminCode1":"CO","lng":"-106.24697","geonameId":5415258,"toponymName":"Buckeye Gulch","countryId":"6252001","fcl":"T","population":0,"countryCode":"US","name":"Buckeye Gulch","fclName":"mountain,hill,rock,... ","adminCodes1":{"ISO3166_2":"CO"},"countryName":"United States","fcodeName":"valley","adminName1":"Colorado","lat":"39.30999","fcode":"VAL"},{"adminCode1":"MN","lng":"-93.45981","geonameId":5019550,"toponymName":"Buckeye Lake","countryId":"6252001","fcl":"H","population":0,"countryCode":"US","name":"Buckeye Lake","fclName":"stream, lake, ...","adminCodes1":{"ISO3166_2":"MN"},"countryName":"United States","fcodeName":"lake","adminName1":"Minnesota","lat":"47.28959","fcode":"LK"},{"adminCode1":"MI","lng":"-84.36028","geonameId":5010464,"toponymName":"South Buckeye Oil Field","countryId":"6252001","fcl":"L","population":0,"countryCode":"US","name":"South Buckeye Oil Field","fclName":"parks,area, ...","adminCodes1":{"ISO3166_2":"MI"},"countryName":"United States","fcodeName":"oilfield","adminName1":"Michigan","lat":"43.90225","fcode":"OILF"},{"adminCode1":"MI","lng":"-85.73931","geonameId":4987271,"toponymName":"Buckeye Lake","countryId":"6252001","fcl":"H","population":0,"countryCode":"US","name":"Buckeye Lake","fclName":"stream, lake, ...","adminCodes1":{"ISO3166_2":"MI"},"countryName":"United States","fcodeName":"lake","adminName1":"Michigan","lat":"46.46626","fcode":"LK"},{"adminCode1":"MI","lng":"-88.99782","geonameId":4987272,"toponymName":"Buckeye Lake","countryId":"6252001","fcl":"H","population":0,"countryCode":"US","name":"Buckeye Lake","fclName":"stream, lake, ...","adminCodes1":{"ISO3166_2":"MI"},"countryName":"United States","fcodeName":"lake","adminName1":"Michigan","lat":"46.37215","fcode":"LK"},{"adminCode1":"MI","lng":"-84.39667","geonameId":5003709,"toponymName":"North Buckeye Oil Field","countryId":"6252001","fcl":"L","population":0,"countryCode":"US","name":"North Buckeye Oil Field","fclName":"parks,area, ...","adminCodes1":{"ISO3166_2":"MI"},"countryName":"United States","fcodeName":"oilfield","adminName1":"Michigan","lat":"43.96391","fcode":"OILF"},{"adminCode1":"OH","lng":"-80.61452","geonameId":5148595,"toponymName":"Buckeye Park","countryId":"6252001","fcl":"L","population":0,"countryCode":"US","name":"Buckeye Park","fclName":"parks,area, ...","adminCodes1":{"ISO3166_2":"OH"},"countryName":"United States","fcodeName":"park","adminName1":"Ohio","lat":"41.06395","fcode":"PRK"},{"adminCode1":"OH","lng":"-81.91847","geonameId":5148610,"toponymName":"Buckeye Woods County Park","countryId":"6252001","fcl":"L","population":0,"countryCode":"US","name":"Buckeye Woods County Park","fclName":"parks,area, ...","adminCodes1":{"ISO3166_2":"OH"},"countryName":"United States","fcodeName":"park","adminName1":"Ohio","lat":"41.10561","fcode":"PRK"},{"adminCode1":"IL","lng":"-87.70784","geonameId":4885882,"toponymName":"Buckeye Park","countryId":"6252001","fcl":"L","population":0,"countryCode":"US","name":"Buckeye Park","fclName":"parks,area, ...","adminCodes1":{"ISO3166_2":"IL"},"countryName":"United States","fcodeName":"park","adminName1":"Illinois","lat":"41.97031","fcode":"PRK"},{"adminCode1":"MI","lng":"-85.7258","geonameId":4999479,"toponymName":"Little Buckeye Lake","countryId":"6252001","fcl":"H","population":0,"countryCode":"US","name":"Little Buckeye Lake","fclName":"stream, lake, ...","adminCodes1":{"ISO3166_2":"MI"},"countryName":"United States","fcodeName":"lake","adminName1":"Michigan","lat":"46.46537","fcode":"LK"},{"adminCode1":"OH","lng":"-80.82345","geonameId":8062609,"toponymName":"Buckeye Horse Park","countryId":"6252001","fcl":"L","population":0,"countryCode":"US","name":"Buckeye Horse Park","fclName":"parks,area, ...","adminCodes1":{"ISO3166_2":"OH"},"countryName":"United States","fcodeName":"park","adminName1":"Ohio","lat":"41.02731","fcode":"PRK"},{"adminCode1":"ND","lng":"-99.67121","geonameId":5058458,"toponymName":"Township of Buckeye","countryId":"6252001","fcl":"A","population":0,"countryCode":"US","name":"Buckeye Township","fclName":"country, state, region,...","adminCodes1":{"ISO3166_2":"ND"},"countryName":"United States","fcodeName":"third-order administrative division","adminName1":"North Dakota","lat":"47.02414","fcode":"ADM3"},{"adminCode1":"OH","lng":"-82.14903","geonameId":4523835,"toponymName":"Saltillo","countryId":"6252001","fcl":"P","population":0,"countryCode":"US","name":"Saltillo","fclName":"city, village,...","adminCodes1":{"ISO3166_2":"OH"},"countryName":"United States","fcodeName":"populated place","adminName1":"Ohio","lat":"39.79451","fcode":"PPL"},{"adminCode1":"OH","lng":"-80.95398","geonameId":5155587,"toponymName":"Geneva-on-the-Lake","countryId":"6252001","fcl":"P","population":1214,"countryCode":"US","name":"Geneva-on-the-Lake","fclName":"city, village,...","adminCodes1":{"ISO3166_2":"OH"},"countryName":"United States","fcodeName":"populated place","adminName1":"Ohio","lat":"41.8595","fcode":"PPL"},{"adminCode1":"PA","lng":"-79.55032","geonameId":5182157,"toponymName":"Buckeye","countryId":"6252001","fcl":"P","population":0,"countryCode":"US","name":"Buckeye","fclName":"city, village,...","adminCodes1":{"ISO3166_2":"PA"},"countryName":"United States","fcodeName":"populated place","adminName1":"Pennsylvania","lat":"40.12202","fcode":"PPL"},{"adminCode1":"OH","lng":"-82.45905","geonameId":4507359,"toponymName":"Buckeye","countryId":"6252001","fcl":"P","population":0,"countryCode":"US","name":"Buckeye","fclName":"city, village,...","adminCodes1":{"ISO3166_2":"OH"},"countryName":"United States","fcodeName":"populated place","adminName1":"Ohio","lat":"39.05452","fcode":"PPL"},{"adminCode1":"OH","lng":"-82.10903","geonameId":4507370,"toponymName":"Buckeye Fork","countryId":"6252001","fcl":"H","population":0,"countryCode":"US","name":"Buckeye Fork","fclName":"stream, lake, ...","adminCodes1":{"ISO3166_2":"OH"},"countryName":"United States","fcodeName":"stream","adminName1":"Ohio","lat":"39.85507","fcode":"STM"},{"adminCode1":"NV","lng":"-119.72434","geonameId":5500825,"toponymName":"Buckeye","countryId":"6252001","fcl":"P","population":0,"countryCode":"US","name":"Buckeye","fclName":"city, village,...","adminCodes1":{"ISO3166_2":"NV"},"countryName":"United States","fcodeName":"populated place","adminName1":"Nevada","lat":"38.96046","fcode":"PPL"},{"adminCode1":"OH","lng":"-82.25849","geonameId":5148584,"toponymName":"Buckeye City","countryId":"6252001","fcl":"P","population":0,"countryCode":"US","name":"Buckeye City","fclName":"city, village,...","adminCodes1":{"ISO3166_2":"OH"},"countryName":"United States","fcodeName":"populated place","adminName1":"Ohio","lat":"40.44395","fcode":"PPL"},{"adminCode1":"CA","lng":"-122.39918","geonameId":5560515,"toponymName":"Buckeye Park","countryId":"6252001","fcl":"L","population":0,"countryCode":"US","name":"Buckeye Park","fclName":"parks,area, ...","adminCodes1":{"ISO3166_2":"CA"},"countryName":"United States","fcodeName":"park","adminName1":"California","lat":"40.63182","fcode":"PRK"},{"adminCode1":"CA","lng":"-122.43331","geonameId":5331427,"toponymName":"Buckeye Park","countryId":"6252001","fcl":"L","population":0,"countryCode":"US","name":"Buckeye Park","fclName":"parks,area, ...","adminCodes1":{"ISO3166_2":"CA"},"countryName":"United States","fcodeName":"park","adminName1":"California","lat":"37.61438","fcode":"PRK"},{"adminCode1":"CA","lng":"-119.40655","geonameId":5331450,"toponymName":"Buckeye Ridge","countryId":"6252001","fcl":"T","population":0,"countryCode":"US","name":"Buckeye Ridge","fclName":"mountain,hill,rock,... ","adminCodes1":{"ISO3166_2":"CA"},"countryName":"United States","fcodeName":"ridge(s)","adminName1":"California","lat":"38.18381","fcode":"RDGE"},{"adminCode1":"OH","lng":"-82.51432","geonameId":4507377,"toponymName":"Buckeye Lake","countryId":"6252001","fcl":"H","population":0,"countryCode":"US","name":"Buckeye Lake","fclName":"stream, lake, ...","adminCodes1":{"ISO3166_2":"OH"},"countryName":"United States","fcodeName":"reservoir(s)","adminName1":"Ohio","lat":"39.92145","fcode":"RSV"},{"adminCode1":"SD","lng":"-100.31958","geonameId":5763149,"toponymName":"Township of Buckeye","countryId":"6252001","fcl":"A","population":0,"countryCode":"US","name":"Buckeye Township","fclName":"country, state, region,...","adminCodes1":{"ISO3166_2":"SD"},"countryName":"United States","fcodeName":"administrative division","adminName1":"South Dakota","lat":"44.40359","fcode":"ADMD"},{"adminCode1":"NC","lng":"-81.7915","geonameId":4457869,"toponymName":"Buckeye Knob","countryId":"6252001","fcl":"T","population":0,"countryCode":"US","name":"Buckeye Knob","fclName":"mountain,hill,rock,... ","adminCodes1":{"ISO3166_2":"NC"},"countryName":"United States","fcodeName":"mountain","adminName1":"North Carolina","lat":"36.31651","fcode":"MT"},{"adminCode1":"WY","lng":"-108.73372","geonameId":5819838,"toponymName":"Buckeye Gulch","countryId":"6252001","fcl":"T","population":0,"countryCode":"US","name":"Buckeye Gulch","fclName":"mountain,hill,rock,... ","adminCodes1":{"ISO3166_2":"WY"},"countryName":"United States","fcodeName":"valley","adminName1":"Wyoming","lat":"42.49996","fcode":"VAL"},{"adminCode1":"OH","lng":"-82.48769","geonameId":4507379,"toponymName":"Buckeye Lake","countryId":"6252001","fcl":"H","population":0,"countryCode":"US","name":"Buckeye Lake","fclName":"stream, lake, ...","adminCodes1":{"ISO3166_2":"OH"},"countryName":"United States","fcodeName":"reservoir(s)","adminName1":"Ohio","lat":"39.92839","fcode":"RSV"},{"adminCode1":"NV","lng":"-117.05536","geonameId":5500829,"toponymName":"Buckeye Hill","countryId":"6252001","fcl":"T","population":0,"countryCode":"US","name":"Buckeye Hill","fclName":"mountain,hill,rock,... ","adminCodes1":{"ISO3166_2":"NV"},"countryName":"United States","fcodeName":"mountain","adminName1":"Nevada","lat":"38.5741","fcode":"MT"},{"adminCode1":"AZ","lng":"-112.57702","geonameId":5287287,"toponymName":"Buckeye Union High School","countryId":"6252001","fcl":"S","population":0,"countryCode":"US","name":"Buckeye Union High School","fclName":"spot, building, farm","adminCodes1":{"ISO3166_2":"AZ"},"countryName":"United States","fcodeName":"school","adminName1":"Arizona","lat":"33.37511","fcode":"SCH"},{"adminCode1":"OH","lng":"-82.85296","geonameId":5148583,"toponymName":"Buckeye Central High School","countryId":"6252001","fcl":"S","population":0,"countryCode":"US","name":"Buckeye Central High School","fclName":"spot, building, farm","adminCodes1":{"ISO3166_2":"OH"},"countryName":"United States","fcodeName":"school","adminName1":"Ohio","lat":"40.9595","fcode":"SCH"},{"adminCode1":"OH","lng":"-81.92708","geonameId":5148592,"toponymName":"Buckeye High School","countryId":"6252001","fcl":"S","population":0,"countryCode":"US","name":"Buckeye High School","fclName":"spot, building, farm","adminCodes1":{"ISO3166_2":"OH"},"countryName":"United States","fcodeName":"school","adminName1":"Ohio","lat":"41.19144","fcode":"SCH"},{"adminCode1":"OH","lng":"-81.4404","geonameId":5148604,"toponymName":"Buckeye Trail High School","countryId":"6252001","fcl":"S","population":0,"countryCode":"US","name":"Buckeye Trail High School","fclName":"spot, building, farm","adminCodes1":{"ISO3166_2":"OH"},"countryName":"United States","fcodeName":"school","adminName1":"Ohio","lat":"40.03868","fcode":"SCH"},{"adminCode1":"OH","lng":"-83.09241","geonameId":5148606,"toponymName":"Buckeye Valley High School","countryId":"6252001","fcl":"S","population":0,"countryCode":"US","name":"Buckeye Valley High School","fclName":"spot, building, farm","adminCodes1":{"ISO3166_2":"OH"},"countryName":"United States","fcodeName":"school","adminName1":"Ohio","lat":"40.34978","fcode":"SCH"},{"adminCode1":"WI","lng":"-89.19984","geonameId":5250777,"toponymName":"Door Creek","countryId":"6252001","fcl":"P","population":0,"countryCode":"US","name":"Door Creek","fclName":"city, village,...","adminCodes1":{"ISO3166_2":"WI"},"countryName":"United States","fcodeName":"populated place","adminName1":"Wisconsin","lat":"43.03083","fcode":"PPL"},{"adminCode1":"OH","lng":"-81.57512","geonameId":5147933,"toponymName":"Botzum","countryId":"6252001","fcl":"P","population":0,"countryCode":"US","name":"Botzum","fclName":"city, village,...","adminCodes1":{"ISO3166_2":"OH"},"countryName":"United States","fcodeName":"populated place","adminName1":"Ohio","lat":"41.162","fcode":"PPL"},{"adminCode1":"CA","lng":"-122.39751","geonameId":5560505,"toponymName":"Buckeye","countryId":"6252001","fcl":"P","population":0,"countryCode":"US","name":"Buckeye","fclName":"city, village,...","adminCodes1":{"ISO3166_2":"CA"},"countryName":"United States","fcodeName":"populated place","adminName1":"California","lat":"40.64348","fcode":"PPL"},{"adminCode1":"GA","lng":"-83.64239","geonameId":4185031,"toponymName":"Buckeye Cove","countryId":"6252001","fcl":"T","population":0,"countryCode":"US","name":"Buckeye Cove","fclName":"mountain,hill,rock,... ","adminCodes1":{"ISO3166_2":"GA"},"countryName":"United States","fcodeName":"valley","adminName1":"Georgia","lat":"34.90426","fcode":"VAL"},{"adminCode1":"GA","lng":"-84.01158","geonameId":4185036,"toponymName":"Buckeye Gap","countryId":"6252001","fcl":"T","population":0,"countryCode":"US","name":"Buckeye Gap","fclName":"mountain,hill,rock,... ","adminCodes1":{"ISO3166_2":"GA"},"countryName":"United States","fcodeName":"gap","adminName1":"Georgia","lat":"34.78814","fcode":"GAP"},{"adminCode1":"GA","lng":"-84.20908","geonameId":4185037,"toponymName":"Buckeye Mountain","countryId":"6252001","fcl":"T","population":0,"countryCode":"US","name":"Buckeye Mountain","fclName":"mountain,hill,rock,... ","adminCodes1":{"ISO3166_2":"GA"},"countryName":"United States","fcodeName":"mountain","adminName1":"Georgia","lat":"34.65259","fcode":"MT"},{"adminCode1":"GA","lng":"-84.2513","geonameId":4185038,"toponymName":"Buckeye Mountain","countryId":"6252001","fcl":"T","population":0,"countryCode":"US","name":"Buckeye Mountain","fclName":"mountain,hill,rock,... ","adminCodes1":{"ISO3166_2":"GA"},"countryName":"United States","fcodeName":"mountain","adminName1":"Georgia","lat":"34.75425","fcode":"MT"},{"adminCode1":"GA","lng":"-84.58465","geonameId":4185039,"toponymName":"Buckeye Mountain","countryId":"6252001","fcl":"T","population":0,"countryCode":"US","name":"Buckeye Mountain","fclName":"mountain,hill,rock,... ","adminCodes1":{"ISO3166_2":"GA"},"countryName":"United States","fcodeName":"mountain","adminName1":"Georgia","lat":"34.92897","fcode":"MT"},{"adminCode1":"LA","lng":"-92.18605","geonameId":4318218,"toponymName":"Buckeye High School","countryId":"6252001","fcl":"S","population":0,"countryCode":"US","name":"Buckeye High School","fclName":"spot, building, farm","adminCodes1":{"ISO3166_2":"LA"},"countryName":"United States","fcodeName":"school","adminName1":"Louisiana","lat":"31.36602","fcode":"SCH"},{"adminCode1":"CA","lng":"-119.47933","geonameId":5331428,"toponymName":"Buckeye Pass","countryId":"6252001","fcl":"T","population":0,"countryCode":"US","name":"Buckeye Pass","fclName":"mountain,hill,rock,... ","adminCodes1":{"ISO3166_2":"CA"},"countryName":"United States","fcodeName":"gap","adminName1":"California","lat":"38.12992","fcode":"GAP"},{"adminCode1":"WA","lng":"-117.43856","geonameId":5792216,"toponymName":"Denison","countryId":"6252001","fcl":"P","population":0,"countryCode":"US","name":"Denison","fclName":"city, village,...","adminCodes1":{"ISO3166_2":"WA"},"countryName":"United States","fcodeName":"populated place","adminName1":"Washington","lat":"47.90962","fcode":"PPL"},{"adminCode1":"CA","lng":"-121.00689","geonameId":5334145,"toponymName":"Carbondale","countryId":"6252001","fcl":"P","population":0,"countryCode":"US","name":"Carbondale","fclName":"city, village,...","adminCodes1":{"ISO3166_2":"CA"},"countryName":"United States","fcodeName":"populated place","adminName1":"California","lat":"38.4088","fcode":"PPL"}]}
