{"totalResultsCount":43,"geonames":[{"adminCode1":"CA","lng":"-120.84744","geonameId":5331648,"toponymName":"Buffalo Hill","countryId":"6252001","fcl":"P","population":0,"countryCode":"US","name":"Buffalo Hill","fclName":"city, village,...","adminCodes1":{"ISO3166_2":"CA"},"countryName":"United States","fcodeName":"populated place","adminName1":"California","lat":"38.90851","fcode":"PPL"},{"adminCode1":"NM","lng":"-103.06807","geonameId":6326426,"toponymName":"Buffalo Soldier Hill","countryId":"6252001","fcl":"T","population":0,"countryCode":"US","name":"Buffalo Soldier Hill","fclName":"mountain,hill,rock,... ","adminCodes1":{"ISO3166_2":"NM"},"countryName":"United States","fcodeName":"mountain","adminName1":"New Mexico","lat":"33.77679","fcode":"MT"},{"adminCode1":"PA","lng":"-77.04941","geonameId":5189978,"toponymName":"Forest Hill","countryId":"6252001","fcl":"P","population":0,"countryCode":"US","name":"Forest Hill","fclName":"city, village,...","adminCodes1":{"ISO3166_2":"PA"},"countryName":"United States","fcodeName":"populated place","adminName1":"Pennsylvania","lat":"40.97453","fcode":"PPL"},{"adminCode1":"MT","lng":"-114.31541","geonameId":5554157,"toponymName":"Buffalo Hill Golf Club","countryId":"6252001","fcl":"S","population":0,"countryCode":"US","name":"Buffalo Hill Golf Club","fclName":"spot, building, farm","adminCodes1":{"ISO3166_2":"MT"},"countryName":"United States","fcodeName":"golf course","adminName1":"Montana","lat":"48.21329","fcode":"RECG"},{"adminCode1":"PA","lng":"-76.88469","geonameId":5184962,"toponymName":"College Park","countryId":"6252001","fcl":"P","population":0,"countryCode":"US","name":"College Park","fclName":"city, village,...","adminCodes1":{"ISO3166_2":"PA"},"countryName":"United States","fcodeName":"populated place","adminName1":"Pennsylvania","lat":"40.94842","fcode":"PPL"},{"adminCode1":"NE","lng":"-99.08453","geonameId":5075399,"toponymName":"Pleasant Hill Public School","countryId":"6252001","fcl":"S","population":0,"countryCode":"US","name":"Pleasant Hill Public School","fclName":"spot, building, farm","adminCodes1":{"ISO3166_2":"NE"},"countryName":"United States","fcodeName":"school","adminName1":"Nebraska","lat":"40.81501","fcode":"SCH"},{"adminCode1":"MT","lng":"-106.76673","geonameId":5642519,"toponymName":"Buffalo Hill","countryId":"6252001","fcl":"T","population":0,"countryCode":"US","name":"Buffalo Hill","fclName":"mountain,hill,rock,... ","adminCodes1":{"ISO3166_2":"MT"},"countryName":"United States","fcodeName":"mountain","adminName1":"Montana","lat":"47.58528","fcode":"MT"},{"adminCode1":"MT","lng":"-106.81729","geonameId":5662700,"toponymName":"Little Buffalo Hill","countryId":"6252001","fcl":"T","population":0,"countryCode":"US","name":"Little Buffalo Hill","fclName":"mountain,hill,rock,... ","adminCodes1":{"ISO3166_2":"MT"},"countryName":"United States","fcodeName":"mountain","adminName1":"Montana","lat":"47.6839","fcode":"MT"},{"adminCode1":"MS","lng":"-89.22089","geonameId":4419875,"toponymName":"Buffalo Hill","countryId":"6252001","fcl":"T","population":0,"countryCode":"US","name":"Buffalo Hill","fclName":"mountain,hill,rock,... ","adminCodes1":{"ISO3166_2":"MS"},"countryName":"United States","fcodeName":"mountain","adminName1":"Mississippi","lat":"31.63572","fcode":"MT"},{"adminCode1":"TN","lng":"-86.78806","geonameId":4609638,"toponymName":"Buffalo Hill","countryId":"6252001","fcl":"T","population":0,"countryCode":"US","name":"Buffalo Hill","fclName":"mountain,hill,rock,... ","adminCodes1":{"ISO3166_2":"TN"},"countryName":"United States","fcodeName":"mountain","adminName1":"Tennessee","lat":"35.22619","fcode":"MT"},{"adminCode1":"VA","lng":"-79.01669","geonameId":4749772,"toponymName":"Buffalo Hill","countryId":"6252001","fcl":"P","population":0,"countryCode":"US","name":"Buffalo Hill","fclName":"city, village,...","adminCodes1":{"ISO3166_2":"VA"},"countryName":"United States","fcodeName":"populated place","adminName1":"Virginia","lat":"37.61292","fcode":"PPL"},{"adminCode1":"OK","lng":"-96.13276","geonameId":4531647,"toponymName":"Buffalo Hill","countryId":"6252001","fcl":"T","population":0,"countryCode":"US","name":"Buffalo Hill","fclName":"mountain,hill,rock,... ","adminCodes1":{"ISO3166_2":"OK"},"countryName":"United States","fcodeName":"mountain","adminName1":"Oklahoma","lat":"34.12954","fcode":"MT"},{"adminCode1":"AL","lng":"-86.1305","geonameId":4052423,"toponymName":"Buffalo Hill","countryId":"6252001","fcl":"T","population":0,"countryCode":"US","name":"Buffalo Hill","fclName":"mountain,hill,rock,... ","adminCodes1":{"ISO3166_2":"AL"},"countryName":"United States","fcodeName":"mountain","adminName1":"Alabama","lat":"31.05379","fcode":"MT"},{"adminCode1":"KY","lng":"-86.59471","geonameId":4286105,"toponymName":"Buffalo Hill","countryId":"6252001","fcl":"T","population":0,"countryCode":"US","name":"Buffalo Hill","fclName":"mountain,hill,rock,... ","adminCodes1":{"ISO3166_2":"KY"},"countryName":"United States","fcodeName":"mountain","adminName1":"Kentucky","lat":"37.33644","fcode":"MT"},{"adminCode1":"KY","lng":"-87.92696","geonameId":4286106,"toponymName":"Buffalo Hill","countryId":"6252001","fcl":"T","population":0,"countryCode":"US","name":"Buffalo Hill","fclName":"mountain,hill,rock,... ","adminCodes1":{"ISO3166_2":"KY"},"countryName":"United States","fcodeName":"mountain","adminName1":"Kentucky","lat":"37.18366","fcode":"MT"},{"adminCode1":"AZ","lng":"-110.78289","geonameId":5287422,"toponymName":"Buffalo Hill","countryId":"6252001","fcl":"T","population":0,"countryCode":"US","name":"Buffalo Hill","fclName":"mountain,hill,rock,... ","adminCodes1":{"ISO3166_2":"AZ"},"countryName":"United States","fcodeName":"mountain","adminName1":"Arizona","lat":"33.422","fcode":"MT"},{"adminCode1":"ME","lng":"-68.28316","geonameId":4959563,"toponymName":"Buffalo Hill","countryId":"6252001","fcl":"T","population":0,"countryCode":"US","name":"Buffalo Hill","fclName":"mountain,hill,rock,... ","adminCodes1":{"ISO3166_2":"ME"},"countryName":"United States","fcodeName":"mountain","adminName1":"Maine","lat":"45.09001","fcode":"MT"},{"adminCode1":"MA","lng":"-71.84396","geonameId":4931652,"toponymName":"Buffalo Hill","countryId":"6252001","fcl":"T","population":0,"countryCode":"US","name":"Buffalo Hill","fclName":"mountain,hill,rock,... ","adminCodes1":{"ISO3166_2":"MA"},"countryName":"United States","fcodeName":"mountain","adminName1":"Massachusetts","lat":"42.12871","fcode":"MT"},{"adminCode1":"KS","lng":"-96.07388","geonameId":4268800,"toponymName":"Buffalo Mound","countryId":"6252001","fcl":"T","population":0,"countryCode":"US","name":"Buffalo Mound","fclName":"mountain,hill,rock,... ","adminCodes1":{"ISO3166_2":"KS"},"countryName":"United States","fcodeName":"mountain","adminName1":"Kansas","lat":"39.06194","fcode":"MT"},{"adminCode1":"MO","lng":"-91.04569","geonameId":4381647,"toponymName":"Clinton Hill","countryId":"6252001","fcl":"T","population":0,"countryCode":"US","name":"Clinton Hill","fclName":"mountain,hill,rock,... ","adminCodes1":{"ISO3166_2":"MO"},"countryName":"United States","fcodeName":"mountain","adminName1":"Missouri","lat":"39.43838","fcode":"MT"},{"adminCode1":"WI","lng":"-89.34373","geonameId":5265496,"toponymName":"Observatory Hill","countryId":"6252001","fcl":"T","population":0,"countryCode":"US","name":"Observatory Hill","fclName":"mountain,hill,rock,... ","adminCodes1":{"ISO3166_2":"WI"},"countryName":"United States","fcodeName":"mountain","adminName1":"Wisconsin","lat":"43.70526","fcode":"MT"},{"adminCode1":"PA","lng":"-79.53977","geonameId":5219125,"toponymName":"Whiskey Hollow Hill","countryId":"6252001","fcl":"T","population":0,"countryCode":"US","name":"Whiskey Hollow Hill","fclName":"mountain,hill,rock,... ","adminCodes1":{"ISO3166_2":"PA"},"countryName":"United States","fcodeName":"mountain","adminName1":"Pennsylvania","lat":"40.77645","fcode":"MT"},{"adminCode1":"PA","lng":"-80.31006","geonameId":5214623,"toponymName":"Sugar Hill","countryId":"6252001","fcl":"P","population":0,"countryCode":"US","name":"Sugar Hill","fclName":"city, village,...","adminCodes1":{"ISO3166_2":"PA"},"countryName":"United States","fcodeName":"populated place","adminName1":"Pennsylvania","lat":"40.15229","fcode":"PPL"},{"adminCode1":"PA","lng":"-79.57866","geonameId":5183617,"toponymName":"Center Hill","countryId":"6252001","fcl":"P","population":0,"countryCode":"US","name":"Center Hill","fclName":"city, village,...","adminCodes1":{"ISO3166_2":"PA"},"countryName":"United States","fcodeName":"populated place","adminName1":"Pennsylvania","lat":"40.79756","fcode":"PPL"},{"adminCode1":"SD","lng":"-96.84395","geonameId":5226606,"toponymName":"Buffalo Hill","countryId":"6252001","fcl":"T","population":0,"countryCode":"US","name":"Buffalo Hill","fclName":"mountain,hill,rock,... ","adminCodes1":{"ISO3166_2":"SD"},"countryName":"United States","fcodeName":"mountain","adminName1":"South Dakota","lat":"44.81629","fcode":"MT"},{"adminCode1":"ND","lng":"-99.17483","geonameId":5058467,"toponymName":"Buffalo Hill","countryId":"6252001","fcl":"T","population":0,"countryCode":"US","name":"Buffalo Hill","fclName":"mountain,hill,rock,... ","adminCodes1":{"ISO3166_2":"ND"},"countryName":"United States","fcodeName":"mountain","adminName1":"North Dakota","lat":"46.5572","fcode":"MT"},{"adminCode1":"WI","lng":"-91.93822","geonameId":5265311,"toponymName":"Oak Hill School (historical)","countryId":"6252001","fcl":"S","population":0,"countryCode":"US","name":"Oak Hill School (historical)","fclName":"spot, building, farm","adminCodes1":{"ISO3166_2":"WI"},"countryName":"United States","fcodeName":"school","adminName1":"Wisconsin","lat":"44.59469","fcode":"SCH"},{"adminCode1":"NE","lng":"-99.17898","geonameId":5067130,"toponymName":"Dove Hill Cemetery","countryId":"6252001","fcl":"S","population":0,"countryCode":"US","name":"Dove Hill Cemetery","fclName":"spot, building, farm","adminCodes1":{"ISO3166_2":"NE"},"countryName":"United States","fcodeName":"cemetery","adminName1":"Nebraska","lat":"40.72529","fcode":"CMTY"},{"adminCode1":"NE","lng":"-99.27926","geonameId":5064198,"toponymName":"Black Hill Creek","countryId":"6252001","fcl":"H","population":0,"countryCode":"US","name":"Black Hill Creek","fclName":"stream, lake, ...","adminCodes1":{"ISO3166_2":"NE"},"countryName":"United States","fcodeName":"stream","adminName1":"Nebraska","lat":"41.02029","fcode":"STM"},{"adminCode1":"NE","lng":"-99.28732","geonameId":5064208,"toponymName":"Black Hill Creek School (historical)","countryId":"6252001","fcl":"S","population":0,"countryCode":"US","name":"Black Hill Creek School (historical)","fclName":"spot, building, farm","adminCodes1":{"ISO3166_2":"NE"},"countryName":"United States","fcodeName":"school","adminName1":"Nebraska","lat":"41.02862","fcode":"SCH"},{"adminCode1":"SD","lng":"-98.9476","geonameId":5232010,"toponymName":"Sport Hill School Number 9","countryId":"6252001","fcl":"S","population":0,"countryCode":"US","name":"Sport Hill School Number 9","fclName":"spot, building, farm","adminCodes1":{"ISO3166_2":"SD"},"countryName":"United States","fcodeName":"school","adminName1":"South Dakota","lat":"44.16971","fcode":"SCH"},{"adminCode1":"SD","lng":"-98.97593","geonameId":5232028,"toponymName":"Spring Hill Cemetery","countryId":"6252001","fcl":"S","population":0,"countryCode":"US","name":"Spring Hill Cemetery","fclName":"spot, building, farm","adminCodes1":{"ISO3166_2":"SD"},"countryName":"United States","fcodeName":"cemetery","adminName1":"South Dakota","lat":"44.03555","fcode":"CMTY"},{"adminCode1":"MT","lng":"-106.70061","geonameId":5642515,"toponymName":"Buffalo Hill Dam","countryId":"6252001","fcl":"S","population":0,"countryCode":"US","name":"Buffalo Hill Dam","fclName":"spot, building, farm","adminCodes1":{"ISO3166_2":"MT"},"countryName":"United States","fcodeName":"dam","adminName1":"Montana","lat":"47.56334","fcode":"DAM"},{"adminCode1":"MT","lng":"-106.70061","geonameId":5642516,"toponymName":"Buffalo Hill Reservoir","countryId":"6252001","fcl":"H","population":0,"countryCode":"US","name":"Buffalo Hill Reservoir","fclName":"stream, lake, ...","adminCodes1":{"ISO3166_2":"MT"},"countryName":"United States","fcodeName":"reservoir(s)","adminName1":"Montana","lat":"47.56334","fcode":"RSV"},{"adminCode1":"AZ","lng":"-112.17096","geonameId":5287411,"toponymName":"Buffalo Hill Tank","countryId":"6252001","fcl":"H","population":0,"countryCode":"US","name":"Buffalo Hill Tank","fclName":"stream, lake, ...","adminCodes1":{"ISO3166_2":"AZ"},"countryName":"United States","fcodeName":"water tank","adminName1":"Arizona","lat":"36.70875","fcode":"RSVT"},{"adminCode1":"OH","lng":"-80.88837","geonameId":5148666,"toponymName":"Buffalo Hill Cemetery","countryId":"6252001","fcl":"S","population":0,"countryCode":"US","name":"Buffalo Hill Cemetery","fclName":"spot, building, farm","adminCodes1":{"ISO3166_2":"OH"},"countryName":"United States","fcodeName":"cemetery","adminName1":"Ohio","lat":"40.39114","fcode":"CMTY"},{"adminCode1":"IA","lng":"-90.76403","geonameId":4869550,"toponymName":"Oak Hill School (historical)","countryId":"6252001","fcl":"S","population":0,"countryCode":"US","name":"Oak Hill School (historical)","fclName":"spot, building, farm","adminCodes1":{"ISO3166_2":"IA"},"countryName":"United States","fcodeName":"school","adminName1":"Iowa","lat":"41.46892","fcode":"SCH"},{"adminCode1":"IA","lng":"-90.7257","geonameId":4873600,"toponymName":"Rose Hill Cemetery","countryId":"6252001","fcl":"S","population":0,"countryCode":"US","name":"Rose Hill Cemetery","fclName":"spot, building, farm","adminCodes1":{"ISO3166_2":"IA"},"countryName":"United States","fcodeName":"cemetery","adminName1":"Iowa","lat":"41.46448","fcode":"CMTY"},{"adminCode1":"PA","lng":"-79.53643","geonameId":5182365,"toponymName":"Bunker Hill Church","countryId":"6252001","fcl":"S","population":0,"countryCode":"US","name":"Bunker Hill Church","fclName":"spot, building, farm","adminCodes1":{"ISO3166_2":"PA"},"countryName":"United States","fcodeName":"church","adminName1":"Pennsylvania","lat":"40.79034","fcode":"CH"},{"adminCode1":"PA","lng":"-79.63977","geonameId":5196423,"toponymName":"Knapps Hill","countryId":"6252001","fcl":"S","population":0,"countryCode":"US","name":"Knapps Hill","fclName":"spot, building, farm","adminCodes1":{"ISO3166_2":"PA"},"countryName":"United States","fcodeName":"","adminName1":"Pennsylvania","lat":"40.69673"},{"adminCode1":"IL","lng":"-89.54483","geonameId":4888847,"toponymName":"Cottage Hill School (historical)","countryId":"6252001","fcl":"S","population":0,"countryCode":"US","name":"Cottage Hill School (historical)","fclName":"spot, building, farm","adminCodes1":{"ISO3166_2":"IL"},"countryName":"United States","fcodeName":"school","adminName1":"Illinois","lat":"41.98809","fcode":"SCH"},{"adminCode1":"PA","lng":"-79.57629","geonameId":11391068,"toponymName":"Center Hill Church of the Brethren Cemetery","countryId":"6252001","fcl":"S","population":0,"countryCode":"US","name":"Center Hill Church of the Brethren Cemetery","fclName":"spot, building, farm","adminCodes1":{"ISO3166_2":"PA"},"countryName":"United States","fcodeName":"cemetery","adminName1":"Pennsylvania","lat":"40.79644","fcode":"CMTY"},{"adminCode1":"NY","lng":"-78.80374","geonameId":8490224,"toponymName":"Cleveland Hill United Methodist Church","countryId":"6252001","fcl":"S","population":0,"countryCode":"US","name":"Cleveland Hill United Methodist Church","fclName":"spot, building, farm","adminCodes1":{"ISO3166_2":"NY"},"countryName":"United States","fcodeName":"church","adminName1":"New York","lat":"42.94302","fcode":"CH"}]}
