{"totalResultsCount":222,"geonames":[{"adminCode1":"GA","lng":"-84.00435","geonameId":4185110,"toponymName":"Buford","countryId":"6252001","fcl":"P","population":13748,"countryCode":"US","name":"Buford","fclName":"city, village,...","adminCodes1":{"ISO3166_2":"GA"},"countryName":"United States","fcodeName":"populated place","adminName1":"Georgia","lat":"34.12066","fcode":"PPL"},{"adminCode1":"OR","lng":"-122.9748","geonameId":5732230,"toponymName":"Howard Buford Recreation Area","countryId":"6252001","fcl":"L","population":0,"countryCode":"US","name":"Howard Buford Recreation Area","fclName":"parks,area, ...","adminCodes1":{"ISO3166_2":"OR"},"countryName":"United States","fcodeName":"park","adminName1":"Oregon","lat":"44.01651","fcode":"PRK"},{"adminCode1":"AR","lng":"-92.42849","geonameId":4103647,"toponymName":"Buford","countryId":"6252001","fcl":"P","population":0,"countryCode":"US","name":"Buford","fclName":"city, village,...","adminCodes1":{"ISO3166_2":"AR"},"countryName":"United States","fcodeName":"populated place","adminName1":"Arkansas","lat":"36.24562","fcode":"PPL"},{"adminCode1":"GA","lng":"-84.05547","geonameId":4185123,"toponymName":"Buford Park","countryId":"6252001","fcl":"L","population":0,"countryCode":"US","name":"Buford Park","fclName":"parks,area, ...","adminCodes1":{"ISO3166_2":"GA"},"countryName":"United States","fcodeName":"park","adminName1":"Georgia","lat":"34.15427","fcode":"PRK"},{"adminCode1":"GA","lng":"-83.9918","geonameId":7317768,"toponymName":"City of Buford","countryId":"6252001","fcl":"A","population":12225,"countryCode":"US","name":"City of Buford","fclName":"country, state, region,...","adminCodes1":{"ISO3166_2":"GA"},"countryName":"United States","fcodeName":"third-order administrative division","adminName1":"Georgia","lat":"34.11834","fcode":"ADM3"},{"adminCode1":"WY","lng":"-105.30471","geonameId":5819944,"toponymName":"Buford","countryId":"6252001","fcl":"P","population":0,"countryCode":"US","name":"Buford","fclName":"city, village,...","adminCodes1":{"ISO3166_2":"WY"},"countryName":"United States","fcodeName":"populated place","adminName1":"Wyoming","lat":"41.12193","fcode":"PPL"},{"adminCode1":"AR","lng":"-92.41504","geonameId":4103652,"toponymName":"Township of Buford","countryId":"6252001","fcl":"A","population":0,"countryCode":"US","name":"Township of Buford","fclName":"country, state, region,...","adminCodes1":{"ISO3166_2":"AR"},"countryName":"United States","fcodeName":"third-order administrative division","adminName1":"Arkansas","lat":"36.22717","fcode":"ADM3"},{"adminCode1":"VA","lng":"-79.73115","geonameId":4773757,"toponymName":"Montvale","countryId":"6252001","fcl":"P","population":698,"countryCode":"US","name":"Montvale","fclName":"city, village,...","adminCodes1":{"ISO3166_2":"VA"},"countryName":"United States","fcodeName":"populated place","adminName1":"Virginia","lat":"37.38458","fcode":"PPL"},{"adminCode1":"AR","lng":"-92.4421","geonameId":4103605,"toponymName":"Buffalo City","countryId":"6252001","fcl":"P","population":0,"countryCode":"US","name":"Buffalo City","fclName":"city, village,...","adminCodes1":{"ISO3166_2":"AR"},"countryName":"United States","fcodeName":"populated place","adminName1":"Arkansas","lat":"36.16785","fcode":"PPL"},{"adminCode1":"OH","lng":"-83.84409","geonameId":4507441,"toponymName":"Buford","countryId":"6252001","fcl":"P","population":352,"countryCode":"US","name":"Buford","fclName":"city, village,...","adminCodes1":{"ISO3166_2":"OH"},"countryName":"United States","fcodeName":"populated place","adminName1":"Ohio","lat":"39.07673","fcode":"PPL"},{"adminCode1":"VA","lng":"-79.54614","geonameId":4749810,"toponymName":"Buford","countryId":"6252001","fcl":"P","population":0,"countryCode":"US","name":"Buford","fclName":"city, village,...","adminCodes1":{"ISO3166_2":"VA"},"countryName":"United States","fcodeName":"populated place","adminName1":"Virginia","lat":"36.56681","fcode":"PPL"},{"adminCode1":"GA","lng":"-84.00074","geonameId":4185122,"toponymName":"Buford Nature Preserve","countryId":"6252001","fcl":"L","population":0,"countryCode":"US","name":"Buford Nature Preserve","fclName":"parks,area, ...","adminCodes1":{"ISO3166_2":"GA"},"countryName":"United States","fcodeName":"park","adminName1":"Georgia","lat":"34.11566","fcode":"PRK"},{"adminCode1":"ND","lng":"-103.99132","geonameId":5688231,"toponymName":"Buford","countryId":"6252001","fcl":"P","population":0,"countryCode":"US","name":"Buford","fclName":"city, village,...","adminCodes1":{"ISO3166_2":"ND"},"countryName":"United States","fcodeName":"populated place","adminName1":"North Dakota","lat":"47.99863","fcode":"PPL"},{"adminCode1":"CO","lng":"-107.61673","geonameId":5415352,"toponymName":"Buford","countryId":"6252001","fcl":"P","population":0,"countryCode":"US","name":"Buford","fclName":"city, village,...","adminCodes1":{"ISO3166_2":"CO"},"countryName":"United States","fcodeName":"populated place","adminName1":"Colorado","lat":"39.9872","fcode":"PPL"},{"adminCode1":"SC","lng":"-80.61673","geonameId":4572706,"toponymName":"Buford","countryId":"6252001","fcl":"P","population":0,"countryCode":"US","name":"Buford","fclName":"city, village,...","adminCodes1":{"ISO3166_2":"SC"},"countryName":"United States","fcodeName":"populated place","adminName1":"South Carolina","lat":"34.7446","fcode":"PPL"},{"adminCode1":"MS","lng":"-90.31226","geonameId":4419891,"toponymName":"Buford Lake","countryId":"6252001","fcl":"H","population":0,"countryCode":"US","name":"Buford Lake","fclName":"stream, lake, ...","adminCodes1":{"ISO3166_2":"MS"},"countryName":"United States","fcodeName":"lake","adminName1":"Mississippi","lat":"34.16228","fcode":"LK"},{"adminCode1":"MO","lng":"-90.9929","geonameId":4379068,"toponymName":"Buford Pond","countryId":"6252001","fcl":"H","population":0,"countryCode":"US","name":"Buford Pond","fclName":"stream, lake, ...","adminCodes1":{"ISO3166_2":"MO"},"countryName":"United States","fcodeName":"lake","adminName1":"Missouri","lat":"37.1906","fcode":"LK"},{"adminCode1":"KS","lng":"-95.23885","geonameId":9956291,"toponymName":"Buford M. Watson, Hr. Park","countryId":"6252001","fcl":"L","population":0,"countryCode":"US","name":"Buford M. Watson, Hr. Park","fclName":"parks,area, ...","adminCodes1":{"ISO3166_2":"KS"},"countryName":"United States","fcodeName":"park","adminName1":"Kansas","lat":"38.97221","fcode":"PRK"},{"adminCode1":"ND","lng":"-103.92473","geonameId":5688234,"toponymName":"Township of Buford","countryId":"6252001","fcl":"A","population":0,"countryCode":"US","name":"Buford Township","fclName":"country, state, region,...","adminCodes1":{"ISO3166_2":"ND"},"countryName":"United States","fcodeName":"third-order administrative division","adminName1":"North Dakota","lat":"47.99983","fcode":"ADM3"},{"adminCode1":"NC","lng":"-80.55016","geonameId":4049638,"toponymName":"Township of Buford","countryId":"6252001","fcl":"A","population":0,"countryCode":"US","name":"Buford Township","fclName":"country, state, region,...","adminCodes1":{"ISO3166_2":"NC"},"countryName":"United States","fcodeName":"third-order administrative division","adminName1":"North Carolina","lat":"34.87583","fcode":"ADM3"},{"adminCode1":"GA","lng":"-83.9863","geonameId":4185117,"toponymName":"Buford High School","countryId":"6252001","fcl":"S","population":0,"countryCode":"US","name":"Buford High School","fclName":"spot, building, farm","adminCodes1":{"ISO3166_2":"GA"},"countryName":"United States","fcodeName":"school","adminName1":"Georgia","lat":"34.13275","fcode":"SCH"},{"adminCode1":"KY","lng":"-86.98388","geonameId":4286124,"toponymName":"Buford","countryId":"6252001","fcl":"P","population":0,"countryCode":"US","name":"Buford","fclName":"city, village,...","adminCodes1":{"ISO3166_2":"KY"},"countryName":"United States","fcodeName":"populated place","adminName1":"Kentucky","lat":"37.56422","fcode":"PPL"},{"adminCode1":"AZ","lng":"-110.2412","geonameId":5287436,"toponymName":"Buford Hill","countryId":"6252001","fcl":"T","population":0,"countryCode":"US","name":"Buford Hill","fclName":"mountain,hill,rock,... ","adminCodes1":{"ISO3166_2":"AZ"},"countryName":"United States","fcodeName":"mountain","adminName1":"Arizona","lat":"32.83618","fcode":"MT"},{"adminCode1":"GA","lng":"-84.0638","geonameId":4227028,"toponymName":"Tri-County Park","countryId":"6252001","fcl":"L","population":0,"countryCode":"US","name":"Tri-County Park","fclName":"parks,area, ...","adminCodes1":{"ISO3166_2":"GA"},"countryName":"United States","fcodeName":"park","adminName1":"Georgia","lat":"34.15427","fcode":"PRK"},{"adminCode1":"NC","lng":"-80.62368","geonameId":4489076,"toponymName":"Roughedge","countryId":"6252001","fcl":"P","population":0,"countryCode":"US","name":"Roughedge","fclName":"city, village,...","adminCodes1":{"ISO3166_2":"NC"},"countryName":"United States","fcodeName":"populated place","adminName1":"North Carolina","lat":"34.89932","fcode":"PPL"},{"adminCode1":"NC","lng":"-82.83736","geonameId":4459120,"toponymName":"Canton","countryId":"6252001","fcl":"P","population":4190,"countryCode":"US","name":"Canton","fclName":"city, village,...","adminCodes1":{"ISO3166_2":"NC"},"countryName":"United States","fcodeName":"populated place","adminName1":"North Carolina","lat":"35.53288","fcode":"PPL"},{"adminCode1":"GA","lng":"-84.07352","geonameId":4185115,"toponymName":"Buford Dam","countryId":"6252001","fcl":"S","population":0,"countryCode":"US","name":"Buford Dam","fclName":"spot, building, farm","adminCodes1":{"ISO3166_2":"GA"},"countryName":"United States","fcodeName":"dam","adminName1":"Georgia","lat":"34.16038","fcode":"DAM"},{"adminCode1":"CO","lng":"-107.55423","geonameId":5415354,"toponymName":"Buford Peak","countryId":"6252001","fcl":"T","population":0,"countryCode":"US","name":"Buford Peak","fclName":"mountain,hill,rock,... ","adminCodes1":{"ISO3166_2":"CO"},"countryName":"United States","fcodeName":"mountain","adminName1":"Colorado","lat":"39.97609","fcode":"MT"},{"adminCode1":"CO","lng":"-107.57867","geonameId":5415356,"toponymName":"Buford Ridge","countryId":"6252001","fcl":"T","population":0,"countryCode":"US","name":"Buford Ridge","fclName":"mountain,hill,rock,... ","adminCodes1":{"ISO3166_2":"CO"},"countryName":"United States","fcodeName":"ridge(s)","adminName1":"Colorado","lat":"39.97748","fcode":"RDGE"},{"adminCode1":"TN","lng":"-87.02556","geonameId":4609698,"toponymName":"Bufords","countryId":"6252001","fcl":"P","population":0,"countryCode":"US","name":"Bufords","fclName":"city, village,...","adminCodes1":{"ISO3166_2":"TN"},"countryName":"United States","fcodeName":"populated place","adminName1":"Tennessee","lat":"35.33202","fcode":"PPL"},{"adminCode1":"ND","lng":"-103.76715","geonameId":5688233,"toponymName":"Buford County (historical)","countryId":"6252001","fcl":"A","population":0,"countryCode":"US","name":"Buford County (historical)","fclName":"country, state, region,...","adminCodes1":{"ISO3166_2":"ND"},"countryName":"United States","fcodeName":"administrative division","adminName1":"North Dakota","lat":"48.43614","fcode":"ADMD"},{"adminCode1":"ND","lng":"-104.00104","geonameId":5689155,"toponymName":"Fort Buford State Historic Site","countryId":"6252001","fcl":"L","population":0,"countryCode":"US","name":"Fort Buford State Historic Site","fclName":"parks,area, ...","adminCodes1":{"ISO3166_2":"ND"},"countryName":"United States","fcodeName":"park","adminName1":"North Dakota","lat":"47.9878","fcode":"PRK"},{"adminCode1":"SC","lng":"-80.62618","geonameId":4572707,"toponymName":"Buford Battle Ground Monument","countryId":"6252001","fcl":"L","population":0,"countryCode":"US","name":"Buford Battle Ground Monument","fclName":"parks,area, ...","adminCodes1":{"ISO3166_2":"SC"},"countryName":"United States","fcodeName":"park","adminName1":"South Carolina","lat":"34.74348","fcode":"PRK"},{"adminCode1":"AZ","lng":"-111.79848","geonameId":5299059,"toponymName":"Humboldt Mountain","countryId":"6252001","fcl":"T","population":0,"countryCode":"US","name":"Humboldt Mountain","fclName":"mountain,hill,rock,... ","adminCodes1":{"ISO3166_2":"AZ"},"countryName":"United States","fcodeName":"mountain","adminName1":"Arizona","lat":"33.98115","fcode":"MT"},{"adminCode1":"GA","lng":"-84.07352","geonameId":4204680,"toponymName":"Lake Sidney Lanier","countryId":"6252001","fcl":"H","population":0,"countryCode":"US","name":"Lake Sidney Lanier","fclName":"stream, lake, ...","adminCodes1":{"ISO3166_2":"GA"},"countryName":"United States","fcodeName":"reservoir(s)","adminName1":"Georgia","lat":"34.16038","fcode":"RSV"},{"adminCode1":"AR","lng":"-92.36016","geonameId":4130974,"toponymName":"Shipp","countryId":"6252001","fcl":"P","population":0,"countryCode":"US","name":"Shipp","fclName":"city, village,...","adminCodes1":{"ISO3166_2":"AR"},"countryName":"United States","fcodeName":"populated place","adminName1":"Arkansas","lat":"36.21201","fcode":"PPL"},{"adminCode1":"GA","lng":"-84.00352","geonameId":4185118,"toponymName":"Buford Horizons Mobile Home Park","countryId":"6252001","fcl":"P","population":0,"countryCode":"US","name":"Buford Horizons Mobile Home Park","fclName":"city, village,...","adminCodes1":{"ISO3166_2":"GA"},"countryName":"United States","fcodeName":"populated place","adminName1":"Georgia","lat":"34.07621","fcode":"PPL"},{"adminCode1":"AL","lng":"-86.02358","geonameId":4086223,"toponymName":"Riverside","countryId":"6252001","fcl":"P","population":0,"countryCode":"US","name":"Riverside","fclName":"city, village,...","adminCodes1":{"ISO3166_2":"AL"},"countryName":"United States","fcodeName":"populated place","adminName1":"Alabama","lat":"33.93982","fcode":"PPL"},{"adminCode1":"OR","lng":"-117.29044","geonameId":5716537,"toponymName":"Buford Ridge","countryId":"6252001","fcl":"T","population":0,"countryCode":"US","name":"Buford Ridge","fclName":"mountain,hill,rock,... ","adminCodes1":{"ISO3166_2":"OR"},"countryName":"United States","fcodeName":"ridge(s)","adminName1":"Oregon","lat":"45.97848","fcode":"RDGE"},{"adminCode1":"OR","lng":"-124.00817","geonameId":5716540,"toponymName":"Buford Hill","countryId":"6252001","fcl":"T","population":0,"countryCode":"US","name":"Buford Hill","fclName":"mountain,hill,rock,... ","adminCodes1":{"ISO3166_2":"OR"},"countryName":"United States","fcodeName":"mountain","adminName1":"Oregon","lat":"44.63317","fcode":"MT"},{"adminCode1":"VA","lng":"-78.65446","geonameId":4749813,"toponymName":"Buford Island","countryId":"6252001","fcl":"T","population":0,"countryCode":"US","name":"Buford Island","fclName":"mountain,hill,rock,... ","adminCodes1":{"ISO3166_2":"VA"},"countryName":"United States","fcodeName":"island","adminName1":"Virginia","lat":"37.68042","fcode":"ISL"},{"adminCode1":"VA","lng":"-77.5511","geonameId":4749826,"toponymName":"Buford Estates","countryId":"6252001","fcl":"P","population":0,"countryCode":"US","name":"Buford Estates","fclName":"city, village,...","adminCodes1":{"ISO3166_2":"VA"},"countryName":"United States","fcodeName":"populated place","adminName1":"Virginia","lat":"37.51209","fcode":"PPL"},{"adminCode1":"MO","lng":"-90.68929","geonameId":4379067,"toponymName":"Buford Mountain","countryId":"6252001","fcl":"T","population":0,"countryCode":"US","name":"Buford Mountain","fclName":"mountain,hill,rock,... ","adminCodes1":{"ISO3166_2":"MO"},"countryName":"United States","fcodeName":"mountain","adminName1":"Missouri","lat":"37.69699","fcode":"MT"},{"adminCode1":"AZ","lng":"-110.29148","geonameId":5287421,"toponymName":"Buford Canyon","countryId":"6252001","fcl":"T","population":0,"countryCode":"US","name":"Buford Canyon","fclName":"mountain,hill,rock,... ","adminCodes1":{"ISO3166_2":"AZ"},"countryName":"United States","fcodeName":"valley","adminName1":"Arizona","lat":"32.80784","fcode":"VAL"},{"adminCode1":"AZ","lng":"-110.26342","geonameId":5315172,"toponymName":"South Fork Buford Canyon","countryId":"6252001","fcl":"T","population":0,"countryCode":"US","name":"South Fork Buford Canyon","fclName":"mountain,hill,rock,... ","adminCodes1":{"ISO3166_2":"AZ"},"countryName":"United States","fcodeName":"valley","adminName1":"Arizona","lat":"32.82923","fcode":"VAL"},{"adminCode1":"TX","lng":"-100.85678","geonameId":5517826,"toponymName":"Buford","countryId":"6252001","fcl":"P","population":0,"countryCode":"US","name":"Buford","fclName":"city, village,...","adminCodes1":{"ISO3166_2":"TX"},"countryName":"United States","fcodeName":"populated place","adminName1":"Texas","lat":"32.46151","fcode":"PPL"},{"adminCode1":"AR","lng":"-92.37933","geonameId":4130592,"toponymName":"Shady Grove","countryId":"6252001","fcl":"P","population":0,"countryCode":"US","name":"Shady Grove","fclName":"city, village,...","adminCodes1":{"ISO3166_2":"AR"},"countryName":"United States","fcodeName":"populated place","adminName1":"Arkansas","lat":"36.25146","fcode":"PPL"},{"adminCode1":"AR","lng":"-92.37433","geonameId":4131046,"toponymName":"Short Hollow Mountain","countryId":"6252001","fcl":"T","population":0,"countryCode":"US","name":"Short Hollow Mountain","fclName":"mountain,hill,rock,... ","adminCodes1":{"ISO3166_2":"AR"},"countryName":"United States","fcodeName":"mountain","adminName1":"Arkansas","lat":"36.20479","fcode":"MT"},{"adminCode1":"AR","lng":"-92.40905","geonameId":4110227,"toponymName":"Fairview United Methodist Church","countryId":"6252001","fcl":"S","population":0,"countryCode":"US","name":"Fairview United Methodist Church","fclName":"spot, building, farm","adminCodes1":{"ISO3166_2":"AR"},"countryName":"United States","fcodeName":"church","adminName1":"Arkansas","lat":"36.25562","fcode":"CH"},{"adminCode1":"AR","lng":"-92.45488","geonameId":4111191,"toponymName":"Fletcher Mountain","countryId":"6252001","fcl":"T","population":0,"countryCode":"US","name":"Fletcher Mountain","fclName":"mountain,hill,rock,... ","adminCodes1":{"ISO3166_2":"AR"},"countryName":"United States","fcodeName":"mountain","adminName1":"Arkansas","lat":"36.21368","fcode":"MT"},{"adminCode1":"AR","lng":"-92.41738","geonameId":4134063,"toponymName":"Turkey Knob","countryId":"6252001","fcl":"T","population":0,"countryCode":"US","name":"Turkey Knob","fclName":"mountain,hill,rock,... ","adminCodes1":{"ISO3166_2":"AR"},"countryName":"United States","fcodeName":"mountain","adminName1":"Arkansas","lat":"36.20646","fcode":"MT"},{"adminCode1":"AR","lng":"-92.36988","geonameId":4136454,"toponymName":"Wild Hog Mountain","countryId":"6252001","fcl":"T","population":0,"countryCode":"US","name":"Wild Hog Mountain","fclName":"mountain,hill,rock,... ","adminCodes1":{"ISO3166_2":"AR"},"countryName":"United States","fcodeName":"mountain","adminName1":"Arkansas","lat":"36.21979","fcode":"MT"},{"adminCode1":"AR","lng":"-92.38238","geonameId":4104716,"toponymName":"Cartney","countryId":"6252001","fcl":"P","population":0,"countryCode":"US","name":"Cartney","fclName":"city, village,...","adminCodes1":{"ISO3166_2":"AR"},"countryName":"United States","fcodeName":"populated place","adminName1":"Arkansas","lat":"36.19451","fcode":"PPL"},{"adminCode1":"AR","lng":"-92.45294","geonameId":4106457,"toponymName":"Conville (historical)","countryId":"6252001","fcl":"P","population":0,"countryCode":"US","name":"Conville (historical)","fclName":"city, village,...","adminCodes1":{"ISO3166_2":"AR"},"countryName":"United States","fcodeName":"abandoned populated place","adminName1":"Arkansas","lat":"36.26451","fcode":"PPLQ"},{"adminCode1":"AR","lng":"-92.43433","geonameId":4114839,"toponymName":"Hip Mountain","countryId":"6252001","fcl":"T","population":0,"countryCode":"US","name":"Hip Mountain","fclName":"mountain,hill,rock,... ","adminCodes1":{"ISO3166_2":"AR"},"countryName":"United States","fcodeName":"mountain","adminName1":"Arkansas","lat":"36.22479","fcode":"MT"},{"adminCode1":"NC","lng":"-80.63062","geonameId":4484132,"toponymName":"Parkwood High School","countryId":"6252001","fcl":"S","population":0,"countryCode":"US","name":"Parkwood High School","fclName":"spot, building, farm","adminCodes1":{"ISO3166_2":"NC"},"countryName":"United States","fcodeName":"school","adminName1":"North Carolina","lat":"34.90154","fcode":"SCH"},{"adminCode1":"NC","lng":"-80.54173","geonameId":4452541,"toponymName":"Alton","countryId":"6252001","fcl":"P","population":0,"countryCode":"US","name":"Alton","fclName":"city, village,...","adminCodes1":{"ISO3166_2":"NC"},"countryName":"United States","fcodeName":"populated place","adminName1":"North Carolina","lat":"34.88098","fcode":"PPL"},{"adminCode1":"ND","lng":"-103.98872","geonameId":9683505,"toponymName":"Missouri-Yellowstone Confluence Interpretive Center","countryId":"6252001","fcl":"S","population":0,"countryCode":"US","name":"Missouri-Yellowstone Confluence Interpretive Center","fclName":"spot, building, farm","adminCodes1":{"ISO3166_2":"ND"},"countryName":"United States","fcodeName":"building(s)","adminName1":"North Dakota","lat":"47.98507","fcode":"BLDG"},{"adminCode1":"SC","lng":"-81.18372","geonameId":4572714,"toponymName":"Bufords Bridge","countryId":"6252001","fcl":"P","population":0,"countryCode":"US","name":"Bufords Bridge","fclName":"city, village,...","adminCodes1":{"ISO3166_2":"SC"},"countryName":"United States","fcodeName":"populated place","adminName1":"South Carolina","lat":"33.1146","fcode":"PPL"},{"adminCode1":"WA","lng":"-117.29461","geonameId":5788434,"toponymName":"Buford Ridge","countryId":"6252001","fcl":"T","population":0,"countryCode":"US","name":"Buford Ridge","fclName":"mountain,hill,rock,... ","adminCodes1":{"ISO3166_2":"WA"},"countryName":"United States","fcodeName":"ridge(s)","adminName1":"Washington","lat":"46.0007","fcode":"RDGE"},{"adminCode1":"CA","lng":"-119.84182","geonameId":5331658,"toponymName":"Buford Mountain","countryId":"6252001","fcl":"T","population":0,"countryCode":"US","name":"Buford Mountain","fclName":"mountain,hill,rock,... ","adminCodes1":{"ISO3166_2":"CA"},"countryName":"United States","fcodeName":"mountain","adminName1":"California","lat":"37.22106","fcode":"MT"},{"adminCode1":"TX","lng":"-106.27804","geonameId":5517825,"toponymName":"Buford","countryId":"6252001","fcl":"P","population":0,"countryCode":"US","name":"Buford","fclName":"city, village,...","adminCodes1":{"ISO3166_2":"TX"},"countryName":"United States","fcodeName":"populated place","adminName1":"Texas","lat":"31.649","fcode":"PPL"},{"adminCode1":"TX","lng":"-106.29359","geonameId":5517828,"toponymName":"Buford View Estates Colonia","countryId":"6252001","fcl":"P","population":0,"countryCode":"US","name":"Buford View Estates Colonia","fclName":"city, village,...","adminCodes1":{"ISO3166_2":"TX"},"countryName":"United States","fcodeName":"populated place","adminName1":"Texas","lat":"31.65206","fcode":"PPL"},{"adminCode1":"MS","lng":"-89.94425","geonameId":4428885,"toponymName":"Hamage","countryId":"6252001","fcl":"P","population":0,"countryCode":"US","name":"Hamage","fclName":"city, village,...","adminCodes1":{"ISO3166_2":"MS"},"countryName":"United States","fcodeName":"populated place","adminName1":"Mississippi","lat":"31.22573","fcode":"PPL"},{"adminCode1":"VA","lng":"-78.49705","geonameId":4749814,"toponymName":"Buford Middle School","countryId":"6252001","fcl":"S","population":0,"countryCode":"US","name":"Buford Middle School","fclName":"spot, building, farm","adminCodes1":{"ISO3166_2":"VA"},"countryName":"United States","fcodeName":"school","adminName1":"Virginia","lat":"38.02616","fcode":"SCH"},{"adminCode1":"MS","lng":"-89.69675","geonameId":4419886,"toponymName":"Buford Creek","countryId":"6252001","fcl":"H","population":0,"countryCode":"US","name":"Buford Creek","fclName":"stream, lake, ...","adminCodes1":{"ISO3166_2":"MS"},"countryName":"United States","fcodeName":"stream","adminName1":"Mississippi","lat":"34.39872","fcode":"STM"},{"adminCode1":"TX","lng":"-100.30011","geonameId":5517827,"toponymName":"Buford Branch","countryId":"6252001","fcl":"H","population":0,"countryCode":"US","name":"Buford Branch","fclName":"stream, lake, ...","adminCodes1":{"ISO3166_2":"TX"},"countryName":"United States","fcodeName":"stream","adminName1":"Texas","lat":"33.85008","fcode":"STM"},{"adminCode1":"GA","lng":"-83.99157","geonameId":4225313,"toponymName":"Suwanee Creek Lake Dam","countryId":"6252001","fcl":"S","population":0,"countryCode":"US","name":"Suwanee Creek Lake Dam","fclName":"spot, building, farm","adminCodes1":{"ISO3166_2":"GA"},"countryName":"United States","fcodeName":"dam","adminName1":"Georgia","lat":"34.11343","fcode":"DAM"},{"adminCode1":"VA","lng":"-77.54416","geonameId":7137040,"toponymName":"Chesterfield Fire and Emergency Medical Services Station 9 Buford","countryId":"6252001","fcl":"S","population":0,"countryCode":"US","name":"Chesterfield Fire and Emergency Medical Services Station 9 Buford","fclName":"spot, building, farm","adminCodes1":{"ISO3166_2":"VA"},"countryName":"United States","fcodeName":"building(s)","adminName1":"Virginia","lat":"37.50053","fcode":"BLDG"},{"adminCode1":"NC","lng":"-80.5309","geonameId":4495617,"toponymName":"Trinity","countryId":"6252001","fcl":"P","population":0,"countryCode":"US","name":"Trinity","fclName":"city, village,...","adminCodes1":{"ISO3166_2":"NC"},"countryName":"United States","fcodeName":"populated place","adminName1":"North Carolina","lat":"34.84987","fcode":"PPL"},{"adminCode1":"NC","lng":"-80.65257","geonameId":4497370,"toponymName":"Walkersville (historical)","countryId":"6252001","fcl":"P","population":0,"countryCode":"US","name":"Walkersville (historical)","fclName":"city, village,...","adminCodes1":{"ISO3166_2":"NC"},"countryName":"United States","fcodeName":"abandoned populated place","adminName1":"North Carolina","lat":"34.85015","fcode":"PPLQ"},{"adminCode1":"MT","lng":"-115.14542","geonameId":5642557,"toponymName":"Buford (historical)","countryId":"6252001","fcl":"P","population":0,"countryCode":"US","name":"Buford (historical)","fclName":"city, village,...","adminCodes1":{"ISO3166_2":"MT"},"countryName":"United States","fcodeName":"abandoned populated place","adminName1":"Montana","lat":"47.29437","fcode":"PPLQ"},{"adminCode1":"WY","lng":"-105.31887","geonameId":5819945,"toponymName":"Buford Trail","countryId":"6252001","fcl":"R","population":0,"countryCode":"US","name":"Buford Trail","fclName":"road, railroad ","adminCodes1":{"ISO3166_2":"WY"},"countryName":"United States","fcodeName":"trail","adminName1":"Wyoming","lat":"41.15915","fcode":"TRL"},{"adminCode1":"TX","lng":"-100.52401","geonameId":5526248,"toponymName":"Middle Creek","countryId":"6252001","fcl":"H","population":0,"countryCode":"US","name":"Middle Creek","fclName":"stream, lake, ...","adminCodes1":{"ISO3166_2":"TX"},"countryName":"United States","fcodeName":"stream","adminName1":"Texas","lat":"33.80619","fcode":"STM"},{"adminCode1":"CA","lng":"-118.36463","geonameId":5331657,"toponymName":"Buford Elementary School","countryId":"6252001","fcl":"S","population":0,"countryCode":"US","name":"Buford Elementary School","fclName":"spot, building, farm","adminCodes1":{"ISO3166_2":"CA"},"countryName":"United States","fcodeName":"school","adminName1":"California","lat":"33.93689","fcode":"SCH"},{"adminCode1":"AR","lng":"-92.3946","geonameId":4123393,"toponymName":"Nelsons Ferry (historical)","countryId":"6252001","fcl":"R","population":0,"countryCode":"US","name":"Nelsons Ferry (historical)","fclName":"road, railroad ","adminCodes1":{"ISO3166_2":"AR"},"countryName":"United States","fcodeName":"road junction","adminName1":"Arkansas","lat":"36.18979","fcode":"RDJCT"},{"adminCode1":"AR","lng":"-92.44183","geonameId":4118501,"toponymName":"Laytonville (historical)","countryId":"6252001","fcl":"P","population":0,"countryCode":"US","name":"Laytonville (historical)","fclName":"city, village,...","adminCodes1":{"ISO3166_2":"AR"},"countryName":"United States","fcodeName":"abandoned populated place","adminName1":"Arkansas","lat":"36.21035","fcode":"PPLQ"},{"adminCode1":"SC","lng":"-81.64926","geonameId":4572712,"toponymName":"Buford Street United Methodist Church","countryId":"6252001","fcl":"S","population":0,"countryCode":"US","name":"Buford Street United Methodist Church","fclName":"spot, building, farm","adminCodes1":{"ISO3166_2":"SC"},"countryName":"United States","fcodeName":"church","adminName1":"South Carolina","lat":"35.07124","fcode":"CH"},{"adminCode1":"SC","lng":"-81.67621","geonameId":4572709,"toponymName":"Buford Heights","countryId":"6252001","fcl":"P","population":0,"countryCode":"US","name":"Buford Heights","fclName":"city, village,...","adminCodes1":{"ISO3166_2":"SC"},"countryName":"United States","fcodeName":"section of populated place","adminName1":"South Carolina","lat":"35.0929","fcode":"PPLX"},{"adminCode1":"GA","lng":"-83.99241","geonameId":4220282,"toponymName":"Sagefield","countryId":"6252001","fcl":"P","population":0,"countryCode":"US","name":"Sagefield","fclName":"city, village,...","adminCodes1":{"ISO3166_2":"GA"},"countryName":"United States","fcodeName":"section of populated place","adminName1":"Georgia","lat":"34.13149","fcode":"PPLX"},{"adminCode1":"GA","lng":"-83.98768","geonameId":4231732,"toponymName":"Woodbriar East","countryId":"6252001","fcl":"P","population":0,"countryCode":"US","name":"Woodbriar East","fclName":"city, village,...","adminCodes1":{"ISO3166_2":"GA"},"countryName":"United States","fcodeName":"section of populated place","adminName1":"Georgia","lat":"34.1051","fcode":"PPLX"},{"adminCode1":"NC","lng":"-80.61396","geonameId":4486607,"toponymName":"Prospect Elementary School","countryId":"6252001","fcl":"S","population":0,"countryCode":"US","name":"Prospect Elementary School","fclName":"spot, building, farm","adminCodes1":{"ISO3166_2":"NC"},"countryName":"United States","fcodeName":"school","adminName1":"North Carolina","lat":"34.86043","fcode":"SCH"},{"adminCode1":"WY","lng":"-105.5986","geonameId":5825419,"toponymName":"Fort Sanders (historical)","countryId":"6252001","fcl":"S","population":0,"countryCode":"US","name":"Fort Sanders (historical)","fclName":"spot, building, farm","adminCodes1":{"ISO3166_2":"WY"},"countryName":"United States","fcodeName":"","adminName1":"Wyoming","lat":"41.27109"},{"adminCode1":"TX","lng":"-94.94827","geonameId":4682842,"toponymName":"Compton Branch","countryId":"6252001","fcl":"H","population":0,"countryCode":"US","name":"Compton Branch","fclName":"stream, lake, ...","adminCodes1":{"ISO3166_2":"TX"},"countryName":"United States","fcodeName":"stream","adminName1":"Texas","lat":"31.941","fcode":"STM"},{"adminCode1":"TN","lng":"-87.8453","geonameId":4609693,"toponymName":"Bufford Spring","countryId":"6252001","fcl":"H","population":0,"countryCode":"US","name":"Bufford Spring","fclName":"stream, lake, ...","adminCodes1":{"ISO3166_2":"TN"},"countryName":"United States","fcodeName":"spring(s)","adminName1":"Tennessee","lat":"36.46977","fcode":"SPNG"},{"adminCode1":"TX","lng":"-94.94327","geonameId":4741390,"toponymName":"Wheelus Branch","countryId":"6252001","fcl":"H","population":0,"countryCode":"US","name":"Wheelus Branch","fclName":"stream, lake, ...","adminCodes1":{"ISO3166_2":"TX"},"countryName":"United States","fcodeName":"stream","adminName1":"Texas","lat":"31.90434","fcode":"STM"},{"adminCode1":"GA","lng":"-83.9989","geonameId":6463050,"toponymName":"Wingate Inn - Atlanta Buford","countryId":"6252001","fcl":"S","population":0,"countryCode":"US","name":"Wingate Inn - Atlanta Buford","fclName":"spot, building, farm","adminCodes1":{"ISO3166_2":"GA"},"countryName":"United States","fcodeName":"hotel","adminName1":"Georgia","lat":"34.0603","fcode":"HTL"},{"adminCode1":"GA","lng":"-83.9857","geonameId":6462821,"toponymName":"SpringHill Suites by Marriott Atlanta Buford","countryId":"6252001","fcl":"S","population":0,"countryCode":"US","name":"SpringHill Suites by Marriott Atlanta Buford","fclName":"spot, building, farm","adminCodes1":{"ISO3166_2":"GA"},"countryName":"United States","fcodeName":"hotel","adminName1":"Georgia","lat":"34.0715","fcode":"HTL"},{"adminCode1":"GA","lng":"-84.00794","geonameId":6531719,"toponymName":"Days Inn Buford Mall Of Georgi","countryId":"6252001","fcl":"S","population":0,"countryCode":"US","name":"Days Inn Buford Mall Of Georgi","fclName":"spot, building, farm","adminCodes1":{"ISO3166_2":"GA"},"countryName":"United States","fcodeName":"hotel","adminName1":"Georgia","lat":"34.09276","fcode":"HTL"},{"adminCode1":"GA","lng":"-83.99548","geonameId":11548783,"toponymName":"Buford REI","countryId":"6252001","fcl":"S","population":0,"countryCode":"US","name":"Buford REI","fclName":"spot, building, farm","adminCodes1":{"ISO3166_2":"GA"},"countryName":"United States","fcodeName":"store","adminName1":"Georgia","lat":"34.06369","fcode":"RET"},{"adminCode1":"AR","lng":"-92.42746","geonameId":7127834,"toponymName":"Buford Volunteer Fire Department","countryId":"6252001","fcl":"S","population":0,"countryCode":"US","name":"Buford Volunteer Fire Department","fclName":"spot, building, farm","adminCodes1":{"ISO3166_2":"AR"},"countryName":"United States","fcodeName":"building(s)","adminName1":"Arkansas","lat":"36.24872","fcode":"BLDG"},{"adminCode1":"AR","lng":"-92.42766","geonameId":4103650,"toponymName":"Buford School (historical)","countryId":"6252001","fcl":"S","population":0,"countryCode":"US","name":"Buford School (historical)","fclName":"spot, building, farm","adminCodes1":{"ISO3166_2":"AR"},"countryName":"United States","fcodeName":"school","adminName1":"Arkansas","lat":"36.2459","fcode":"SCH"},{"adminCode1":"AR","lng":"-92.47433","geonameId":4103651,"toponymName":"Buford Station","countryId":"6252001","fcl":"S","population":0,"countryCode":"US","name":"Buford Station","fclName":"spot, building, farm","adminCodes1":{"ISO3166_2":"AR"},"countryName":"United States","fcodeName":"","adminName1":"Arkansas","lat":"36.23507"},{"adminCode1":"GA","lng":"-84.2603","geonameId":7146548,"toponymName":"Buford Junction Shopping Center","countryId":"6252001","fcl":"S","population":0,"countryCode":"US","name":"Buford Junction Shopping Center","fclName":"spot, building, farm","adminCodes1":{"ISO3166_2":"GA"},"countryName":"United States","fcodeName":"mall","adminName1":"Georgia","lat":"33.9154","fcode":"MALL"},{"adminCode1":"GA","lng":"-83.9886","geonameId":7146760,"toponymName":"Buford Fine Arts Center","countryId":"6252001","fcl":"S","population":0,"countryCode":"US","name":"Buford Fine Arts Center","fclName":"spot, building, farm","adminCodes1":{"ISO3166_2":"GA"},"countryName":"United States","fcodeName":"building(s)","adminName1":"Georgia","lat":"34.1297","fcode":"BLDG"},{"adminCode1":"GA","lng":"-83.9991","geonameId":7146798,"toponymName":"Buford Sugar Hill Library","countryId":"6252001","fcl":"S","population":0,"countryCode":"US","name":"Buford Sugar Hill Library","fclName":"spot, building, farm","adminCodes1":{"ISO3166_2":"GA"},"countryName":"United States","fcodeName":"library","adminName1":"Georgia","lat":"34.1112","fcode":"LIBR"},{"adminCode1":"GA","lng":"-84.008","geonameId":7142405,"toponymName":"Buford Police Station","countryId":"6252001","fcl":"S","population":0,"countryCode":"US","name":"Buford Police Station","fclName":"spot, building, farm","adminCodes1":{"ISO3166_2":"GA"},"countryName":"United States","fcodeName":"building(s)","adminName1":"Georgia","lat":"34.1197","fcode":"BLDG"},{"adminCode1":"GA","lng":"-84.0234","geonameId":7142407,"toponymName":"Church of Christ at Buford","countryId":"6252001","fcl":"S","population":0,"countryCode":"US","name":"Church of Christ at Buford","fclName":"spot, building, farm","adminCodes1":{"ISO3166_2":"GA"},"countryName":"United States","fcodeName":"church","adminName1":"Georgia","lat":"34.0847","fcode":"CH"},{"adminCode1":"GA","lng":"-83.99136","geonameId":7242413,"toponymName":"Buford Academy","countryId":"6252001","fcl":"S","population":0,"countryCode":"US","name":"Buford Academy","fclName":"spot, building, farm","adminCodes1":{"ISO3166_2":"GA"},"countryName":"United States","fcodeName":"school","adminName1":"Georgia","lat":"34.12754","fcode":"SCH"},{"adminCode1":"GA","lng":"-84.00546","geonameId":4194854,"toponymName":"First Baptist Church of Buford","countryId":"6252001","fcl":"S","population":0,"countryCode":"US","name":"First Baptist Church of Buford","fclName":"spot, building, farm","adminCodes1":{"ISO3166_2":"GA"},"countryName":"United States","fcodeName":"church","adminName1":"Georgia","lat":"34.11899","fcode":"CH"}]}
