{"totalResultsCount":33,"geonames":[{"adminCode1":"NC","lng":"-79.09338","geonameId":4458342,"toponymName":"Township of Bushy Fork","countryId":"6252001","fcl":"A","population":0,"countryCode":"US","name":"Bushy Fork Township","fclName":"country, state, region,...","adminCodes1":{"ISO3166_2":"NC"},"countryName":"United States","fcodeName":"third-order administrative division","adminName1":"North Carolina","lat":"36.29228","fcode":"ADM3"},{"adminCode1":"NC","lng":"-79.04751","geonameId":4472415,"toponymName":"Hurdle Mills","countryId":"6252001","fcl":"P","population":0,"countryCode":"US","name":"Hurdle Mills","fclName":"city, village,...","adminCodes1":{"ISO3166_2":"NC"},"countryName":"United States","fcodeName":"populated place","adminName1":"North Carolina","lat":"36.2732","fcode":"PPL"},{"adminCode1":"NC","lng":"-79.0864","geonameId":4458339,"toponymName":"Bushy Fork","countryId":"6252001","fcl":"P","population":0,"countryCode":"US","name":"Bushy Fork","fclName":"city, village,...","adminCodes1":{"ISO3166_2":"NC"},"countryName":"United States","fcodeName":"populated place","adminName1":"North Carolina","lat":"36.30792","fcode":"PPL"},{"adminCode1":"NC","lng":"-79.08045","geonameId":4498912,"toponymName":"Whitfield Farms Airport","countryId":"6252001","fcl":"S","population":0,"countryCode":"US","name":"Whitfield Farms Airport","fclName":"spot, building, farm","adminCodes1":{"ISO3166_2":"NC"},"countryName":"United States","fcodeName":"airport","adminName1":"North Carolina","lat":"36.2833","fcode":"AIRP"},{"adminCode1":"NC","lng":"-79.12529","geonameId":4489975,"toponymName":"Salem United Methodist Church","countryId":"6252001","fcl":"S","population":0,"countryCode":"US","name":"Salem United Methodist Church","fclName":"spot, building, farm","adminCodes1":{"ISO3166_2":"NC"},"countryName":"United States","fcodeName":"church","adminName1":"North Carolina","lat":"36.30264","fcode":"CH"},{"adminCode1":"NC","lng":"-79.12696","geonameId":4468369,"toponymName":"Gordonton","countryId":"6252001","fcl":"P","population":0,"countryCode":"US","name":"Gordonton","fclName":"city, village,...","adminCodes1":{"ISO3166_2":"NC"},"countryName":"United States","fcodeName":"populated place","adminName1":"North Carolina","lat":"36.28097","fcode":"PPL"},{"adminCode1":"NC","lng":"-79.10057","geonameId":4461009,"toponymName":"Clement Missionary Baptist Church","countryId":"6252001","fcl":"S","population":0,"countryCode":"US","name":"Clement Missionary Baptist Church","fclName":"spot, building, farm","adminCodes1":{"ISO3166_2":"NC"},"countryName":"United States","fcodeName":"church","adminName1":"North Carolina","lat":"36.30181","fcode":"CH"},{"adminCode1":"KY","lng":"-82.49487","geonameId":4282629,"toponymName":"Apple Orchard Church of Regular Baptist","countryId":"6252001","fcl":"S","population":0,"countryCode":"US","name":"Apple Orchard Church of Regular Baptist","fclName":"spot, building, farm","adminCodes1":{"ISO3166_2":"KY"},"countryName":"United States","fcodeName":"church","adminName1":"Kentucky","lat":"37.6726","fcode":"CH"},{"adminCode1":"KY","lng":"-83.8177","geonameId":4285777,"toponymName":"Brushy Branch","countryId":"6252001","fcl":"H","population":0,"countryCode":"US","name":"Brushy Branch","fclName":"stream, lake, ...","adminCodes1":{"ISO3166_2":"KY"},"countryName":"United States","fcodeName":"stream","adminName1":"Kentucky","lat":"37.26176","fcode":"STM"},{"adminCode1":"NC","lng":"-80.18283","geonameId":4457622,"toponymName":"Brushy Fork","countryId":"6252001","fcl":"H","population":0,"countryCode":"US","name":"Brushy Fork","fclName":"stream, lake, ...","adminCodes1":{"ISO3166_2":"NC"},"countryName":"United States","fcodeName":"stream","adminName1":"North Carolina","lat":"35.90847","fcode":"STM"},{"adminCode1":"OH","lng":"-82.64627","geonameId":4507302,"toponymName":"Brushy Fork","countryId":"6252001","fcl":"H","population":0,"countryCode":"US","name":"Brushy Fork","fclName":"stream, lake, ...","adminCodes1":{"ISO3166_2":"OH"},"countryName":"United States","fcodeName":"stream","adminName1":"Ohio","lat":"38.7548","fcode":"STM"},{"adminCode1":"IN","lng":"-86.7711","geonameId":4255093,"toponymName":"Brushy Fork","countryId":"6252001","fcl":"H","population":0,"countryCode":"US","name":"Brushy Fork","fclName":"stream, lake, ...","adminCodes1":{"ISO3166_2":"IN"},"countryName":"United States","fcodeName":"stream","adminName1":"Indiana","lat":"38.00256","fcode":"STM"},{"adminCode1":"NC","lng":"-79.09668","geonameId":4482919,"toponymName":"Oak Lane School","countryId":"6252001","fcl":"S","population":0,"countryCode":"US","name":"Oak Lane School","fclName":"spot, building, farm","adminCodes1":{"ISO3166_2":"NC"},"countryName":"United States","fcodeName":"school","adminName1":"North Carolina","lat":"36.27431","fcode":"SCH"},{"adminCode1":"NC","lng":"-79.10418","geonameId":4499086,"toponymName":"Wilderness Church","countryId":"6252001","fcl":"S","population":0,"countryCode":"US","name":"Wilderness Church","fclName":"spot, building, farm","adminCodes1":{"ISO3166_2":"NC"},"countryName":"United States","fcodeName":"church","adminName1":"North Carolina","lat":"36.26875","fcode":"CH"},{"adminCode1":"NC","lng":"-79.13029","geonameId":4470749,"toponymName":"Hesters Store","countryId":"6252001","fcl":"S","population":0,"countryCode":"US","name":"Hesters Store","fclName":"spot, building, farm","adminCodes1":{"ISO3166_2":"NC"},"countryName":"United States","fcodeName":"","adminName1":"North Carolina","lat":"36.33014"},{"adminCode1":"NC","lng":"-79.05138","geonameId":8481390,"toponymName":"Hurdle Mills Volunteer Fire Department Station 2 Hurdle Mills","countryId":"6252001","fcl":"S","population":0,"countryCode":"US","name":"Hurdle Mills Volunteer Fire Department Station 2 Hurdle Mills","fclName":"spot, building, farm","adminCodes1":{"ISO3166_2":"NC"},"countryName":"United States","fcodeName":"building(s)","adminName1":"North Carolina","lat":"36.27276","fcode":"BLDG"},{"adminCode1":"KY","lng":"-82.48182","geonameId":4297758,"toponymName":"Left Fork Bushy Fork","countryId":"6252001","fcl":"H","population":0,"countryCode":"US","name":"Left Fork Bushy Fork","fclName":"stream, lake, ...","adminCodes1":{"ISO3166_2":"KY"},"countryName":"United States","fcodeName":"stream","adminName1":"Kentucky","lat":"37.66315","fcode":"STM"},{"adminCode1":"PA","lng":"-78.46335","geonameId":4556908,"toponymName":"Bushy Fork","countryId":"6252001","fcl":"H","population":0,"countryCode":"US","name":"Bushy Fork","fclName":"stream, lake, ...","adminCodes1":{"ISO3166_2":"PA"},"countryName":"United States","fcodeName":"stream","adminName1":"Pennsylvania","lat":"39.82481","fcode":"STM"},{"adminCode1":"NC","lng":"-79.0914","geonameId":4458347,"toponymName":"Bushy Fork School (historical)","countryId":"6252001","fcl":"S","population":0,"countryCode":"US","name":"Bushy Fork School (historical)","fclName":"spot, building, farm","adminCodes1":{"ISO3166_2":"NC"},"countryName":"United States","fcodeName":"school","adminName1":"North Carolina","lat":"36.30597","fcode":"SCH"},{"adminCode1":"NC","lng":"-76.97161","geonameId":4458338,"toponymName":"Bushy Fork","countryId":"6252001","fcl":"H","population":0,"countryCode":"US","name":"Bushy Fork","fclName":"stream, lake, ...","adminCodes1":{"ISO3166_2":"NC"},"countryName":"United States","fcodeName":"stream","adminName1":"North Carolina","lat":"35.26877","fcode":"STM"},{"adminCode1":"NC","lng":"-79.05112","geonameId":4458340,"toponymName":"Bushy Fork Creek","countryId":"6252001","fcl":"H","population":0,"countryCode":"US","name":"Bushy Fork Creek","fclName":"stream, lake, ...","adminCodes1":{"ISO3166_2":"NC"},"countryName":"United States","fcodeName":"stream","adminName1":"North Carolina","lat":"36.27903","fcode":"STM"},{"adminCode1":"NC","lng":"-79.12557","geonameId":4489970,"toponymName":"Salem Methodist Church Cemetery","countryId":"6252001","fcl":"S","population":0,"countryCode":"US","name":"Salem Methodist Church Cemetery","fclName":"spot, building, farm","adminCodes1":{"ISO3166_2":"NC"},"countryName":"United States","fcodeName":"cemetery","adminName1":"North Carolina","lat":"36.30208","fcode":"CMTY"},{"adminCode1":"NC","lng":"-79.1214","geonameId":4498527,"toponymName":"Wheelers Church Cemetery","countryId":"6252001","fcl":"S","population":0,"countryCode":"US","name":"Wheelers Church Cemetery","fclName":"spot, building, farm","adminCodes1":{"ISO3166_2":"NC"},"countryName":"United States","fcodeName":"cemetery","adminName1":"North Carolina","lat":"36.26625","fcode":"CMTY"},{"adminCode1":"NC","lng":"-79.12113","geonameId":4498531,"toponymName":"Wheelers Church","countryId":"6252001","fcl":"S","population":0,"countryCode":"US","name":"Wheelers Church","fclName":"spot, building, farm","adminCodes1":{"ISO3166_2":"NC"},"countryName":"United States","fcodeName":"church","adminName1":"North Carolina","lat":"36.26708","fcode":"CH"},{"adminCode1":"NC","lng":"-79.04973","geonameId":4498915,"toponymName":"Whitfield Pond Dam","countryId":"6252001","fcl":"S","population":0,"countryCode":"US","name":"Whitfield Pond Dam","fclName":"spot, building, farm","adminCodes1":{"ISO3166_2":"NC"},"countryName":"United States","fcodeName":"dam","adminName1":"North Carolina","lat":"36.27014","fcode":"DAM"},{"adminCode1":"NC","lng":"-79.08085","geonameId":4498917,"toponymName":"Whitfields Store (historical)","countryId":"6252001","fcl":"S","population":0,"countryCode":"US","name":"Whitfields Store (historical)","fclName":"spot, building, farm","adminCodes1":{"ISO3166_2":"NC"},"countryName":"United States","fcodeName":"","adminName1":"North Carolina","lat":"36.2757"},{"adminCode1":"NC","lng":"-79.05973","geonameId":4485119,"toponymName":"Pine Hill Church","countryId":"6252001","fcl":"S","population":0,"countryCode":"US","name":"Pine Hill Church","fclName":"spot, building, farm","adminCodes1":{"ISO3166_2":"NC"},"countryName":"United States","fcodeName":"church","adminName1":"North Carolina","lat":"36.25708","fcode":"CH"},{"adminCode1":"NC","lng":"-79.03834","geonameId":4500291,"toponymName":"Youngs Chapel","countryId":"6252001","fcl":"S","population":0,"countryCode":"US","name":"Youngs Chapel","fclName":"spot, building, farm","adminCodes1":{"ISO3166_2":"NC"},"countryName":"United States","fcodeName":"church","adminName1":"North Carolina","lat":"36.33708","fcode":"CH"},{"adminCode1":"NC","lng":"-79.05696","geonameId":4472416,"toponymName":"Hurdle Mills School (historical)","countryId":"6252001","fcl":"S","population":0,"countryCode":"US","name":"Hurdle Mills School (historical)","fclName":"spot, building, farm","adminCodes1":{"ISO3166_2":"NC"},"countryName":"United States","fcodeName":"school","adminName1":"North Carolina","lat":"36.26875","fcode":"SCH"},{"adminCode1":"NC","lng":"-79.13279","geonameId":4470746,"toponymName":"Hesters Grove Church","countryId":"6252001","fcl":"S","population":0,"countryCode":"US","name":"Hesters Grove Church","fclName":"spot, building, farm","adminCodes1":{"ISO3166_2":"NC"},"countryName":"United States","fcodeName":"church","adminName1":"North Carolina","lat":"36.31264","fcode":"CH"},{"adminCode1":"NC","lng":"-79.09974","geonameId":4461006,"toponymName":"Clement Cemetery","countryId":"6252001","fcl":"S","population":0,"countryCode":"US","name":"Clement Cemetery","fclName":"spot, building, farm","adminCodes1":{"ISO3166_2":"NC"},"countryName":"United States","fcodeName":"cemetery","adminName1":"North Carolina","lat":"36.30097","fcode":"CMTY"},{"adminCode1":"NC","lng":"-79.13009","geonameId":8480404,"toponymName":"Hurdle Mills Volunteer Fire Department Station 2 Hester Store","countryId":"6252001","fcl":"S","population":0,"countryCode":"US","name":"Hurdle Mills Volunteer Fire Department Station 2 Hester Store","fclName":"spot, building, farm","adminCodes1":{"ISO3166_2":"NC"},"countryName":"United States","fcodeName":"building(s)","adminName1":"North Carolina","lat":"36.32974","fcode":"BLDG"},{"adminCode1":"NC","lng":"-79.05071","geonameId":11389602,"toponymName":"Hurdle Mills Post Office","countryId":"6252001","fcl":"S","population":0,"countryCode":"US","name":"Hurdle Mills Post Office","fclName":"spot, building, farm","adminCodes1":{"ISO3166_2":"NC"},"countryName":"United States","fcodeName":"post office","adminName1":"North Carolina","lat":"36.27248","fcode":"PO"}]}
