{"totalResultsCount":1306,"geonames":[{"adminCode1":"UT","lng":"-111.83439","geonameId":5777544,"toponymName":"Logan","countryId":"6252001","fcl":"P","population":50371,"countryCode":"US","name":"Logan","fclName":"city, village,...","adminCodes1":{"ISO3166_2":"UT"},"countryName":"United States","fcodeName":"seat of a second-order administrative division","adminName1":"Utah","lat":"41.73549","fcode":"PPLA2"},{"adminCode1":"UT","lng":"-111.85411","geonameId":5777563,"toponymName":"Logan-Cache Airport","countryId":"6252001","fcl":"S","population":0,"countryCode":"US","name":"Logan-Cache Airport","fclName":"spot, building, farm","adminCodes1":{"ISO3166_2":"UT"},"countryName":"United States","fcodeName":"airport","adminName1":"Utah","lat":"41.78715","fcode":"AIRP"},{"adminCode1":"UT","lng":"-111.74356","geonameId":5772317,"toponymName":"Cache County","countryId":"6252001","fcl":"A","population":112656,"countryCode":"US","name":"Cache","fclName":"country, state, region,...","adminCodes1":{"ISO3166_2":"UT"},"countryName":"United States","fcodeName":"second-order administrative division","adminName1":"Utah","lat":"41.72237","fcode":"ADM2"},{"adminCode1":"UT","lng":"-111.81717","geonameId":5780020,"toponymName":"Providence","countryId":"6252001","fcl":"P","population":7124,"countryCode":"US","name":"Providence","fclName":"city, village,...","adminCodes1":{"ISO3166_2":"UT"},"countryName":"United States","fcodeName":"populated place","adminName1":"Utah","lat":"41.70632","fcode":"PPL"},{"adminCode1":"UT","lng":"-111.83272","geonameId":5781551,"toponymName":"Smithfield","countryId":"6252001","fcl":"P","population":10782,"countryCode":"US","name":"Smithfield","fclName":"city, village,...","adminCodes1":{"ISO3166_2":"UT"},"countryName":"United States","fcodeName":"populated place","adminName1":"Utah","lat":"41.83826","fcode":"PPL"},{"adminCode1":"UT","lng":"-111.81356","geonameId":5780388,"toponymName":"Richmond","countryId":"6252001","fcl":"P","population":2580,"countryCode":"US","name":"Richmond","fclName":"city, village,...","adminCodes1":{"ISO3166_2":"UT"},"countryName":"United States","fcodeName":"populated place","adminName1":"Utah","lat":"41.92271","fcode":"PPL"},{"adminCode1":"UT","lng":"-111.64377","geonameId":5783701,"toponymName":"Tony Grove Lake","countryId":"6252001","fcl":"H","population":0,"countryCode":"US","name":"Tony Grove Lake","fclName":"stream, lake, ...","adminCodes1":{"ISO3166_2":"UT"},"countryName":"United States","fcodeName":"lake","adminName1":"Utah","lat":"41.89369","fcode":"LK"},{"adminCode1":"UT","lng":"-111.81911","geonameId":5776221,"toponymName":"Hyde Park","countryId":"6252001","fcl":"P","population":4375,"countryCode":"US","name":"Hyde Park","fclName":"city, village,...","adminCodes1":{"ISO3166_2":"UT"},"countryName":"United States","fcodeName":"populated place","adminName1":"Utah","lat":"41.79882","fcode":"PPL"},{"adminCode1":"UT","lng":"-111.85217","geonameId":5776228,"toponymName":"Hyrum","countryId":"6252001","fcl":"P","population":7962,"countryCode":"US","name":"Hyrum","fclName":"city, village,...","adminCodes1":{"ISO3166_2":"UT"},"countryName":"United States","fcodeName":"populated place","adminName1":"Utah","lat":"41.6341","fcode":"PPL"},{"adminCode1":"UT","lng":"-111.85744","geonameId":5776236,"toponymName":"Hyrum Reservoir State Park","countryId":"6252001","fcl":"L","population":0,"countryCode":"US","name":"Hyrum Reservoir State Park","fclName":"parks,area, ...","adminCodes1":{"ISO3166_2":"UT"},"countryName":"United States","fcodeName":"park","adminName1":"Utah","lat":"41.62021","fcode":"PRK"},{"adminCode1":"UT","lng":"-111.85634","geonameId":5777244,"toponymName":"Lewiston","countryId":"6252001","fcl":"P","population":1768,"countryCode":"US","name":"Lewiston","fclName":"city, village,...","adminCodes1":{"ISO3166_2":"UT"},"countryName":"United States","fcodeName":"populated place","adminName1":"Utah","lat":"41.97576","fcode":"PPL"},{"adminCode1":"UT","lng":"-111.97773","geonameId":5778154,"toponymName":"Mendon","countryId":"6252001","fcl":"P","population":1348,"countryCode":"US","name":"Mendon","fclName":"city, village,...","adminCodes1":{"ISO3166_2":"UT"},"countryName":"United States","fcodeName":"populated place","adminName1":"Utah","lat":"41.70993","fcode":"PPL"},{"adminCode1":"UT","lng":"-111.823","geonameId":5778379,"toponymName":"Millville","countryId":"6252001","fcl":"P","population":1970,"countryCode":"US","name":"Millville","fclName":"city, village,...","adminCodes1":{"ISO3166_2":"UT"},"countryName":"United States","fcodeName":"populated place","adminName1":"Utah","lat":"41.6816","fcode":"PPL"},{"adminCode1":"UT","lng":"-111.7116","geonameId":5778589,"toponymName":"Mount Naomi Wilderness","countryId":"6252001","fcl":"L","population":0,"countryCode":"US","name":"Mount Naomi Wilderness","fclName":"parks,area, ...","adminCodes1":{"ISO3166_2":"UT"},"countryName":"United States","fcodeName":"reserve","adminName1":"Utah","lat":"41.88778","fcode":"RES"},{"adminCode1":"UT","lng":"-111.80467","geonameId":5779025,"toponymName":"North Logan","countryId":"6252001","fcl":"P","population":10181,"countryCode":"US","name":"North Logan","fclName":"city, village,...","adminCodes1":{"ISO3166_2":"UT"},"countryName":"United States","fcodeName":"populated place","adminName1":"Utah","lat":"41.76937","fcode":"PPL"},{"adminCode1":"UT","lng":"-111.628","geonameId":5773478,"toponymName":"Crescent Lake","countryId":"6252001","fcl":"H","population":0,"countryCode":"US","name":"Crescent Lake","fclName":"stream, lake, ...","adminCodes1":{"ISO3166_2":"UT"},"countryName":"United States","fcodeName":"lake","adminName1":"Utah","lat":"41.97793","fcode":"LK"},{"adminCode1":"UT","lng":"-111.93383","geonameId":5555129,"toponymName":"Wellsville","countryId":"6252001","fcl":"P","population":3650,"countryCode":"US","name":"Wellsville","fclName":"city, village,...","adminCodes1":{"ISO3166_2":"UT"},"countryName":"United States","fcodeName":"populated place","adminName1":"Utah","lat":"41.63854","fcode":"PPL"},{"adminCode1":"UT","lng":"-112.00273","geonameId":5772314,"toponymName":"Cache Junction","countryId":"6252001","fcl":"P","population":0,"countryCode":"US","name":"Cache Junction","fclName":"city, village,...","adminCodes1":{"ISO3166_2":"UT"},"countryName":"United States","fcodeName":"populated place","adminName1":"Utah","lat":"41.83548","fcode":"PPL"},{"adminCode1":"UT","lng":"-111.838","geonameId":5779423,"toponymName":"Paradise","countryId":"6252001","fcl":"P","population":943,"countryCode":"US","name":"Paradise","fclName":"city, village,...","adminCodes1":{"ISO3166_2":"UT"},"countryName":"United States","fcodeName":"populated place","adminName1":"Utah","lat":"41.56882","fcode":"PPL"},{"adminCode1":"UT","lng":"-111.82133","geonameId":5780517,"toponymName":"River Heights","countryId":"6252001","fcl":"P","population":1941,"countryCode":"US","name":"River Heights","fclName":"city, village,...","adminCodes1":{"ISO3166_2":"UT"},"countryName":"United States","fcodeName":"populated place","adminName1":"Utah","lat":"41.7216","fcode":"PPL"},{"adminCode1":"UT","lng":"-111.94245","geonameId":5783772,"toponymName":"Trenton","countryId":"6252001","fcl":"P","population":507,"countryCode":"US","name":"Trenton","fclName":"city, village,...","adminCodes1":{"ISO3166_2":"UT"},"countryName":"United States","fcodeName":"populated place","adminName1":"Utah","lat":"41.9177","fcode":"PPL"},{"adminCode1":"UT","lng":"-111.99078","geonameId":5778890,"toponymName":"Newton","countryId":"6252001","fcl":"P","population":782,"countryCode":"US","name":"Newton","fclName":"city, village,...","adminCodes1":{"ISO3166_2":"UT"},"countryName":"United States","fcodeName":"populated place","adminName1":"Utah","lat":"41.8627","fcode":"PPL"},{"adminCode1":"UT","lng":"-111.833","geonameId":5778898,"toponymName":"Nibley","countryId":"6252001","fcl":"P","population":6451,"countryCode":"US","name":"Nibley","fclName":"city, village,...","adminCodes1":{"ISO3166_2":"UT"},"countryName":"United States","fcodeName":"populated place","adminName1":"Utah","lat":"41.67438","fcode":"PPL"},{"adminCode1":"UT","lng":"-111.93022","geonameId":5771337,"toponymName":"Benson","countryId":"6252001","fcl":"P","population":1485,"countryCode":"US","name":"Benson","fclName":"city, village,...","adminCodes1":{"ISO3166_2":"UT"},"countryName":"United States","fcodeName":"populated place","adminName1":"Utah","lat":"41.78743","fcode":"PPL"},{"adminCode1":"UT","lng":"-112.04995","geonameId":5772927,"toponymName":"Clarkston","countryId":"6252001","fcl":"P","population":694,"countryCode":"US","name":"Clarkston","fclName":"city, village,...","adminCodes1":{"ISO3166_2":"UT"},"countryName":"United States","fcodeName":"populated place","adminName1":"Utah","lat":"41.9202","fcode":"PPL"},{"adminCode1":"UT","lng":"-111.95328","geonameId":5773238,"toponymName":"Cornish","countryId":"6252001","fcl":"P","population":312,"countryCode":"US","name":"Cornish","fclName":"city, village,...","adminCodes1":{"ISO3166_2":"UT"},"countryName":"United States","fcodeName":"populated place","adminName1":"Utah","lat":"41.97548","fcode":"PPL"},{"adminCode1":"UT","lng":"-112.00511","geonameId":7260987,"toponymName":"Cache","countryId":"6252001","fcl":"P","population":38,"countryCode":"US","name":"Cache","fclName":"city, village,...","adminCodes1":{"ISO3166_2":"UT"},"countryName":"United States","fcodeName":"populated place","adminName1":"Utah","lat":"41.83082","fcode":"PPL"},{"adminCode1":"AK","lng":"-147.71639","geonameId":5861897,"toponymName":"Fairbanks","countryId":"6252001","fcl":"P","population":32325,"countryCode":"US","name":"Fairbanks","fclName":"city, village,...","adminCodes1":{"ISO3166_2":"AK"},"countryName":"United States","fcodeName":"seat of a second-order administrative division","adminName1":"Alaska","lat":"64.83778","fcode":"PPLA2"},{"adminCode1":"UT","lng":"-111.51882","geonameId":5779634,"toponymName":"Peter Sinks","countryId":"6252001","fcl":"T","population":0,"countryCode":"US","name":"Peter Sinks","fclName":"mountain,hill,rock,... ","adminCodes1":{"ISO3166_2":"UT"},"countryName":"United States","fcodeName":"depression(s)","adminName1":"Utah","lat":"41.91271","fcode":"DPR"},{"adminCode1":"UT","lng":"-111.98161","geonameId":5779635,"toponymName":"Petersboro","countryId":"6252001","fcl":"P","population":0,"countryCode":"US","name":"Petersboro","fclName":"city, village,...","adminCodes1":{"ISO3166_2":"UT"},"countryName":"United States","fcodeName":"populated place","adminName1":"Utah","lat":"41.7691","fcode":"PPL"},{"adminCode1":"UT","lng":"-111.75328","geonameId":5781556,"toponymName":"Smithfield Picnic Area","countryId":"6252001","fcl":"L","population":0,"countryCode":"US","name":"Smithfield Picnic Area","fclName":"parks,area, ...","adminCodes1":{"ISO3166_2":"UT"},"countryName":"United States","fcodeName":"park","adminName1":"Utah","lat":"41.86993","fcode":"PRK"},{"adminCode1":"UT","lng":"-111.64207","geonameId":5782088,"toponymName":"Steam Mill Lake","countryId":"6252001","fcl":"H","population":0,"countryCode":"US","name":"Steam Mill Lake","fclName":"stream, lake, ...","adminCodes1":{"ISO3166_2":"UT"},"countryName":"United States","fcodeName":"lake","adminName1":"Utah","lat":"41.94445","fcode":"LK"},{"adminCode1":"UT","lng":"-111.96189","geonameId":5777442,"toponymName":"Little Mountain","countryId":"6252001","fcl":"T","population":0,"countryCode":"US","name":"Little Mountain","fclName":"mountain,hill,rock,... ","adminCodes1":{"ISO3166_2":"UT"},"countryName":"United States","fcodeName":"mountain","adminName1":"Utah","lat":"41.89715","fcode":"MT"},{"adminCode1":"UT","lng":"-111.71772","geonameId":5777557,"toponymName":"Logan Peak","countryId":"6252001","fcl":"T","population":0,"countryCode":"US","name":"Logan Peak","fclName":"mountain,hill,rock,... ","adminCodes1":{"ISO3166_2":"UT"},"countryName":"United States","fcodeName":"mountain","adminName1":"Utah","lat":"41.71327","fcode":"MT"},{"adminCode1":"UT","lng":"-111.4841","geonameId":5778481,"toponymName":"Monte Cristo Range","countryId":"6252001","fcl":"T","population":0,"countryCode":"US","name":"Monte Cristo Range","fclName":"mountain,hill,rock,... ","adminCodes1":{"ISO3166_2":"UT"},"countryName":"United States","fcodeName":"mountains","adminName1":"Utah","lat":"41.54994","fcode":"MTS"},{"adminCode1":"UT","lng":"-111.67522","geonameId":5778806,"toponymName":"Naomi Peak","countryId":"6252001","fcl":"T","population":0,"countryCode":"US","name":"Naomi Peak","fclName":"mountain,hill,rock,... ","adminCodes1":{"ISO3166_2":"UT"},"countryName":"United States","fcodeName":"mountain","adminName1":"Utah","lat":"41.91132","fcode":"MT"},{"adminCode1":"UT","lng":"-111.98856","geonameId":5784481,"toponymName":"Wellsville Mountains","countryId":"6252001","fcl":"T","population":0,"countryCode":"US","name":"Wellsville Mountains","fclName":"mountain,hill,rock,... ","adminCodes1":{"ISO3166_2":"UT"},"countryName":"United States","fcodeName":"mountains","adminName1":"Utah","lat":"41.65271","fcode":"MTS"},{"adminCode1":"UT","lng":"-111.89578","geonameId":5770728,"toponymName":"Amalga","countryId":"6252001","fcl":"P","population":514,"countryCode":"US","name":"Amalga","fclName":"city, village,...","adminCodes1":{"ISO3166_2":"UT"},"countryName":"United States","fcodeName":"populated place","adminName1":"Utah","lat":"41.86104","fcode":"PPL"},{"adminCode1":"UT","lng":"-111.81327","geonameId":5770958,"toponymName":"Avon","countryId":"6252001","fcl":"P","population":367,"countryCode":"US","name":"Avon","fclName":"city, village,...","adminCodes1":{"ISO3166_2":"UT"},"countryName":"United States","fcodeName":"populated place","adminName1":"Utah","lat":"41.53299","fcode":"PPL"},{"adminCode1":"UT","lng":"-111.55799","geonameId":5771234,"toponymName":"Beaver Mountain","countryId":"6252001","fcl":"T","population":0,"countryCode":"US","name":"Beaver Mountain","fclName":"mountain,hill,rock,... ","adminCodes1":{"ISO3166_2":"UT"},"countryName":"United States","fcodeName":"mountain","adminName1":"Utah","lat":"41.9641","fcode":"MT"},{"adminCode1":"UT","lng":"-111.69355","geonameId":5771271,"toponymName":"Beirdneau Peak","countryId":"6252001","fcl":"T","population":0,"countryCode":"US","name":"Beirdneau Peak","fclName":"mountain,hill,rock,... ","adminCodes1":{"ISO3166_2":"UT"},"countryName":"United States","fcodeName":"mountain","adminName1":"Utah","lat":"41.79326","fcode":"MT"},{"adminCode1":"UT","lng":"-111.87994","geonameId":5773117,"toponymName":"College Ward","countryId":"6252001","fcl":"P","population":0,"countryCode":"US","name":"College Ward","fclName":"city, village,...","adminCodes1":{"ISO3166_2":"UT"},"countryName":"United States","fcodeName":"populated place","adminName1":"Utah","lat":"41.67688","fcode":"PPL"},{"adminCode1":"UT","lng":"-111.80606","geonameId":5773389,"toponymName":"Cove","countryId":"6252001","fcl":"P","population":460,"countryCode":"US","name":"Cove","fclName":"city, village,...","adminCodes1":{"ISO3166_2":"UT"},"countryName":"United States","fcodeName":"populated place","adminName1":"Utah","lat":"41.96354","fcode":"PPL"},{"adminCode1":"UT","lng":"-111.98611","geonameId":7262106,"toponymName":"Peter","countryId":"6252001","fcl":"P","population":324,"countryCode":"US","name":"Peter","fclName":"city, village,...","adminCodes1":{"ISO3166_2":"UT"},"countryName":"United States","fcodeName":"populated place","adminName1":"Utah","lat":"41.77172","fcode":"PPL"},{"adminCode1":"UT","lng":"-111.81272","geonameId":5784043,"toponymName":"Utah State University","countryId":"6252001","fcl":"S","population":0,"countryCode":"US","name":"Utah State University","fclName":"spot, building, farm","adminCodes1":{"ISO3166_2":"UT"},"countryName":"United States","fcodeName":"school","adminName1":"Utah","lat":"41.74104","fcode":"SCH"},{"adminCode1":"AR","lng":"-91.31374","geonameId":4105824,"toponymName":"Clarendon","countryId":"6252001","fcl":"P","population":1504,"countryCode":"US","name":"Clarendon","fclName":"city, village,...","adminCodes1":{"ISO3166_2":"AR"},"countryName":"United States","fcodeName":"seat of a second-order administrative division","adminName1":"Arkansas","lat":"34.69315","fcode":"PPLA2"},{"adminCode1":"CO","lng":"-105.44867","geonameId":5575412,"toponymName":"Cache La Poudre Wilderness","countryId":"6252001","fcl":"L","population":0,"countryCode":"US","name":"Cache La Poudre Wilderness","fclName":"parks,area, ...","adminCodes1":{"ISO3166_2":"CO"},"countryName":"United States","fcodeName":"reserve","adminName1":"Colorado","lat":"40.66126","fcode":"RES"},{"adminCode1":"UT","lng":"-111.81466","geonameId":5779431,"toponymName":"Paradise Dry Canyon","countryId":"6252001","fcl":"T","population":0,"countryCode":"US","name":"Paradise Dry Canyon","fclName":"mountain,hill,rock,... ","adminCodes1":{"ISO3166_2":"UT"},"countryName":"United States","fcodeName":"valley","adminName1":"Utah","lat":"41.53799","fcode":"VAL"},{"adminCode1":"UT","lng":"-111.92065","geonameId":5779588,"toponymName":"Pelican Pond","countryId":"6252001","fcl":"H","population":0,"countryCode":"US","name":"Pelican Pond","fclName":"stream, lake, ...","adminCodes1":{"ISO3166_2":"UT"},"countryName":"United States","fcodeName":"lake","adminName1":"Utah","lat":"41.68714","fcode":"LK"},{"adminCode1":"UT","lng":"-111.70474","geonameId":5780033,"toponymName":"Providence Lake","countryId":"6252001","fcl":"H","population":0,"countryCode":"US","name":"Providence Lake","fclName":"stream, lake, ...","adminCodes1":{"ISO3166_2":"UT"},"countryName":"United States","fcodeName":"lake","adminName1":"Utah","lat":"41.7047","fcode":"LK"},{"adminCode1":"UT","lng":"-111.57483","geonameId":5781886,"toponymName":"Spawn Creek Guzzler","countryId":"6252001","fcl":"H","population":0,"countryCode":"US","name":"Spawn Creek Guzzler","fclName":"stream, lake, ...","adminCodes1":{"ISO3166_2":"UT"},"countryName":"United States","fcodeName":"lake","adminName1":"Utah","lat":"41.84011","fcode":"LK"},{"adminCode1":"UT","lng":"-111.97177","geonameId":5782146,"toponymName":"Stock Pond","countryId":"6252001","fcl":"H","population":0,"countryCode":"US","name":"Stock Pond","fclName":"stream, lake, ...","adminCodes1":{"ISO3166_2":"UT"},"countryName":"United States","fcodeName":"lake","adminName1":"Utah","lat":"41.55757","fcode":"LK"},{"adminCode1":"UT","lng":"-111.45798","geonameId":5774480,"toponymName":"Elmo Pond","countryId":"6252001","fcl":"H","population":0,"countryCode":"US","name":"Elmo Pond","fclName":"stream, lake, ...","adminCodes1":{"ISO3166_2":"UT"},"countryName":"United States","fcodeName":"lake","adminName1":"Utah","lat":"41.57105","fcode":"LK"},{"adminCode1":"UT","lng":"-111.59399","geonameId":5775262,"toponymName":"Goring Pond","countryId":"6252001","fcl":"H","population":0,"countryCode":"US","name":"Goring Pond","fclName":"stream, lake, ...","adminCodes1":{"ISO3166_2":"UT"},"countryName":"United States","fcodeName":"lake","adminName1":"Utah","lat":"41.9039","fcode":"LK"},{"adminCode1":"UT","lng":"-111.63577","geonameId":5775579,"toponymName":"Hansen Pond","countryId":"6252001","fcl":"H","population":0,"countryCode":"US","name":"Hansen Pond","fclName":"stream, lake, ...","adminCodes1":{"ISO3166_2":"UT"},"countryName":"United States","fcodeName":"lake","adminName1":"Utah","lat":"41.86854","fcode":"LK"},{"adminCode1":"UT","lng":"-111.5791","geonameId":5775586,"toponymName":"Hardware Ranch Game Management Area","countryId":"6252001","fcl":"L","population":0,"countryCode":"US","name":"Hardware Ranch Game Management Area","fclName":"parks,area, ...","adminCodes1":{"ISO3166_2":"UT"},"countryName":"United States","fcodeName":"park","adminName1":"Utah","lat":"41.61827","fcode":"PRK"},{"adminCode1":"UT","lng":"-111.79383","geonameId":5775736,"toponymName":"Hells Kitchen","countryId":"6252001","fcl":"L","population":0,"countryCode":"US","name":"Hells Kitchen","fclName":"parks,area, ...","adminCodes1":{"ISO3166_2":"UT"},"countryName":"United States","fcodeName":"area","adminName1":"Utah","lat":"41.71438","fcode":"AREA"},{"adminCode1":"UT","lng":"-111.67772","geonameId":5775855,"toponymName":"High Creek Lake","countryId":"6252001","fcl":"H","population":0,"countryCode":"US","name":"High Creek Lake","fclName":"stream, lake, ...","adminCodes1":{"ISO3166_2":"UT"},"countryName":"United States","fcodeName":"lake","adminName1":"Utah","lat":"41.92318","fcode":"LK"},{"adminCode1":"UT","lng":"-111.51792","geonameId":5776133,"toponymName":"Horse Lake","countryId":"6252001","fcl":"H","population":0,"countryCode":"US","name":"Horse Lake","fclName":"stream, lake, ...","adminCodes1":{"ISO3166_2":"UT"},"countryName":"United States","fcodeName":"lake","adminName1":"Utah","lat":"41.93168","fcode":"LK"},{"adminCode1":"UT","lng":"-111.68883","geonameId":5776232,"toponymName":"Hyrum City Park","countryId":"6252001","fcl":"L","population":0,"countryCode":"US","name":"Hyrum City Park","fclName":"parks,area, ...","adminCodes1":{"ISO3166_2":"UT"},"countryName":"United States","fcodeName":"park","adminName1":"Utah","lat":"41.62577","fcode":"PRK"},{"adminCode1":"UT","lng":"-111.70799","geonameId":5777184,"toponymName":"Left Hand Fork Blacksmith Fork Canyon","countryId":"6252001","fcl":"T","population":0,"countryCode":"US","name":"Left Hand Fork Blacksmith Fork Canyon","fclName":"mountain,hill,rock,... ","adminCodes1":{"ISO3166_2":"UT"},"countryName":"United States","fcodeName":"valley","adminName1":"Utah","lat":"41.63132","fcode":"VAL"},{"adminCode1":"UT","lng":"-111.52211","geonameId":5777365,"toponymName":"Little Bear Pond","countryId":"6252001","fcl":"H","population":0,"countryCode":"US","name":"Little Bear Pond","fclName":"stream, lake, ...","adminCodes1":{"ISO3166_2":"UT"},"countryName":"United States","fcodeName":"lake","adminName1":"Utah","lat":"41.87226","fcode":"LK"},{"adminCode1":"UT","lng":"-111.79828","geonameId":5777603,"toponymName":"Long Hill","countryId":"6252001","fcl":"T","population":0,"countryCode":"US","name":"Long Hill","fclName":"mountain,hill,rock,... ","adminCodes1":{"ISO3166_2":"UT"},"countryName":"United States","fcodeName":"mountain","adminName1":"Utah","lat":"41.82132","fcode":"MT"},{"adminCode1":"UT","lng":"-111.82439","geonameId":5777771,"toponymName":"Mack Park","countryId":"6252001","fcl":"L","population":0,"countryCode":"US","name":"Mack Park","fclName":"parks,area, ...","adminCodes1":{"ISO3166_2":"UT"},"countryName":"United States","fcodeName":"park","adminName1":"Utah","lat":"41.8391","fcode":"PRK"},{"adminCode1":"UT","lng":"-111.66966","geonameId":5777811,"toponymName":"Mahogany Range","countryId":"6252001","fcl":"T","population":0,"countryCode":"US","name":"Mahogany Range","fclName":"mountain,hill,rock,... ","adminCodes1":{"ISO3166_2":"UT"},"countryName":"United States","fcodeName":"mountain","adminName1":"Utah","lat":"41.64355","fcode":"MT"},{"adminCode1":"UT","lng":"-111.79244","geonameId":5778382,"toponymName":"Millville Face Wildlife Management Area","countryId":"6252001","fcl":"L","population":0,"countryCode":"US","name":"Millville Face Wildlife Management Area","fclName":"parks,area, ...","adminCodes1":{"ISO3166_2":"UT"},"countryName":"United States","fcodeName":"park","adminName1":"Utah","lat":"41.64882","fcode":"PRK"},{"adminCode1":"UT","lng":"-112.06996","geonameId":5784375,"toponymName":"Washboards","countryId":"6252001","fcl":"L","population":0,"countryCode":"US","name":"Washboards","fclName":"parks,area, ...","adminCodes1":{"ISO3166_2":"UT"},"countryName":"United States","fcodeName":"area","adminName1":"Utah","lat":"41.98687","fcode":"AREA"},{"adminCode1":"UT","lng":"-111.65715","geonameId":5784753,"toponymName":"White Pine Lake","countryId":"6252001","fcl":"H","population":0,"countryCode":"US","name":"White Pine Lake","fclName":"stream, lake, ...","adminCodes1":{"ISO3166_2":"UT"},"countryName":"United States","fcodeName":"lake","adminName1":"Utah","lat":"41.92325","fcode":"LK"},{"adminCode1":"UT","lng":"-111.84717","geonameId":5784941,"toponymName":"Willow Park","countryId":"6252001","fcl":"L","population":0,"countryCode":"US","name":"Willow Park","fclName":"parks,area, ...","adminCodes1":{"ISO3166_2":"UT"},"countryName":"United States","fcodeName":"park","adminName1":"Utah","lat":"41.71938","fcode":"PRK"},{"adminCode1":"UT","lng":"-111.88547","geonameId":5771118,"toponymName":"Baxter Pothole","countryId":"6252001","fcl":"H","population":0,"countryCode":"US","name":"Baxter Pothole","fclName":"stream, lake, ...","adminCodes1":{"ISO3166_2":"UT"},"countryName":"United States","fcodeName":"lake","adminName1":"Utah","lat":"41.58333","fcode":"LK"},{"adminCode1":"UT","lng":"-111.66744","geonameId":5771191,"toponymName":"Bear River Range","countryId":"6252001","fcl":"T","population":0,"countryCode":"US","name":"Bear River Range","fclName":"mountain,hill,rock,... ","adminCodes1":{"ISO3166_2":"UT"},"countryName":"United States","fcodeName":"mountains","adminName1":"Utah","lat":"41.63327","fcode":"MTS"},{"adminCode1":"UT","lng":"-111.5416","geonameId":5771235,"toponymName":"Beaver Mountain Ski Area","countryId":"6252001","fcl":"L","population":0,"countryCode":"US","name":"Beaver Mountain Ski Area","fclName":"parks,area, ...","adminCodes1":{"ISO3166_2":"UT"},"countryName":"United States","fcodeName":"park","adminName1":"Utah","lat":"41.96826","fcode":"PRK"},{"adminCode1":"UT","lng":"-111.69411","geonameId":5771263,"toponymName":"Beirdneau Hollow","countryId":"6252001","fcl":"T","population":0,"countryCode":"US","name":"Beirdneau Hollow","fclName":"mountain,hill,rock,... ","adminCodes1":{"ISO3166_2":"UT"},"countryName":"United States","fcodeName":"valley","adminName1":"Utah","lat":"41.76438","fcode":"VAL"},{"adminCode1":"UT","lng":"-111.61574","geonameId":5772790,"toponymName":"Chicken Creek Guzzler","countryId":"6252001","fcl":"H","population":0,"countryCode":"US","name":"Chicken Creek Guzzler","fclName":"stream, lake, ...","adminCodes1":{"ISO3166_2":"UT"},"countryName":"United States","fcodeName":"lake","adminName1":"Utah","lat":"41.80697","fcode":"LK"},{"adminCode1":"UT","lng":"-112.1119","geonameId":5773103,"toponymName":"Cold Water Canyon","countryId":"6252001","fcl":"T","population":0,"countryCode":"US","name":"Cold Water Canyon","fclName":"mountain,hill,rock,... ","adminCodes1":{"ISO3166_2":"UT"},"countryName":"United States","fcodeName":"valley","adminName1":"Utah","lat":"41.97326","fcode":"VAL"},{"adminCode1":"UT","lng":"-112.00113","geonameId":5773111,"toponymName":"Coldwater Lake","countryId":"6252001","fcl":"H","population":0,"countryCode":"US","name":"Coldwater Lake","fclName":"stream, lake, ...","adminCodes1":{"ISO3166_2":"UT"},"countryName":"United States","fcodeName":"lake","adminName1":"Utah","lat":"41.66762","fcode":"LK"},{"adminCode1":"UT","lng":"-111.85772","geonameId":5773195,"toponymName":"Cooks Pond","countryId":"6252001","fcl":"H","population":0,"countryCode":"US","name":"Cooks Pond","fclName":"stream, lake, ...","adminCodes1":{"ISO3166_2":"UT"},"countryName":"United States","fcodeName":"lake","adminName1":"Utah","lat":"41.79632","fcode":"LK"},{"adminCode1":"UT","lng":"-111.62077","geonameId":5773267,"toponymName":"Cottonwood Canyon","countryId":"6252001","fcl":"T","population":0,"countryCode":"US","name":"Cottonwood Canyon","fclName":"mountain,hill,rock,... ","adminCodes1":{"ISO3166_2":"UT"},"countryName":"United States","fcodeName":"valley","adminName1":"Utah","lat":"41.8141","fcode":"VAL"},{"adminCode1":"UT","lng":"-111.54104","geonameId":5774032,"toponymName":"Dry Bread Pond","countryId":"6252001","fcl":"H","population":0,"countryCode":"US","name":"Dry Bread Pond","fclName":"stream, lake, ...","adminCodes1":{"ISO3166_2":"UT"},"countryName":"United States","fcodeName":"lake","adminName1":"Utah","lat":"41.41316","fcode":"LK"},{"adminCode1":"UT","lng":"-111.96772","geonameId":5774118,"toponymName":"Dry Lake","countryId":"6252001","fcl":"H","population":0,"countryCode":"US","name":"Dry Lake","fclName":"stream, lake, ...","adminCodes1":{"ISO3166_2":"UT"},"countryName":"United States","fcodeName":"lake","adminName1":"Utah","lat":"41.56743","fcode":"LK"},{"adminCode1":"UT","lng":"-111.49188","geonameId":5774119,"toponymName":"Dry Lake","countryId":"6252001","fcl":"H","population":0,"countryCode":"US","name":"Dry Lake","fclName":"stream, lake, ...","adminCodes1":{"ISO3166_2":"UT"},"countryName":"United States","fcodeName":"lake","adminName1":"Utah","lat":"41.67355","fcode":"LK"},{"adminCode1":"UT","lng":"-111.761","geonameId":6350540,"toponymName":"Hidden Lake","countryId":"6252001","fcl":"H","population":0,"countryCode":"US","name":"Hidden Lake","fclName":"stream, lake, ...","adminCodes1":{"ISO3166_2":"UT"},"countryName":"United States","fcodeName":"lake","adminName1":"Utah","lat":"41.37559","fcode":"LK"},{"adminCode1":"UT","lng":"-111.81165","geonameId":7173132,"toponymName":"City of Hyde Park","countryId":"6252001","fcl":"A","population":3833,"countryCode":"US","name":"City of Hyde Park","fclName":"country, state, region,...","adminCodes1":{"ISO3166_2":"UT"},"countryName":"United States","fcodeName":"administrative division","adminName1":"Utah","lat":"41.80082","fcode":"ADMD"},{"adminCode1":"UT","lng":"-111.84184","geonameId":7173684,"toponymName":"City of Logan","countryId":"6252001","fcl":"A","population":48174,"countryCode":"US","name":"City of Logan","fclName":"country, state, region,...","adminCodes1":{"ISO3166_2":"UT"},"countryName":"United States","fcodeName":"administrative division","adminName1":"Utah","lat":"41.74079","fcode":"ADMD"},{"adminCode1":"UT","lng":"-111.81975","geonameId":7173761,"toponymName":"City of River Heights","countryId":"6252001","fcl":"A","population":1734,"countryCode":"US","name":"City of River Heights","fclName":"country, state, region,...","adminCodes1":{"ISO3166_2":"UT"},"countryName":"United States","fcodeName":"administrative division","adminName1":"Utah","lat":"41.72208","fcode":"ADMD"},{"adminCode1":"UT","lng":"-111.84502","geonameId":7173965,"toponymName":"City of Nibley","countryId":"6252001","fcl":"A","population":5438,"countryCode":"US","name":"City of Nibley","fclName":"country, state, region,...","adminCodes1":{"ISO3166_2":"UT"},"countryName":"United States","fcodeName":"administrative division","adminName1":"Utah","lat":"41.67279","fcode":"ADMD"},{"adminCode1":"UT","lng":"-111.80504","geonameId":7173983,"toponymName":"City of North Logan","countryId":"6252001","fcl":"A","population":8269,"countryCode":"US","name":"City of North Logan","fclName":"country, state, region,...","adminCodes1":{"ISO3166_2":"UT"},"countryName":"United States","fcodeName":"administrative division","adminName1":"Utah","lat":"41.77604","fcode":"ADMD"},{"adminCode1":"UT","lng":"-111.81232","geonameId":7174144,"toponymName":"City of Providence","countryId":"6252001","fcl":"A","population":7075,"countryCode":"US","name":"City of Providence","fclName":"country, state, region,...","adminCodes1":{"ISO3166_2":"UT"},"countryName":"United States","fcodeName":"administrative division","adminName1":"Utah","lat":"41.70279","fcode":"ADMD"},{"adminCode1":"UT","lng":"-111.93954","geonameId":7174672,"toponymName":"City of Wellsville","countryId":"6252001","fcl":"A","population":3432,"countryCode":"US","name":"City of Wellsville","fclName":"country, state, region,...","adminCodes1":{"ISO3166_2":"UT"},"countryName":"United States","fcodeName":"administrative division","adminName1":"Utah","lat":"41.6255","fcode":"ADMD"},{"adminCode1":"UT","lng":"-111.89733","geonameId":7174783,"toponymName":"Town of Amalga","countryId":"6252001","fcl":"A","population":488,"countryCode":"US","name":"Town of Amalga","fclName":"country, state, region,...","adminCodes1":{"ISO3166_2":"UT"},"countryName":"United States","fcodeName":"administrative division","adminName1":"Utah","lat":"41.85552","fcode":"ADMD"},{"adminCode1":"UT","lng":"-111.99086","geonameId":7175456,"toponymName":"Town of Newton","countryId":"6252001","fcl":"A","population":789,"countryCode":"US","name":"Town of Newton","fclName":"country, state, region,...","adminCodes1":{"ISO3166_2":"UT"},"countryName":"United States","fcodeName":"administrative division","adminName1":"Utah","lat":"41.8612","fcode":"ADMD"},{"adminCode1":"UT","lng":"-111.83311","geonameId":7175518,"toponymName":"Town of Paradise","countryId":"6252001","fcl":"A","population":904,"countryCode":"US","name":"Town of Paradise","fclName":"country, state, region,...","adminCodes1":{"ISO3166_2":"UT"},"countryName":"United States","fcodeName":"administrative division","adminName1":"Utah","lat":"41.56786","fcode":"ADMD"},{"adminCode1":"UT","lng":"-112.05044","geonameId":7175610,"toponymName":"Town of Clarkston","countryId":"6252001","fcl":"A","population":666,"countryCode":"US","name":"Town of Clarkston","fclName":"country, state, region,...","adminCodes1":{"ISO3166_2":"UT"},"countryName":"United States","fcodeName":"administrative division","adminName1":"Utah","lat":"41.9205","fcode":"ADMD"},{"adminCode1":"UT","lng":"-111.95449","geonameId":7175647,"toponymName":"Town of Cornish","countryId":"6252001","fcl":"A","population":288,"countryCode":"US","name":"Town of Cornish","fclName":"country, state, region,...","adminCodes1":{"ISO3166_2":"UT"},"countryName":"United States","fcodeName":"administrative division","adminName1":"Utah","lat":"41.9722","fcode":"ADMD"},{"adminCode1":"UT","lng":"-111.93491","geonameId":7175798,"toponymName":"Town of Trenton","countryId":"6252001","fcl":"A","population":464,"countryCode":"US","name":"Town of Trenton","fclName":"country, state, region,...","adminCodes1":{"ISO3166_2":"UT"},"countryName":"United States","fcodeName":"administrative division","adminName1":"Utah","lat":"41.91218","fcode":"ADMD"},{"adminCode1":"UT","lng":"-111.84382","geonameId":11788387,"toponymName":"City of Hyrum","countryId":"6252001","fcl":"A","population":0,"countryCode":"US","name":"City of Hyrum","fclName":"country, state, region,...","adminCodes1":{"ISO3166_2":"UT"},"countryName":"United States","fcodeName":"third-order administrative division","adminName1":"Utah","lat":"41.63169","fcode":"ADM3"},{"adminCode1":"UT","lng":"-111.82172","geonameId":11788396,"toponymName":"City of Millville","countryId":"6252001","fcl":"A","population":0,"countryCode":"US","name":"City of Millville","fclName":"country, state, region,...","adminCodes1":{"ISO3166_2":"UT"},"countryName":"United States","fcodeName":"third-order administrative division","adminName1":"Utah","lat":"41.68564","fcode":"ADM3"},{"adminCode1":"UT","lng":"-111.80751","geonameId":11788502,"toponymName":"City of Richmond","countryId":"6252001","fcl":"A","population":0,"countryCode":"US","name":"City of Richmond","fclName":"country, state, region,...","adminCodes1":{"ISO3166_2":"UT"},"countryName":"United States","fcodeName":"third-order administrative division","adminName1":"Utah","lat":"41.92326","fcode":"ADM3"},{"adminCode1":"UT","lng":"-111.82675","geonameId":11788522,"toponymName":"City of Smithfield","countryId":"6252001","fcl":"A","population":0,"countryCode":"US","name":"City of Smithfield","fclName":"country, state, region,...","adminCodes1":{"ISO3166_2":"UT"},"countryName":"United States","fcodeName":"third-order administrative division","adminName1":"Utah","lat":"41.83449","fcode":"ADM3"},{"adminCode1":"UT","lng":"-111.87964","geonameId":11788619,"toponymName":"City of Lewiston","countryId":"6252001","fcl":"A","population":0,"countryCode":"US","name":"City of Lewiston","fclName":"country, state, region,...","adminCodes1":{"ISO3166_2":"UT"},"countryName":"United States","fcodeName":"third-order administrative division","adminName1":"Utah","lat":"41.96145","fcode":"ADM3"}]}
