{"totalResultsCount":15,"geonames":[{"adminCode1":"CO","lng":"-104.78886","geonameId":5422140,"toponymName":"Fort Carson","countryId":"6252001","fcl":"P","population":13813,"countryCode":"US","name":"Fort Carson","fclName":"city, village,...","adminCodes1":{"ISO3166_2":"CO"},"countryName":"United States","fcodeName":"populated place","adminName1":"Colorado","lat":"38.73749","fcode":"PPL"},{"adminCode1":"NV","lng":"-119.70684","geonameId":5501194,"toponymName":"Camp Carson Park","countryId":"6252001","fcl":"L","population":0,"countryCode":"US","name":"Camp Carson Park","fclName":"parks,area, ...","adminCodes1":{"ISO3166_2":"NV"},"countryName":"United States","fcodeName":"park","adminName1":"Nevada","lat":"39.14269","fcode":"PRK"},{"adminCode1":"CA","lng":"-120.53965","geonameId":5324004,"toponymName":"Angels Camp","countryId":"6252001","fcl":"P","population":2677,"countryCode":"US","name":"Angels Camp","fclName":"city, village,...","adminCodes1":{"ISO3166_2":"CA"},"countryName":"United States","fcodeName":"populated place","adminName1":"California","lat":"38.06826","fcode":"PPL"},{"adminCode1":"IN","lng":"-87.52585","geonameId":4255350,"toponymName":"Camp Carson","countryId":"6252001","fcl":"L","population":0,"countryCode":"US","name":"Camp Carson","fclName":"parks,area, ...","adminCodes1":{"ISO3166_2":"IN"},"countryName":"United States","fcodeName":"park","adminName1":"Indiana","lat":"38.35921","fcode":"PRK"},{"adminCode1":"NV","lng":"-119.89046","geonameId":5501885,"toponymName":"Clear Creek Campground (historical)","countryId":"6252001","fcl":"S","population":0,"countryCode":"US","name":"Clear Creek Campground (historical)","fclName":"spot, building, farm","adminCodes1":{"ISO3166_2":"NV"},"countryName":"United States","fcodeName":"abandoned camp","adminName1":"Nevada","lat":"39.11491","fcode":"CMPQ"},{"adminCode1":"OR","lng":"-118.2955","geonameId":5717500,"toponymName":"Camp Carson (historical)","countryId":"6252001","fcl":"P","population":0,"countryCode":"US","name":"Camp Carson (historical)","fclName":"city, village,...","adminCodes1":{"ISO3166_2":"OR"},"countryName":"United States","fcodeName":"abandoned populated place","adminName1":"Oregon","lat":"45.03597","fcode":"PPLQ"},{"adminCode1":"TX","lng":"-101.40155","geonameId":5550617,"toponymName":"Carson Camp","countryId":"6252001","fcl":"S","population":0,"countryCode":"US","name":"Carson Camp","fclName":"spot, building, farm","adminCodes1":{"ISO3166_2":"TX"},"countryName":"United States","fcodeName":"camp(s)","adminName1":"Texas","lat":"35.61532","fcode":"CMP"},{"adminCode1":"TX","lng":"-101.40489","geonameId":5517956,"toponymName":"Burnett Camp","countryId":"6252001","fcl":"S","population":0,"countryCode":"US","name":"Burnett Camp","fclName":"spot, building, farm","adminCodes1":{"ISO3166_2":"TX"},"countryName":"United States","fcodeName":"camp(s)","adminName1":"Texas","lat":"35.60588","fcode":"CMP"},{"adminCode1":"NM","lng":"-104.93111","geonameId":5486897,"toponymName":"Rayado Camp","countryId":"6252001","fcl":"S","population":0,"countryCode":"US","name":"Rayado Camp","fclName":"spot, building, farm","adminCodes1":{"ISO3166_2":"NM"},"countryName":"United States","fcodeName":"camp(s)","adminName1":"New Mexico","lat":"36.36781","fcode":"CMP"},{"adminCode1":"NV","lng":"-119.80463","geonameId":5501207,"toponymName":"Camp Nye (historical)","countryId":"6252001","fcl":"S","population":0,"countryCode":"US","name":"Camp Nye (historical)","fclName":"spot, building, farm","adminCodes1":{"ISO3166_2":"NV"},"countryName":"United States","fcodeName":"abandoned camp","adminName1":"Nevada","lat":"39.16463","fcode":"CMPQ"},{"adminCode1":"OR","lng":"-118.29078","geonameId":5717486,"toponymName":"Camp Carson Mine","countryId":"6252001","fcl":"S","population":0,"countryCode":"US","name":"Camp Carson Mine","fclName":"spot, building, farm","adminCodes1":{"ISO3166_2":"OR"},"countryName":"United States","fcodeName":"mine(s)","adminName1":"Oregon","lat":"45.0343","fcode":"MN"},{"adminCode1":"PA","lng":"-76.46441","geonameId":5182891,"toponymName":"Camp Carson","countryId":"6252001","fcl":"S","population":0,"countryCode":"US","name":"Camp Carson","fclName":"spot, building, farm","adminCodes1":{"ISO3166_2":"PA"},"countryName":"United States","fcodeName":"camp(s)","adminName1":"Pennsylvania","lat":"40.48009","fcode":"CMP"},{"adminCode1":"PA","lng":"-77.20304","geonameId":5183350,"toponymName":"Carson Long Camp","countryId":"6252001","fcl":"S","population":0,"countryCode":"US","name":"Carson Long Camp","fclName":"spot, building, farm","adminCodes1":{"ISO3166_2":"PA"},"countryName":"United States","fcodeName":"camp(s)","adminName1":"Pennsylvania","lat":"40.3487","fcode":"CMP"},{"adminCode1":"NM","lng":"-106.89948","geonameId":5474553,"toponymName":"Kit Carson Boy Scout Camp","countryId":"6252001","fcl":"S","population":0,"countryCode":"US","name":"Kit Carson Boy Scout Camp","fclName":"spot, building, farm","adminCodes1":{"ISO3166_2":"NM"},"countryName":"United States","fcodeName":"camp(s)","adminName1":"New Mexico","lat":"36.0578","fcode":"CMP"},{"adminCode1":"CA","lng":"-119.89768","geonameId":5363535,"toponymName":"Kit Carson Campground","countryId":"6252001","fcl":"S","population":0,"countryCode":"US","name":"Kit Carson Campground","fclName":"spot, building, farm","adminCodes1":{"ISO3166_2":"CA"},"countryName":"United States","fcodeName":"camp(s)","adminName1":"California","lat":"38.77629","fcode":"CMP"}]}
