{"totalResultsCount":45,"geonames":[{"adminCode1":"CA","lng":"-117.2792","geonameId":5334165,"toponymName":"Cardiff State Beach","countryId":"6252001","fcl":"L","population":0,"countryCode":"US","name":"Cardiff State Beach","fclName":"parks,area, ...","adminCodes1":{"ISO3166_2":"CA"},"countryName":"United States","fcodeName":"park","adminName1":"California","lat":"33.01004","fcode":"PRK"},{"adminCode1":"MD","lng":"-76.33774","geonameId":4350384,"toponymName":"Cardiff","countryId":"6252001","fcl":"P","population":0,"countryCode":"US","name":"Cardiff","fclName":"city, village,...","adminCodes1":{"ISO3166_2":"MD"},"countryName":"United States","fcodeName":"populated place","adminName1":"Maryland","lat":"39.71733","fcode":"PPL"},{"adminCode1":"TX","lng":"-95.84967","geonameId":4678993,"toponymName":"Cardiff Brothers Airport","countryId":"6252001","fcl":"S","population":0,"countryCode":"US","name":"Cardiff Brothers Airport","fclName":"spot, building, farm","adminCodes1":{"ISO3166_2":"TX"},"countryName":"United States","fcodeName":"airport","adminName1":"Texas","lat":"29.7294","fcode":"AIRP"},{"adminCode1":"TN","lng":"-84.63105","geonameId":4611297,"toponymName":"Cardiff","countryId":"6252001","fcl":"P","population":0,"countryCode":"US","name":"Cardiff","fclName":"city, village,...","adminCodes1":{"ISO3166_2":"TN"},"countryName":"United States","fcodeName":"populated place","adminName1":"Tennessee","lat":"35.89063","fcode":"PPL"},{"adminCode1":"AL","lng":"-86.93361","geonameId":4053684,"toponymName":"Cardiff","countryId":"6252001","fcl":"P","population":54,"countryCode":"US","name":"Cardiff","fclName":"city, village,...","adminCodes1":{"ISO3166_2":"AL"},"countryName":"United States","fcodeName":"populated place","adminName1":"Alabama","lat":"33.64566","fcode":"PPL"},{"adminCode1":"IL","lng":"-88.28728","geonameId":4886598,"toponymName":"Cardiff","countryId":"6252001","fcl":"P","population":0,"countryCode":"US","name":"Cardiff","fclName":"city, village,...","adminCodes1":{"ISO3166_2":"IL"},"countryName":"United States","fcodeName":"populated place","adminName1":"Illinois","lat":"41.0517","fcode":"PPL"},{"adminCode1":"CA","lng":"-117.28115","geonameId":5334167,"toponymName":"Cardiff-by-the-Sea","countryId":"6252001","fcl":"P","population":0,"countryCode":"US","name":"Cardiff-by-the-Sea","fclName":"city, village,...","adminCodes1":{"ISO3166_2":"CA"},"countryName":"United States","fcodeName":"section of populated place","adminName1":"California","lat":"33.02171","fcode":"PPLX"},{"adminCode1":"AL","lng":"-86.93056","geonameId":7170746,"toponymName":"Town of Cardiff","countryId":"6252001","fcl":"A","population":55,"countryCode":"US","name":"Town of Cardiff","fclName":"country, state, region,...","adminCodes1":{"ISO3166_2":"AL"},"countryName":"United States","fcodeName":"administrative division","adminName1":"Alabama","lat":"33.64719","fcode":"ADMD"},{"adminCode1":"ID","lng":"-115.81236","geonameId":5588057,"toponymName":"Cardiff","countryId":"6252001","fcl":"P","population":0,"countryCode":"US","name":"Cardiff","fclName":"city, village,...","adminCodes1":{"ISO3166_2":"ID"},"countryName":"United States","fcodeName":"populated place","adminName1":"Idaho","lat":"46.57435","fcode":"PPL"},{"adminCode1":"NY","lng":"-76.14326","geonameId":5111510,"toponymName":"Cardiff","countryId":"6252001","fcl":"P","population":0,"countryCode":"US","name":"Cardiff","fclName":"city, village,...","adminCodes1":{"ISO3166_2":"NY"},"countryName":"United States","fcodeName":"populated place","adminName1":"New York","lat":"42.88979","fcode":"PPL"},{"adminCode1":"MO","lng":"-91.37015","geonameId":4390962,"toponymName":"Holliday Hill","countryId":"6252001","fcl":"T","population":0,"countryCode":"US","name":"Holliday Hill","fclName":"mountain,hill,rock,... ","adminCodes1":{"ISO3166_2":"MO"},"countryName":"United States","fcodeName":"mountain","adminName1":"Missouri","lat":"39.71143","fcode":"MT"},{"adminCode1":"TX","lng":"-95.90606","geonameId":4678992,"toponymName":"Cardiff","countryId":"6252001","fcl":"P","population":0,"countryCode":"US","name":"Cardiff","fclName":"city, village,...","adminCodes1":{"ISO3166_2":"TX"},"countryName":"United States","fcodeName":"populated place","adminName1":"Texas","lat":"29.78606","fcode":"PPL"},{"adminCode1":"MD","lng":"-76.13023","geonameId":4350383,"toponymName":"Cardiff","countryId":"6252001","fcl":"P","population":0,"countryCode":"US","name":"Cardiff","fclName":"city, village,...","adminCodes1":{"ISO3166_2":"MD"},"countryName":"United States","fcodeName":"populated place","adminName1":"Maryland","lat":"39.62594","fcode":"PPL"},{"adminCode1":"MO","lng":"-91.36293","geonameId":4380020,"toponymName":"Cardiff Hill","countryId":"6252001","fcl":"T","population":0,"countryCode":"US","name":"Cardiff Hill","fclName":"mountain,hill,rock,... ","adminCodes1":{"ISO3166_2":"MO"},"countryName":"United States","fcodeName":"mountain","adminName1":"Missouri","lat":"39.71671","fcode":"MT"},{"adminCode1":"AR","lng":"-93.9252","geonameId":4104580,"toponymName":"Cardiff","countryId":"6252001","fcl":"P","population":0,"countryCode":"US","name":"Cardiff","fclName":"city, village,...","adminCodes1":{"ISO3166_2":"AR"},"countryName":"United States","fcodeName":"populated place","adminName1":"Arkansas","lat":"34.92732","fcode":"PPL"},{"adminCode1":"DE","lng":"-75.53798","geonameId":4141780,"toponymName":"Cardiff","countryId":"6252001","fcl":"P","population":0,"countryCode":"US","name":"Cardiff","fclName":"city, village,...","adminCodes1":{"ISO3166_2":"DE"},"countryName":"United States","fcodeName":"populated place","adminName1":"Delaware","lat":"39.81345","fcode":"PPL"},{"adminCode1":"ID","lng":"-115.79458","geonameId":5588058,"toponymName":"Cardiff Mill","countryId":"6252001","fcl":"P","population":0,"countryCode":"US","name":"Cardiff Mill","fclName":"city, village,...","adminCodes1":{"ISO3166_2":"ID"},"countryName":"United States","fcodeName":"populated place","adminName1":"Idaho","lat":"46.47074","fcode":"PPL"},{"adminCode1":"CO","lng":"-107.31089","geonameId":5416133,"toponymName":"Cardiff","countryId":"6252001","fcl":"P","population":0,"countryCode":"US","name":"Cardiff","fclName":"city, village,...","adminCodes1":{"ISO3166_2":"CO"},"countryName":"United States","fcodeName":"populated place","adminName1":"Colorado","lat":"39.50609","fcode":"PPL"},{"adminCode1":"PA","lng":"-78.83391","geonameId":5183220,"toponymName":"Cardiff","countryId":"6252001","fcl":"P","population":0,"countryCode":"US","name":"Cardiff","fclName":"city, village,...","adminCodes1":{"ISO3166_2":"PA"},"countryName":"United States","fcodeName":"populated place","adminName1":"Pennsylvania","lat":"40.49507","fcode":"PPL"},{"adminCode1":"TN","lng":"-84.62438","geonameId":4611299,"toponymName":"Cardiff Church","countryId":"6252001","fcl":"S","population":0,"countryCode":"US","name":"Cardiff Church","fclName":"spot, building, farm","adminCodes1":{"ISO3166_2":"TN"},"countryName":"United States","fcodeName":"church","adminName1":"Tennessee","lat":"35.89202","fcode":"CH"},{"adminCode1":"NJ","lng":"-74.5871","geonameId":4501064,"toponymName":"Cardiff","countryId":"6252001","fcl":"P","population":0,"countryCode":"US","name":"Cardiff","fclName":"city, village,...","adminCodes1":{"ISO3166_2":"NJ"},"countryName":"United States","fcodeName":"populated place","adminName1":"New Jersey","lat":"39.41012","fcode":"PPL"},{"adminCode1":"PA","lng":"-76.32847","geonameId":6340545,"toponymName":"Delta Cardiff Volunteer Fire Company Station 57","countryId":"6252001","fcl":"S","population":0,"countryCode":"US","name":"Delta Cardiff Volunteer Fire Company Station 57","fclName":"spot, building, farm","adminCodes1":{"ISO3166_2":"PA"},"countryName":"United States","fcodeName":"building(s)","adminName1":"Pennsylvania","lat":"39.72611","fcode":"BLDG"},{"adminCode1":"NJ","lng":"-74.62322","geonameId":7168691,"toponymName":"Cardiff Volunteer Fire Company 1 Station 2","countryId":"6252001","fcl":"S","population":0,"countryCode":"US","name":"Cardiff Volunteer Fire Company 1 Station 2","fclName":"spot, building, farm","adminCodes1":{"ISO3166_2":"NJ"},"countryName":"United States","fcodeName":"building(s)","adminName1":"New Jersey","lat":"39.41348","fcode":"BLDG"},{"adminCode1":"NJ","lng":"-74.58168","geonameId":7168749,"toponymName":"Cardiff Volunteer Fire Company 1","countryId":"6252001","fcl":"S","population":0,"countryCode":"US","name":"Cardiff Volunteer Fire Company 1","fclName":"spot, building, farm","adminCodes1":{"ISO3166_2":"NJ"},"countryName":"United States","fcodeName":"building(s)","adminName1":"New Jersey","lat":"39.41733","fcode":"BLDG"},{"adminCode1":"CA","lng":"-117.2823","geonameId":7196653,"toponymName":"Cardiff By the Sea Post Office","countryId":"6252001","fcl":"S","population":0,"countryCode":"US","name":"Cardiff By the Sea Post Office","fclName":"spot, building, farm","adminCodes1":{"ISO3166_2":"CA"},"countryName":"United States","fcodeName":"post office","adminName1":"California","lat":"33.02275","fcode":"PO"},{"adminCode1":"CA","lng":"-117.28254","geonameId":5334163,"toponymName":"Cardiff Branch San Diego County Library","countryId":"6252001","fcl":"S","population":0,"countryCode":"US","name":"Cardiff Branch San Diego County Library","fclName":"spot, building, farm","adminCodes1":{"ISO3166_2":"CA"},"countryName":"United States","fcodeName":"library","adminName1":"California","lat":"33.02199","fcode":"LIBR"},{"adminCode1":"CA","lng":"-117.28309","geonameId":5334164,"toponymName":"Cardiff Elementary School","countryId":"6252001","fcl":"S","population":0,"countryCode":"US","name":"Cardiff Elementary School","fclName":"spot, building, farm","adminCodes1":{"ISO3166_2":"CA"},"countryName":"United States","fcodeName":"school","adminName1":"California","lat":"33.02532","fcode":"SCH"},{"adminCode1":"OR","lng":"-123.34148","geonameId":5717943,"toponymName":"Cardiff (historical)","countryId":"6252001","fcl":"S","population":0,"countryCode":"US","name":"Cardiff (historical)","fclName":"spot, building, farm","adminCodes1":{"ISO3166_2":"OR"},"countryName":"United States","fcodeName":"","adminName1":"Oregon","lat":"44.05262"},{"adminCode1":"UT","lng":"-111.65159","geonameId":5772452,"toponymName":"Cardiff Mine","countryId":"6252001","fcl":"S","population":0,"countryCode":"US","name":"Cardiff Mine","fclName":"spot, building, farm","adminCodes1":{"ISO3166_2":"UT"},"countryName":"United States","fcodeName":"mine(s)","adminName1":"Utah","lat":"40.60773","fcode":"MN"},{"adminCode1":"CA","lng":"-117.2748","geonameId":6479474,"toponymName":"Comfort Inn Cardiff by the Sea","countryId":"6252001","fcl":"S","population":0,"countryCode":"US","name":"Comfort Inn Cardiff by the Sea","fclName":"spot, building, farm","adminCodes1":{"ISO3166_2":"CA"},"countryName":"United States","fcodeName":"hotel","adminName1":"California","lat":"33.0277","fcode":"HTL"},{"adminCode1":"MS","lng":"-90.8176","geonameId":4420638,"toponymName":"Cardiff Landing (historical)","countryId":"6252001","fcl":"S","population":0,"countryCode":"US","name":"Cardiff Landing (historical)","fclName":"spot, building, farm","adminCodes1":{"ISO3166_2":"MS"},"countryName":"United States","fcodeName":"","adminName1":"Mississippi","lat":"32.48597"},{"adminCode1":"TN","lng":"-84.63188","geonameId":4611298,"toponymName":"Cardiff Cemetery","countryId":"6252001","fcl":"S","population":0,"countryCode":"US","name":"Cardiff Cemetery","fclName":"spot, building, farm","adminCodes1":{"ISO3166_2":"TN"},"countryName":"United States","fcodeName":"cemetery","adminName1":"Tennessee","lat":"35.89007","fcode":"CMTY"},{"adminCode1":"TN","lng":"-84.61188","geonameId":4611300,"toponymName":"Cardiff Creek","countryId":"6252001","fcl":"H","population":0,"countryCode":"US","name":"Cardiff Creek","fclName":"stream, lake, ...","adminCodes1":{"ISO3166_2":"TN"},"countryName":"United States","fcodeName":"stream","adminName1":"Tennessee","lat":"35.88424","fcode":"STM"},{"adminCode1":"TN","lng":"-84.61966","geonameId":4611302,"toponymName":"Cardiff School (historical)","countryId":"6252001","fcl":"S","population":0,"countryCode":"US","name":"Cardiff School (historical)","fclName":"spot, building, farm","adminCodes1":{"ISO3166_2":"TN"},"countryName":"United States","fcodeName":"school","adminName1":"Tennessee","lat":"35.8898","fcode":"SCH"},{"adminCode1":"TN","lng":"-84.63049","geonameId":4611307,"toponymName":"Cardiff Mine","countryId":"6252001","fcl":"S","population":0,"countryCode":"US","name":"Cardiff Mine","fclName":"spot, building, farm","adminCodes1":{"ISO3166_2":"TN"},"countryName":"United States","fcodeName":"mine(s)","adminName1":"Tennessee","lat":"35.89952","fcode":"MN"},{"adminCode1":"MD","lng":"-76.33801","geonameId":4350385,"toponymName":"Cardiff Post Office","countryId":"6252001","fcl":"S","population":0,"countryCode":"US","name":"Cardiff Post Office","fclName":"spot, building, farm","adminCodes1":{"ISO3166_2":"MD"},"countryName":"United States","fcodeName":"post office","adminName1":"Maryland","lat":"39.71816","fcode":"PO"},{"adminCode1":"AL","lng":"-86.93194","geonameId":4053685,"toponymName":"Cardiff Cemetery","countryId":"6252001","fcl":"S","population":0,"countryCode":"US","name":"Cardiff Cemetery","fclName":"spot, building, farm","adminCodes1":{"ISO3166_2":"AL"},"countryName":"United States","fcodeName":"cemetery","adminName1":"Alabama","lat":"33.65566","fcode":"CMTY"},{"adminCode1":"AL","lng":"-86.93472","geonameId":4053686,"toponymName":"Cardiff Drift Mine","countryId":"6252001","fcl":"S","population":0,"countryCode":"US","name":"Cardiff Drift Mine","fclName":"spot, building, farm","adminCodes1":{"ISO3166_2":"AL"},"countryName":"United States","fcodeName":"mine(s)","adminName1":"Alabama","lat":"33.63899","fcode":"MN"},{"adminCode1":"CO","lng":"-104.74692","geonameId":5416129,"toponymName":"Cardiff Mine","countryId":"6252001","fcl":"S","population":0,"countryCode":"US","name":"Cardiff Mine","fclName":"spot, building, farm","adminCodes1":{"ISO3166_2":"CO"},"countryName":"United States","fcodeName":"mine(s)","adminName1":"Colorado","lat":"38.85944","fcode":"MN"},{"adminCode1":"IA","lng":"-92.73269","geonameId":4850384,"toponymName":"Cardiff Post Office (historical)","countryId":"6252001","fcl":"S","population":0,"countryCode":"US","name":"Cardiff Post Office (historical)","fclName":"spot, building, farm","adminCodes1":{"ISO3166_2":"IA"},"countryName":"United States","fcodeName":"post office","adminName1":"Iowa","lat":"43.32386","fcode":"PO"},{"adminCode1":"MI","lng":"-88.65874","geonameId":4988011,"toponymName":"Cardiff Mine","countryId":"6252001","fcl":"S","population":0,"countryCode":"US","name":"Cardiff Mine","fclName":"spot, building, farm","adminCodes1":{"ISO3166_2":"MI"},"countryName":"United States","fcodeName":"mine(s)","adminName1":"Michigan","lat":"46.11357","fcode":"MN"},{"adminCode1":"PA","lng":"-78.52197","geonameId":5183223,"toponymName":"Cardiff","countryId":"6252001","fcl":"S","population":0,"countryCode":"US","name":"Cardiff","fclName":"spot, building, farm","adminCodes1":{"ISO3166_2":"PA"},"countryName":"United States","fcodeName":"","adminName1":"Pennsylvania","lat":"41.26506"},{"adminCode1":"CA","lng":"-122.05148","geonameId":11903401,"toponymName":"Cardiff House Women's Center","countryId":"6252001","fcl":"S","population":0,"countryCode":"US","name":"Cardiff House Women's Center","fclName":"spot, building, farm","adminCodes1":{"ISO3166_2":"CA"},"countryName":"United States","fcodeName":"building(s)","adminName1":"California","lat":"36.97942","fcode":"BLDG"},{"adminCode1":"CA","lng":"-117.28226","geonameId":5334166,"toponymName":"Cardiff-By-The-Sea Towne Centre Shopping Center","countryId":"6252001","fcl":"S","population":0,"countryCode":"US","name":"Cardiff-By-The-Sea Towne Centre Shopping Center","fclName":"spot, building, farm","adminCodes1":{"ISO3166_2":"CA"},"countryName":"United States","fcodeName":"building(s)","adminName1":"California","lat":"33.02227","fcode":"BLDG"},{"adminCode1":"NY","lng":"-76.14139","geonameId":7239587,"toponymName":"Cardiff Cemetery","countryId":"6252001","fcl":"S","population":0,"countryCode":"US","name":"Cardiff Cemetery","fclName":"spot, building, farm","adminCodes1":{"ISO3166_2":"NY"},"countryName":"United States","fcodeName":"cemetery","adminName1":"New York","lat":"42.88528","fcode":"CMTY"}]}
