{"totalResultsCount":899,"geonames":[{"adminCode1":"WI","lng":"-87.82342","geonameId":5248102,"toponymName":"Cedar Grove","countryId":"6252001","fcl":"P","population":2112,"countryCode":"US","name":"Cedar Grove","fclName":"city, village,...","adminCodes1":{"ISO3166_2":"WI"},"countryName":"United States","fcodeName":"populated place","adminName1":"Wisconsin","lat":"43.56972","fcode":"PPL"},{"adminCode1":"VA","lng":"-78.30619","geonameId":4751498,"toponymName":"Cedar Creek and Belle Grove National Historical Park","countryId":"6252001","fcl":"L","population":0,"countryCode":"US","name":"Cedar Creek and Belle Grove National Historical Park","fclName":"parks,area, ...","adminCodes1":{"ISO3166_2":"VA"},"countryName":"United States","fcodeName":"park","adminName1":"Virginia","lat":"39.00935","fcode":"PRK"},{"adminCode1":"NJ","lng":"-74.22903","geonameId":5096371,"toponymName":"Cedar Grove","countryId":"6252001","fcl":"P","population":12457,"countryCode":"US","name":"Cedar Grove","fclName":"city, village,...","adminCodes1":{"ISO3166_2":"NJ"},"countryName":"United States","fcodeName":"populated place","adminName1":"New Jersey","lat":"40.85177","fcode":"PPL"},{"adminCode1":"AL","lng":"-86.54443","geonameId":4072130,"toponymName":"Leeds","countryId":"6252001","fcl":"P","population":11936,"countryCode":"US","name":"Leeds","fclName":"city, village,...","adminCodes1":{"ISO3166_2":"AL"},"countryName":"United States","fcodeName":"populated place","adminName1":"Alabama","lat":"33.54816","fcode":"PPL"},{"adminCode1":"IN","lng":"-84.93773","geonameId":4255571,"toponymName":"Cedar Grove","countryId":"6252001","fcl":"P","population":154,"countryCode":"US","name":"Cedar Grove","fclName":"city, village,...","adminCodes1":{"ISO3166_2":"IN"},"countryName":"United States","fcodeName":"populated place","adminName1":"Indiana","lat":"39.357","fcode":"PPL"},{"adminCode1":"FL","lng":"-85.6252","geonameId":4150340,"toponymName":"Cedar Grove","countryId":"6252001","fcl":"P","population":3397,"countryCode":"US","name":"Cedar Grove","fclName":"city, village,...","adminCodes1":{"ISO3166_2":"FL"},"countryName":"United States","fcodeName":"populated place","adminName1":"Florida","lat":"30.17103","fcode":"PPL"},{"adminCode1":"NC","lng":"-79.16779","geonameId":4459774,"toponymName":"Cedar Grove","countryId":"6252001","fcl":"P","population":0,"countryCode":"US","name":"Cedar Grove","fclName":"city, village,...","adminCodes1":{"ISO3166_2":"NC"},"countryName":"United States","fcodeName":"populated place","adminName1":"North Carolina","lat":"36.16764","fcode":"PPL"},{"adminCode1":"KS","lng":"-96.81974","geonameId":4269213,"toponymName":"Cedar Point","countryId":"6252001","fcl":"P","population":27,"countryCode":"US","name":"Cedar Point","fclName":"city, village,...","adminCodes1":{"ISO3166_2":"KS"},"countryName":"United States","fcodeName":"populated place","adminName1":"Kansas","lat":"38.26002","fcode":"PPL"},{"adminCode1":"TX","lng":"-96.08664","geonameId":4679778,"toponymName":"Cedar Grove","countryId":"6252001","fcl":"P","population":0,"countryCode":"US","name":"Cedar Grove","fclName":"city, village,...","adminCodes1":{"ISO3166_2":"TX"},"countryName":"United States","fcodeName":"populated place","adminName1":"Texas","lat":"32.75791","fcode":"PPL"},{"adminCode1":"TN","lng":"-88.59561","geonameId":4612097,"toponymName":"Cedar Grove","countryId":"6252001","fcl":"P","population":0,"countryCode":"US","name":"Cedar Grove","fclName":"city, village,...","adminCodes1":{"ISO3166_2":"TN"},"countryName":"United States","fcodeName":"populated place","adminName1":"Tennessee","lat":"35.81701","fcode":"PPL"},{"adminCode1":"TN","lng":"-86.44666","geonameId":4612111,"toponymName":"Cedar Grove Access Area","countryId":"6252001","fcl":"L","population":0,"countryCode":"US","name":"Cedar Grove Access Area","fclName":"parks,area, ...","adminCodes1":{"ISO3166_2":"TN"},"countryName":"United States","fcodeName":"park","adminName1":"Tennessee","lat":"36.34033","fcode":"PRK"},{"adminCode1":"VA","lng":"-79.38365","geonameId":4751517,"toponymName":"Cedar Grove","countryId":"6252001","fcl":"P","population":0,"countryCode":"US","name":"Cedar Grove","fclName":"city, village,...","adminCodes1":{"ISO3166_2":"VA"},"countryName":"United States","fcodeName":"populated place","adminName1":"Virginia","lat":"37.88263","fcode":"PPL"},{"adminCode1":"MN","lng":"-93.28606","geonameId":5020601,"toponymName":"Cedar","countryId":"6252001","fcl":"P","population":0,"countryCode":"US","name":"Cedar","fclName":"city, village,...","adminCodes1":{"ISO3166_2":"MN"},"countryName":"United States","fcodeName":"populated place","adminName1":"Minnesota","lat":"45.31969","fcode":"PPL"},{"adminCode1":"NJ","lng":"-74.22866","geonameId":7258093,"toponymName":"Cedar Grove","countryId":"6252001","fcl":"P","population":0,"countryCode":"US","name":"Cedar Grove","fclName":"city, village,...","adminCodes1":{"ISO3166_2":"NJ"},"countryName":"United States","fcodeName":"populated place","adminName1":"New Jersey","lat":"40.85668","fcode":"PPL"},{"adminCode1":"MS","lng":"-89.18589","geonameId":4420958,"toponymName":"Cedar Grove","countryId":"6252001","fcl":"P","population":0,"countryCode":"US","name":"Cedar Grove","fclName":"city, village,...","adminCodes1":{"ISO3166_2":"MS"},"countryName":"United States","fcodeName":"populated place","adminName1":"Mississippi","lat":"32.34903","fcode":"PPL"},{"adminCode1":"AL","lng":"-85.87275","geonameId":4054163,"toponymName":"Cedar Grove","countryId":"6252001","fcl":"P","population":0,"countryCode":"US","name":"Cedar Grove","fclName":"city, village,...","adminCodes1":{"ISO3166_2":"AL"},"countryName":"United States","fcodeName":"populated place","adminName1":"Alabama","lat":"34.83342","fcode":"PPL"},{"adminCode1":"WI","lng":"-87.82451","geonameId":5248112,"toponymName":"Village of Cedar Grove","countryId":"6252001","fcl":"A","population":2113,"countryCode":"US","name":"Village of Cedar Grove","fclName":"country, state, region,...","adminCodes1":{"ISO3166_2":"WI"},"countryName":"United States","fcodeName":"third-order administrative division","adminName1":"Wisconsin","lat":"43.56802","fcode":"ADM3"},{"adminCode1":"VA","lng":"-78.18917","geonameId":4751513,"toponymName":"Cedar Grove","countryId":"6252001","fcl":"P","population":0,"countryCode":"US","name":"Cedar Grove","fclName":"city, village,...","adminCodes1":{"ISO3166_2":"VA"},"countryName":"United States","fcodeName":"populated place","adminName1":"Virginia","lat":"39.26816","fcode":"PPL"},{"adminCode1":"CA","lng":"-118.67038","geonameId":5335226,"toponymName":"Cedar Grove","countryId":"6252001","fcl":"P","population":0,"countryCode":"US","name":"Cedar Grove","fclName":"city, village,...","adminCodes1":{"ISO3166_2":"CA"},"countryName":"United States","fcodeName":"populated place","adminName1":"California","lat":"36.79077","fcode":"PPL"},{"adminCode1":"IN","lng":"-87.35364","geonameId":4924512,"toponymName":"Orchard Grove","countryId":"6252001","fcl":"P","population":0,"countryCode":"US","name":"Orchard Grove","fclName":"city, village,...","adminCodes1":{"ISO3166_2":"IN"},"countryName":"United States","fcodeName":"populated place","adminName1":"Indiana","lat":"41.28976","fcode":"PPL"},{"adminCode1":"GA","lng":"-84.63049","geonameId":4186862,"toponymName":"Cedar Grove Park","countryId":"6252001","fcl":"L","population":0,"countryCode":"US","name":"Cedar Grove Park","fclName":"parks,area, ...","adminCodes1":{"ISO3166_2":"GA"},"countryName":"United States","fcodeName":"park","adminName1":"Georgia","lat":"33.5765","fcode":"PRK"},{"adminCode1":"NJ","lng":"-74.22881","geonameId":5096380,"toponymName":"Township of Cedar Grove","countryId":"6252001","fcl":"A","population":0,"countryCode":"US","name":"Township of Cedar Grove","fclName":"country, state, region,...","adminCodes1":{"ISO3166_2":"NJ"},"countryName":"United States","fcodeName":"third-order administrative division","adminName1":"New Jersey","lat":"40.8566","fcode":"ADM3"},{"adminCode1":"ME","lng":"-67.55722","geonameId":4960462,"toponymName":"Cedar Grove Ridge","countryId":"6252001","fcl":"T","population":0,"countryCode":"US","name":"Cedar Grove Ridge","fclName":"mountain,hill,rock,... ","adminCodes1":{"ISO3166_2":"ME"},"countryName":"United States","fcodeName":"ridge(s)","adminName1":"Maine","lat":"45.0698","fcode":"RDGE"},{"adminCode1":"TN","lng":"-84.46271","geonameId":4612103,"toponymName":"Cedar Grove","countryId":"6252001","fcl":"P","population":0,"countryCode":"US","name":"Cedar Grove","fclName":"city, village,...","adminCodes1":{"ISO3166_2":"TN"},"countryName":"United States","fcodeName":"populated place","adminName1":"Tennessee","lat":"35.84508","fcode":"PPL"},{"adminCode1":"NC","lng":"-79.895","geonameId":6298345,"toponymName":"Asheboro, Asheboro Municipal Airport","countryId":"6252001","fcl":"S","population":0,"countryCode":"US","name":"Asheboro, Asheboro Municipal Airport","fclName":"spot, building, farm","adminCodes1":{"ISO3166_2":"NC"},"countryName":"United States","fcodeName":"airport","adminName1":"North Carolina","lat":"35.65389","fcode":"AIRP"},{"adminCode1":"TN","lng":"-82.18846","geonameId":4612106,"toponymName":"Cedar Grove","countryId":"6252001","fcl":"P","population":0,"countryCode":"US","name":"Cedar Grove","fclName":"city, village,...","adminCodes1":{"ISO3166_2":"TN"},"countryName":"United States","fcodeName":"populated place","adminName1":"Tennessee","lat":"36.48011","fcode":"PPL"},{"adminCode1":"OK","lng":"-98.14199","geonameId":4532657,"toponymName":"Township of Cedar Grove","countryId":"6252001","fcl":"A","population":0,"countryCode":"US","name":"Cedar Grove Township","fclName":"country, state, region,...","adminCodes1":{"ISO3166_2":"OK"},"countryName":"United States","fcodeName":"administrative division","adminName1":"Oklahoma","lat":"34.81118","fcode":"ADMD"},{"adminCode1":"WV","lng":"-81.42789","geonameId":4801641,"toponymName":"Cedar Grove","countryId":"6252001","fcl":"P","population":952,"countryCode":"US","name":"Cedar Grove","fclName":"city, village,...","adminCodes1":{"ISO3166_2":"WV"},"countryName":"United States","fcodeName":"populated place","adminName1":"West Virginia","lat":"38.22121","fcode":"PPL"},{"adminCode1":"NC","lng":"-79.88309","geonameId":4453044,"toponymName":"Asheboro Municipal Airport","countryId":"6252001","fcl":"S","population":0,"countryCode":"US","name":"Asheboro Municipal Airport","fclName":"spot, building, farm","adminCodes1":{"ISO3166_2":"NC"},"countryName":"United States","fcodeName":"airport","adminName1":"North Carolina","lat":"35.65014","fcode":"AIRP"},{"adminCode1":"GA","lng":"-85.42607","geonameId":4186837,"toponymName":"Cedar Grove","countryId":"6252001","fcl":"P","population":0,"countryCode":"US","name":"Cedar Grove","fclName":"city, village,...","adminCodes1":{"ISO3166_2":"GA"},"countryName":"United States","fcodeName":"populated place","adminName1":"Georgia","lat":"34.71675","fcode":"PPL"},{"adminCode1":"OR","lng":"-119.33858","geonameId":5718471,"toponymName":"Cedar Grove Botanical Area","countryId":"6252001","fcl":"L","population":0,"countryCode":"US","name":"Cedar Grove Botanical Area","fclName":"parks,area, ...","adminCodes1":{"ISO3166_2":"OR"},"countryName":"United States","fcodeName":"park","adminName1":"Oregon","lat":"44.33737","fcode":"PRK"},{"adminCode1":"OR","lng":"-122.5064","geonameId":5718473,"toponymName":"Cedar Grove Lake","countryId":"6252001","fcl":"H","population":0,"countryCode":"US","name":"Cedar Grove Lake","fclName":"stream, lake, ...","adminCodes1":{"ISO3166_2":"OR"},"countryName":"United States","fcodeName":"lake","adminName1":"Oregon","lat":"45.14512","fcode":"LK"},{"adminCode1":"IN","lng":"-84.93716","geonameId":7164599,"toponymName":"Town of Cedar Grove","countryId":"6252001","fcl":"A","population":156,"countryCode":"US","name":"Town of Cedar Grove","fclName":"country, state, region,...","adminCodes1":{"ISO3166_2":"IN"},"countryName":"United States","fcodeName":"administrative division","adminName1":"Indiana","lat":"39.35611","fcode":"ADMD"},{"adminCode1":"FL","lng":"-85.58751","geonameId":7171484,"toponymName":"Town of Cedar Grove (historical)","countryId":"6252001","fcl":"A","population":3397,"countryCode":"US","name":"Town of Cedar Grove (historical)","fclName":"country, state, region,...","adminCodes1":{"ISO3166_2":"FL"},"countryName":"United States","fcodeName":"administrative division","adminName1":"Florida","lat":"30.22367","fcode":"ADMD"},{"adminCode1":"TX","lng":"-95.04104","geonameId":4679797,"toponymName":"Cedar Grove Park","countryId":"6252001","fcl":"L","population":0,"countryCode":"US","name":"Cedar Grove Park","fclName":"parks,area, ...","adminCodes1":{"ISO3166_2":"TX"},"countryName":"United States","fcodeName":"park","adminName1":"Texas","lat":"29.88078","fcode":"PRK"},{"adminCode1":"LA","lng":"-93.75796","geonameId":4319374,"toponymName":"Cedar Grove Park","countryId":"6252001","fcl":"L","population":0,"countryCode":"US","name":"Cedar Grove Park","fclName":"parks,area, ...","adminCodes1":{"ISO3166_2":"LA"},"countryName":"United States","fcodeName":"park","adminName1":"Louisiana","lat":"32.44293","fcode":"PRK"},{"adminCode1":"ID","lng":"-114.67511","geonameId":5588403,"toponymName":"Cedar Grove Picnic Area","countryId":"6252001","fcl":"L","population":0,"countryCode":"US","name":"Cedar Grove Picnic Area","fclName":"parks,area, ...","adminCodes1":{"ISO3166_2":"ID"},"countryName":"United States","fcodeName":"park","adminName1":"Idaho","lat":"46.53909","fcode":"PRK"},{"adminCode1":"WI","lng":"-87.79064","geonameId":5248106,"toponymName":"Cedar Grove Hawk Research Station State Natural Area","countryId":"6252001","fcl":"L","population":0,"countryCode":"US","name":"Cedar Grove Hawk Research Station State Natural Area","fclName":"parks,area, ...","adminCodes1":{"ISO3166_2":"WI"},"countryName":"United States","fcodeName":"park","adminName1":"Wisconsin","lat":"43.57","fcode":"PRK"},{"adminCode1":"WI","lng":"-88.5455","geonameId":11382778,"toponymName":"Cedar Grove Pond","countryId":"6252001","fcl":"H","population":0,"countryCode":"US","name":"Cedar Grove Pond","fclName":"stream, lake, ...","adminCodes1":{"ISO3166_2":"WI"},"countryName":"United States","fcodeName":"lake","adminName1":"Wisconsin","lat":"42.76886","fcode":"LK"},{"adminCode1":"NC","lng":"-79.16301","geonameId":4459823,"toponymName":"Township of Cedar Grove","countryId":"6252001","fcl":"A","population":0,"countryCode":"US","name":"Cedar Grove Township","fclName":"country, state, region,...","adminCodes1":{"ISO3166_2":"NC"},"countryName":"United States","fcodeName":"third-order administrative division","adminName1":"North Carolina","lat":"36.18951","fcode":"ADM3"},{"adminCode1":"NC","lng":"-79.87556","geonameId":4459824,"toponymName":"Township of Cedar Grove","countryId":"6252001","fcl":"A","population":0,"countryCode":"US","name":"Cedar Grove Township","fclName":"country, state, region,...","adminCodes1":{"ISO3166_2":"NC"},"countryName":"United States","fcodeName":"third-order administrative division","adminName1":"North Carolina","lat":"35.65618","fcode":"ADM3"},{"adminCode1":"NM","lng":"-106.19002","geonameId":5460910,"toponymName":"Cedar Grove","countryId":"6252001","fcl":"P","population":747,"countryCode":"US","name":"Cedar Grove","fclName":"city, village,...","adminCodes1":{"ISO3166_2":"NM"},"countryName":"United States","fcodeName":"populated place","adminName1":"New Mexico","lat":"35.17088","fcode":"PPL"},{"adminCode1":"NY","lng":"-73.69569","geonameId":5120598,"toponymName":"Hewlett","countryId":"6252001","fcl":"P","population":6819,"countryCode":"US","name":"Hewlett","fclName":"city, village,...","adminCodes1":{"ISO3166_2":"NY"},"countryName":"United States","fcodeName":"populated place","adminName1":"New York","lat":"40.64316","fcode":"PPL"},{"adminCode1":"ME","lng":"-69.7631","geonameId":4960495,"toponymName":"Cedar Grove","countryId":"6252001","fcl":"P","population":0,"countryCode":"US","name":"Cedar Grove","fclName":"city, village,...","adminCodes1":{"ISO3166_2":"ME"},"countryName":"United States","fcodeName":"populated place","adminName1":"Maine","lat":"44.11618","fcode":"PPL"},{"adminCode1":"NJ","lng":"-74.22348","geonameId":5096375,"toponymName":"Cedar Grove High School","countryId":"6252001","fcl":"S","population":0,"countryCode":"US","name":"Cedar Grove High School","fclName":"spot, building, farm","adminCodes1":{"ISO3166_2":"NJ"},"countryName":"United States","fcodeName":"school","adminName1":"New Jersey","lat":"40.85232","fcode":"SCH"},{"adminCode1":"NY","lng":"-73.82472","geonameId":7176396,"toponymName":"Cedar Grove Playground","countryId":"6252001","fcl":"L","population":0,"countryCode":"US","name":"Cedar Grove Playground","fclName":"parks,area, ...","adminCodes1":{"ISO3166_2":"NY"},"countryName":"United States","fcodeName":"park","adminName1":"New York","lat":"40.73611","fcode":"PRK"},{"adminCode1":"VA","lng":"-78.48417","geonameId":4751558,"toponymName":"Cedar Grove Wildlife Management Area","countryId":"6252001","fcl":"L","population":0,"countryCode":"US","name":"Cedar Grove Wildlife Management Area","fclName":"parks,area, ...","adminCodes1":{"ISO3166_2":"VA"},"countryName":"United States","fcodeName":"park","adminName1":"Virginia","lat":"36.55848","fcode":"PRK"},{"adminCode1":"NJ","lng":"-74.22626","geonameId":5096374,"toponymName":"Cedar Grove Community Park","countryId":"6252001","fcl":"L","population":0,"countryCode":"US","name":"Cedar Grove Community Park","fclName":"parks,area, ...","adminCodes1":{"ISO3166_2":"NJ"},"countryName":"United States","fcodeName":"park","adminName1":"New Jersey","lat":"40.85788","fcode":"PRK"},{"adminCode1":"TN","lng":"-86.52777","geonameId":4612109,"toponymName":"Cedar Grove","countryId":"6252001","fcl":"P","population":0,"countryCode":"US","name":"Cedar Grove","fclName":"city, village,...","adminCodes1":{"ISO3166_2":"TN"},"countryName":"United States","fcodeName":"populated place","adminName1":"Tennessee","lat":"36.25172","fcode":"PPL"},{"adminCode1":"OH","lng":"-82.5396","geonameId":4508096,"toponymName":"Cedar Grove","countryId":"6252001","fcl":"P","population":0,"countryCode":"US","name":"Cedar Grove","fclName":"city, village,...","adminCodes1":{"ISO3166_2":"OH"},"countryName":"United States","fcodeName":"populated place","adminName1":"Ohio","lat":"39.43784","fcode":"PPL"},{"adminCode1":"AR","lng":"-91.72542","geonameId":4105005,"toponymName":"Cedar Grove","countryId":"6252001","fcl":"P","population":0,"countryCode":"US","name":"Cedar Grove","fclName":"city, village,...","adminCodes1":{"ISO3166_2":"AR"},"countryName":"United States","fcodeName":"populated place","adminName1":"Arkansas","lat":"35.57758","fcode":"PPL"},{"adminCode1":"KY","lng":"-87.15611","geonameId":4287343,"toponymName":"Cedar Grove","countryId":"6252001","fcl":"P","population":0,"countryCode":"US","name":"Cedar Grove","fclName":"city, village,...","adminCodes1":{"ISO3166_2":"KY"},"countryName":"United States","fcodeName":"populated place","adminName1":"Kentucky","lat":"36.93421","fcode":"PPL"},{"adminCode1":"NC","lng":"-79.22002","geonameId":4459327,"toponymName":"Carr","countryId":"6252001","fcl":"P","population":0,"countryCode":"US","name":"Carr","fclName":"city, village,...","adminCodes1":{"ISO3166_2":"NC"},"countryName":"United States","fcodeName":"populated place","adminName1":"North Carolina","lat":"36.21153","fcode":"PPL"},{"adminCode1":"NC","lng":"-79.17057","geonameId":4478555,"toponymName":"McDade","countryId":"6252001","fcl":"P","population":0,"countryCode":"US","name":"McDade","fclName":"city, village,...","adminCodes1":{"ISO3166_2":"NC"},"countryName":"United States","fcodeName":"populated place","adminName1":"North Carolina","lat":"36.18931","fcode":"PPL"},{"adminCode1":"NC","lng":"-79.8267","geonameId":4496092,"toponymName":"Ulah","countryId":"6252001","fcl":"P","population":0,"countryCode":"US","name":"Ulah","fclName":"city, village,...","adminCodes1":{"ISO3166_2":"NC"},"countryName":"United States","fcodeName":"populated place","adminName1":"North Carolina","lat":"35.63541","fcode":"PPL"},{"adminCode1":"WV","lng":"-81.50651","geonameId":4801642,"toponymName":"Cedar Grove","countryId":"6252001","fcl":"P","population":0,"countryCode":"US","name":"Cedar Grove","fclName":"city, village,...","adminCodes1":{"ISO3166_2":"WV"},"countryName":"United States","fcodeName":"populated place","adminName1":"West Virginia","lat":"39.22785","fcode":"PPL"},{"adminCode1":"CT","lng":"-72.12424","geonameId":5283559,"toponymName":"Cedar Grove Cemetery","countryId":"6252001","fcl":"S","population":0,"countryCode":"US","name":"Cedar Grove Cemetery","fclName":"spot, building, farm","adminCodes1":{"ISO3166_2":"CT"},"countryName":"United States","fcodeName":"cemetery","adminName1":"Connecticut","lat":"41.36343","fcode":"CMTY"},{"adminCode1":"NJ","lng":"-74.37042","geonameId":4504723,"toponymName":"Warren Grove","countryId":"6252001","fcl":"P","population":0,"countryCode":"US","name":"Warren Grove","fclName":"city, village,...","adminCodes1":{"ISO3166_2":"NJ"},"countryName":"United States","fcodeName":"populated place","adminName1":"New Jersey","lat":"39.74651","fcode":"PPL"},{"adminCode1":"GA","lng":"-85.43941","geonameId":4186856,"toponymName":"Cedar Grove Church","countryId":"6252001","fcl":"S","population":0,"countryCode":"US","name":"Cedar Grove Church","fclName":"spot, building, farm","adminCodes1":{"ISO3166_2":"GA"},"countryName":"United States","fcodeName":"church","adminName1":"Georgia","lat":"34.6848","fcode":"CH"},{"adminCode1":"LA","lng":"-91.16316","geonameId":4319363,"toponymName":"Cedar Grove (historical)","countryId":"6252001","fcl":"P","population":0,"countryCode":"US","name":"Cedar Grove (historical)","fclName":"city, village,...","adminCodes1":{"ISO3166_2":"LA"},"countryName":"United States","fcodeName":"abandoned populated place","adminName1":"Louisiana","lat":"30.17575","fcode":"PPLQ"},{"adminCode1":"VA","lng":"-76.30772","geonameId":4751527,"toponymName":"Cedar Grove Cemetery","countryId":"6252001","fcl":"S","population":0,"countryCode":"US","name":"Cedar Grove Cemetery","fclName":"spot, building, farm","adminCodes1":{"ISO3166_2":"VA"},"countryName":"United States","fcodeName":"cemetery","adminName1":"Virginia","lat":"36.83876","fcode":"CMTY"},{"adminCode1":"AL","lng":"-87.57577","geonameId":7279130,"toponymName":"Cedar Grove Plantation","countryId":"6252001","fcl":"S","population":0,"countryCode":"US","name":"Charles Walker House","fclName":"spot, building, farm","adminCodes1":{"ISO3166_2":"AL"},"countryName":"United States","fcodeName":"house(s)","adminName1":"Alabama","lat":"32.4479","fcode":"HSE"},{"adminCode1":"WV","lng":"-81.43794","geonameId":7161560,"toponymName":"Town of Cedar Grove","countryId":"6252001","fcl":"A","population":997,"countryCode":"US","name":"Town of Cedar Grove","fclName":"country, state, region,...","adminCodes1":{"ISO3166_2":"WV"},"countryName":"United States","fcodeName":"administrative division","adminName1":"West Virginia","lat":"38.22239","fcode":"ADMD"},{"adminCode1":"MS","lng":"-89.65425","geonameId":4429635,"toponymName":"Hesterville","countryId":"6252001","fcl":"P","population":0,"countryCode":"US","name":"Hesterville","fclName":"city, village,...","adminCodes1":{"ISO3166_2":"MS"},"countryName":"United States","fcodeName":"populated place","adminName1":"Mississippi","lat":"33.16068","fcode":"PPL"},{"adminCode1":"RI","lng":"-71.36478","geonameId":5224353,"toponymName":"Riverside","countryId":"6252001","fcl":"P","population":0,"countryCode":"US","name":"Riverside","fclName":"city, village,...","adminCodes1":{"ISO3166_2":"RI"},"countryName":"United States","fcodeName":"populated place","adminName1":"Rhode Island","lat":"41.76732","fcode":"PPL"},{"adminCode1":"IA","lng":"-91.05654","geonameId":4851761,"toponymName":"Clarence Post Office","countryId":"6252001","fcl":"S","population":0,"countryCode":"US","name":"Clarence Post Office","fclName":"spot, building, farm","adminCodes1":{"ISO3166_2":"IA"},"countryName":"United States","fcodeName":"post office","adminName1":"Iowa","lat":"41.88724","fcode":"PO"},{"adminCode1":"LA","lng":"-90.96399","geonameId":4319375,"toponymName":"Cedar Grove Plantation","countryId":"6252001","fcl":"P","population":0,"countryCode":"US","name":"Cedar Grove Plantation","fclName":"city, village,...","adminCodes1":{"ISO3166_2":"LA"},"countryName":"United States","fcodeName":"populated place","adminName1":"Louisiana","lat":"29.85854","fcode":"PPL"},{"adminCode1":"GA","lng":"-84.68743","geonameId":4186834,"toponymName":"Cedar Grove","countryId":"6252001","fcl":"P","population":0,"countryCode":"US","name":"Cedar Grove","fclName":"city, village,...","adminCodes1":{"ISO3166_2":"GA"},"countryName":"United States","fcodeName":"populated place","adminName1":"Georgia","lat":"33.62678","fcode":"PPL"},{"adminCode1":"GA","lng":"-82.88209","geonameId":4186835,"toponymName":"Cedar Grove","countryId":"6252001","fcl":"P","population":0,"countryCode":"US","name":"Cedar Grove","fclName":"city, village,...","adminCodes1":{"ISO3166_2":"GA"},"countryName":"United States","fcodeName":"populated place","adminName1":"Georgia","lat":"32.25017","fcode":"PPL"},{"adminCode1":"GA","lng":"-83.15432","geonameId":4186836,"toponymName":"Cedar Grove","countryId":"6252001","fcl":"P","population":0,"countryCode":"US","name":"Cedar Grove","fclName":"city, village,...","adminCodes1":{"ISO3166_2":"GA"},"countryName":"United States","fcodeName":"populated place","adminName1":"Georgia","lat":"34.144","fcode":"PPL"},{"adminCode1":"PA","lng":"-75.0926","geonameId":7147099,"toponymName":"Cedar Grove Christian Academy","countryId":"6252001","fcl":"S","population":0,"countryCode":"US","name":"Cedar Grove Christian Academy","fclName":"spot, building, farm","adminCodes1":{"ISO3166_2":"PA"},"countryName":"United States","fcodeName":"school","adminName1":"Pennsylvania","lat":"40.0493","fcode":"SCH"},{"adminCode1":"MD","lng":"-76.41524","geonameId":4369658,"toponymName":"Skidmore","countryId":"6252001","fcl":"P","population":0,"countryCode":"US","name":"Skidmore","fclName":"city, village,...","adminCodes1":{"ISO3166_2":"MD"},"countryName":"United States","fcodeName":"populated place","adminName1":"Maryland","lat":"39.02122","fcode":"PPL"},{"adminCode1":"VA","lng":"-82.19458","geonameId":4751546,"toponymName":"Cedar Grove Church","countryId":"6252001","fcl":"S","population":0,"countryCode":"US","name":"Cedar Grove Church","fclName":"spot, building, farm","adminCodes1":{"ISO3166_2":"VA"},"countryName":"United States","fcodeName":"church","adminName1":"Virginia","lat":"36.79177","fcode":"CH"},{"adminCode1":"MS","lng":"-88.64727","geonameId":4420961,"toponymName":"Cedar Grove Baptist Church","countryId":"6252001","fcl":"S","population":0,"countryCode":"US","name":"Cedar Grove Baptist Church","fclName":"spot, building, farm","adminCodes1":{"ISO3166_2":"MS"},"countryName":"United States","fcodeName":"church","adminName1":"Mississippi","lat":"33.86428","fcode":"CH"},{"adminCode1":"NC","lng":"-80.07754","geonameId":4465640,"toponymName":"Fair Grove","countryId":"6252001","fcl":"P","population":0,"countryCode":"US","name":"Fair Grove","fclName":"city, village,...","adminCodes1":{"ISO3166_2":"NC"},"countryName":"United States","fcodeName":"populated place","adminName1":"North Carolina","lat":"35.85208","fcode":"PPL"},{"adminCode1":"TN","lng":"-83.8474","geonameId":4612112,"toponymName":"Cedar Grove Baptist Church","countryId":"6252001","fcl":"S","population":0,"countryCode":"US","name":"Cedar Grove Baptist Church","fclName":"spot, building, farm","adminCodes1":{"ISO3166_2":"TN"},"countryName":"United States","fcodeName":"church","adminName1":"Tennessee","lat":"35.83425","fcode":"CH"},{"adminCode1":"AL","lng":"-86.84525","geonameId":4054167,"toponymName":"Cedar Grove African Methodist Episcopal Church","countryId":"6252001","fcl":"S","population":0,"countryCode":"US","name":"Cedar Grove African Methodist Episcopal Church","fclName":"spot, building, farm","adminCodes1":{"ISO3166_2":"AL"},"countryName":"United States","fcodeName":"church","adminName1":"Alabama","lat":"31.42961","fcode":"CH"},{"adminCode1":"OK","lng":"-96.57389","geonameId":8259907,"toponymName":"Francis Cedar Grove Cemetery","countryId":"6252001","fcl":"S","population":0,"countryCode":"US","name":"Francis Cedar Grove Cemetery","fclName":"spot, building, farm","adminCodes1":{"ISO3166_2":"OK"},"countryName":"United States","fcodeName":"cemetery","adminName1":"Oklahoma","lat":"34.88083","fcode":"CMTY"},{"adminCode1":"MD","lng":"-76.55218","geonameId":4350731,"toponymName":"Cedar Grove United Methodist Church","countryId":"6252001","fcl":"S","population":0,"countryCode":"US","name":"Cedar Grove United Methodist Church","fclName":"spot, building, farm","adminCodes1":{"ISO3166_2":"MD"},"countryName":"United States","fcodeName":"church","adminName1":"Maryland","lat":"38.78012","fcode":"CH"},{"adminCode1":"VA","lng":"-76.47944","geonameId":6332338,"toponymName":"Cedar Grove","countryId":"6252001","fcl":"P","population":0,"countryCode":"US","name":"Cedar Grove","fclName":"city, village,...","adminCodes1":{"ISO3166_2":"VA"},"countryName":"United States","fcodeName":"populated place","adminName1":"Virginia","lat":"37.04028","fcode":"PPL"},{"adminCode1":"FL","lng":"-82.2844","geonameId":7217305,"toponymName":"Cedar Grove","countryId":"6252001","fcl":"P","population":0,"countryCode":"US","name":"Cedar Grove","fclName":"city, village,...","adminCodes1":{"ISO3166_2":"FL"},"countryName":"United States","fcodeName":"populated place","adminName1":"Florida","lat":"27.8698","fcode":"PPL"},{"adminCode1":"VA","lng":"-76.40383","geonameId":4751518,"toponymName":"Cedar Grove Acres","countryId":"6252001","fcl":"P","population":0,"countryCode":"US","name":"Cedar Grove Acres","fclName":"city, village,...","adminCodes1":{"ISO3166_2":"VA"},"countryName":"United States","fcodeName":"populated place","adminName1":"Virginia","lat":"36.79293","fcode":"PPL"},{"adminCode1":"GA","lng":"-81.15344","geonameId":4186832,"toponymName":"Cedar Grove","countryId":"6252001","fcl":"P","population":0,"countryCode":"US","name":"Cedar Grove","fclName":"city, village,...","adminCodes1":{"ISO3166_2":"GA"},"countryName":"United States","fcodeName":"populated place","adminName1":"Georgia","lat":"31.96049","fcode":"PPL"},{"adminCode1":"GA","lng":"-84.30215","geonameId":4186833,"toponymName":"Cedar Grove","countryId":"6252001","fcl":"P","population":0,"countryCode":"US","name":"Cedar Grove","fclName":"city, village,...","adminCodes1":{"ISO3166_2":"GA"},"countryName":"United States","fcodeName":"populated place","adminName1":"Georgia","lat":"33.66066","fcode":"PPL"},{"adminCode1":"GA","lng":"-84.31659","geonameId":4186838,"toponymName":"Cedar Grove Acres","countryId":"6252001","fcl":"P","population":0,"countryCode":"US","name":"Cedar Grove Acres","fclName":"city, village,...","adminCodes1":{"ISO3166_2":"GA"},"countryName":"United States","fcodeName":"populated place","adminName1":"Georgia","lat":"33.65705","fcode":"PPL"},{"adminCode1":"NY","lng":"-73.83125","geonameId":5111908,"toponymName":"Cedar Grove Cemetery","countryId":"6252001","fcl":"S","population":0,"countryCode":"US","name":"Cedar Grove Cemetery","fclName":"spot, building, farm","adminCodes1":{"ISO3166_2":"NY"},"countryName":"United States","fcodeName":"cemetery","adminName1":"New York","lat":"40.73566","fcode":"CMTY"},{"adminCode1":"VA","lng":"-79.98337","geonameId":4763866,"toponymName":"Hickman","countryId":"6252001","fcl":"P","population":0,"countryCode":"US","name":"Hickman","fclName":"city, village,...","adminCodes1":{"ISO3166_2":"VA"},"countryName":"United States","fcodeName":"populated place","adminName1":"Virginia","lat":"37.02403","fcode":"PPL"},{"adminCode1":"VA","lng":"-80.87091","geonameId":4751538,"toponymName":"Cedar Grove Church","countryId":"6252001","fcl":"S","population":0,"countryCode":"US","name":"Cedar Grove Church","fclName":"spot, building, farm","adminCodes1":{"ISO3166_2":"VA"},"countryName":"United States","fcodeName":"church","adminName1":"Virginia","lat":"37.29512","fcode":"CH"},{"adminCode1":"NC","lng":"-79.11862","geonameId":4475368,"toponymName":"Laws","countryId":"6252001","fcl":"P","population":0,"countryCode":"US","name":"Laws","fclName":"city, village,...","adminCodes1":{"ISO3166_2":"NC"},"countryName":"United States","fcodeName":"populated place","adminName1":"North Carolina","lat":"36.23986","fcode":"PPL"},{"adminCode1":"NJ","lng":"-74.20931","geonameId":5101343,"toponymName":"Montclair Heights Station","countryId":"6252001","fcl":"S","population":0,"countryCode":"US","name":"Montclair Heights Station","fclName":"spot, building, farm","adminCodes1":{"ISO3166_2":"NJ"},"countryName":"United States","fcodeName":"","adminName1":"New Jersey","lat":"40.8576"},{"adminCode1":"NJ","lng":"-74.23455","geonameId":7726792,"toponymName":"Essex County Hospital Center","countryId":"6252001","fcl":"S","population":0,"countryCode":"US","name":"Essex County Hospital Center","fclName":"spot, building, farm","adminCodes1":{"ISO3166_2":"NJ"},"countryName":"United States","fcodeName":"hospital","adminName1":"New Jersey","lat":"40.85183","fcode":"HSP"},{"adminCode1":"FL","lng":"-82.0445","geonameId":7189515,"toponymName":"Cedar Grove Mobile Home Park","countryId":"6252001","fcl":"P","population":0,"countryCode":"US","name":"Cedar Grove Mobile Home Park","fclName":"city, village,...","adminCodes1":{"ISO3166_2":"FL"},"countryName":"United States","fcodeName":"populated place","adminName1":"Florida","lat":"29.0652","fcode":"PPL"},{"adminCode1":"AL","lng":"-87.6617","geonameId":7313467,"toponymName":"Cedar Grove Mobile Home Park","countryId":"6252001","fcl":"P","population":0,"countryCode":"US","name":"Cedar Grove Mobile Home Park","fclName":"city, village,...","adminCodes1":{"ISO3166_2":"AL"},"countryName":"United States","fcodeName":"populated place","adminName1":"Alabama","lat":"30.40481","fcode":"PPL"},{"adminCode1":"TX","lng":"-94.73299","geonameId":4679777,"toponymName":"Cedar Grove","countryId":"6252001","fcl":"P","population":0,"countryCode":"US","name":"Cedar Grove","fclName":"city, village,...","adminCodes1":{"ISO3166_2":"TX"},"countryName":"United States","fcodeName":"populated place","adminName1":"Texas","lat":"31.38491","fcode":"PPL"},{"adminCode1":"TN","lng":"-86.62611","geonameId":4612096,"toponymName":"Cedar Grove","countryId":"6252001","fcl":"P","population":0,"countryCode":"US","name":"Cedar Grove","fclName":"city, village,...","adminCodes1":{"ISO3166_2":"TN"},"countryName":"United States","fcodeName":"populated place","adminName1":"Tennessee","lat":"35.64424","fcode":"PPL"},{"adminCode1":"TN","lng":"-82.31347","geonameId":4612098,"toponymName":"Cedar Grove","countryId":"6252001","fcl":"P","population":0,"countryCode":"US","name":"Cedar Grove","fclName":"city, village,...","adminCodes1":{"ISO3166_2":"TN"},"countryName":"United States","fcodeName":"populated place","adminName1":"Tennessee","lat":"36.30844","fcode":"PPL"},{"adminCode1":"TN","lng":"-88.26782","geonameId":4612099,"toponymName":"Cedar Grove","countryId":"6252001","fcl":"P","population":0,"countryCode":"US","name":"Cedar Grove","fclName":"city, village,...","adminCodes1":{"ISO3166_2":"TN"},"countryName":"United States","fcodeName":"populated place","adminName1":"Tennessee","lat":"35.48202","fcode":"PPL"},{"adminCode1":"TN","lng":"-87.81086","geonameId":4612100,"toponymName":"Cedar Grove","countryId":"6252001","fcl":"P","population":0,"countryCode":"US","name":"Cedar Grove","fclName":"city, village,...","adminCodes1":{"ISO3166_2":"TN"},"countryName":"United States","fcodeName":"populated place","adminName1":"Tennessee","lat":"35.94617","fcode":"PPL"},{"adminCode1":"TN","lng":"-83.99408","geonameId":4612101,"toponymName":"Cedar Grove","countryId":"6252001","fcl":"P","population":0,"countryCode":"US","name":"Cedar Grove","fclName":"city, village,...","adminCodes1":{"ISO3166_2":"TN"},"countryName":"United States","fcodeName":"populated place","adminName1":"Tennessee","lat":"36.12452","fcode":"PPL"},{"adminCode1":"TN","lng":"-85.05606","geonameId":4612102,"toponymName":"Cedar Grove","countryId":"6252001","fcl":"P","population":0,"countryCode":"US","name":"Cedar Grove","fclName":"city, village,...","adminCodes1":{"ISO3166_2":"TN"},"countryName":"United States","fcodeName":"populated place","adminName1":"Tennessee","lat":"36.55729","fcode":"PPL"}]}
