{"totalResultsCount":13,"geonames":[{"adminCode1":"OR","lng":"-120.96201","geonameId":5718542,"toponymName":"Celilo Park","countryId":"6252001","fcl":"L","population":0,"countryCode":"US","name":"Celilo Park","fclName":"parks,area, ...","adminCodes1":{"ISO3166_2":"OR"},"countryName":"United States","fcodeName":"park","adminName1":"Oregon","lat":"45.65012","fcode":"PRK"},{"adminCode1":"OR","lng":"-120.9659","geonameId":5718544,"toponymName":"Celilo Village","countryId":"6252001","fcl":"P","population":0,"countryCode":"US","name":"Celilo Village","fclName":"city, village,...","adminCodes1":{"ISO3166_2":"OR"},"countryName":"United States","fcodeName":"populated place","adminName1":"Oregon","lat":"45.64568","fcode":"PPL"},{"adminCode1":"OR","lng":"-120.95751","geonameId":7274115,"toponymName":"Celilo Treaty Fishing Access Site","countryId":"6252001","fcl":"L","population":0,"countryCode":"US","name":"Celilo Treaty Fishing Access Site","fclName":"parks,area, ...","adminCodes1":{"ISO3166_2":"OR"},"countryName":"United States","fcodeName":"reserve","adminName1":"Oregon","lat":"45.65171","fcode":"RES"},{"adminCode1":"OR","lng":"-121.11451","geonameId":5718537,"toponymName":"Celilo Converter Station","countryId":"6252001","fcl":"S","population":0,"countryCode":"US","name":"HVDC Pacific DC Intertie - Celilo Static Inverter Plant","fclName":"spot, building, farm","adminCodes1":{"ISO3166_2":"OR"},"countryName":"United States","fcodeName":"power station","adminName1":"Oregon","lat":"45.59512","fcode":"PS"},{"adminCode1":"OR","lng":"-120.97896","geonameId":5718538,"toponymName":"Celilo Falls (historical)","countryId":"6252001","fcl":"H","population":0,"countryCode":"US","name":"Celilo Falls (historical)","fclName":"stream, lake, ...","adminCodes1":{"ISO3166_2":"OR"},"countryName":"United States","fcodeName":"overfalls","adminName1":"Oregon","lat":"45.64984","fcode":"OVF"},{"adminCode1":"OR","lng":"-120.98562","geonameId":5744333,"toponymName":"Oregon Trunk Junction","countryId":"6252001","fcl":"S","population":0,"countryCode":"US","name":"Oregon Trunk Junction","fclName":"spot, building, farm","adminCodes1":{"ISO3166_2":"OR"},"countryName":"United States","fcodeName":"","adminName1":"Oregon","lat":"45.64484"},{"adminCode1":"OR","lng":"-120.96423","geonameId":5757654,"toponymName":"Tumwater (historical)","countryId":"6252001","fcl":"S","population":0,"countryCode":"US","name":"Tumwater (historical)","fclName":"spot, building, farm","adminCodes1":{"ISO3166_2":"OR"},"countryName":"United States","fcodeName":"","adminName1":"Oregon","lat":"45.64762"},{"adminCode1":"OR","lng":"-120.94563","geonameId":5718540,"toponymName":"Celilo Indian Cemetery","countryId":"6252001","fcl":"S","population":0,"countryCode":"US","name":"Celilo Indian Cemetery","fclName":"spot, building, farm","adminCodes1":{"ISO3166_2":"OR"},"countryName":"United States","fcodeName":"cemetery","adminName1":"Oregon","lat":"45.6486","fcode":"CMTY"},{"adminCode1":"OR","lng":"-120.96691","geonameId":5718541,"toponymName":"Celilo Light","countryId":"6252001","fcl":"S","population":0,"countryCode":"US","name":"Celilo Light","fclName":"spot, building, farm","adminCodes1":{"ISO3166_2":"OR"},"countryName":"United States","fcodeName":"building(s)","adminName1":"Oregon","lat":"45.64866","fcode":"BLDG"},{"adminCode1":"OR","lng":"-120.96479","geonameId":5718543,"toponymName":"Celilo Post Office (historical)","countryId":"6252001","fcl":"S","population":0,"countryCode":"US","name":"Celilo Post Office (historical)","fclName":"spot, building, farm","adminCodes1":{"ISO3166_2":"OR"},"countryName":"United States","fcodeName":"post office","adminName1":"Oregon","lat":"45.64679","fcode":"PO"},{"adminCode1":"OR","lng":"-120.9636","geonameId":8485792,"toponymName":"Celilo Park Boat Ramp","countryId":"6252001","fcl":"H","population":0,"countryCode":"US","name":"Celilo Park Boat Ramp","fclName":"stream, lake, ...","adminCodes1":{"ISO3166_2":"OR"},"countryName":"United States","fcodeName":"harbor(s)","adminName1":"Oregon","lat":"45.64888","fcode":"HBR"},{"adminCode1":"OR","lng":"-120.98127","geonameId":11610198,"toponymName":"Celilo Canal","countryId":"6252001","fcl":"H","population":0,"countryCode":"US","name":"Celilo Canal","fclName":"stream, lake, ...","adminCodes1":{"ISO3166_2":"OR"},"countryName":"United States","fcodeName":"canal","adminName1":"Oregon","lat":"45.64972","fcode":"CNL"},{"adminCode1":"WA","lng":"-121.13396","geonameId":5800171,"toponymName":"Lake Celilo","countryId":"6252001","fcl":"H","population":0,"countryCode":"US","name":"Lake Celilo","fclName":"stream, lake, ...","adminCodes1":{"ISO3166_2":"WA"},"countryName":"United States","fcodeName":"reservoir(s)","adminName1":"Washington","lat":"45.61401","fcode":"RSV"}]}
