{"totalResultsCount":168,"geonames":[{"adminCode1":"MA","lng":"-71.36728","geonameId":4932869,"toponymName":"Chelmsford","countryId":"6252001","fcl":"P","population":33925,"countryCode":"US","name":"Chelmsford","fclName":"city, village,...","adminCodes1":{"ISO3166_2":"MA"},"countryName":"United States","fcodeName":"populated place","adminName1":"Massachusetts","lat":"42.59981","fcode":"PPL"},{"adminCode1":"MA","lng":"-71.38284","geonameId":4945584,"toponymName":"North Chelmsford","countryId":"6252001","fcl":"P","population":0,"countryCode":"US","name":"North Chelmsford","fclName":"city, village,...","adminCodes1":{"ISO3166_2":"MA"},"countryName":"United States","fcodeName":"populated place","adminName1":"Massachusetts","lat":"42.63898","fcode":"PPL"},{"adminCode1":"MA","lng":"-71.35222","geonameId":4932896,"toponymName":"Chelmsford Center","countryId":"6252001","fcl":"P","population":0,"countryCode":"US","name":"Chelmsford Center","fclName":"city, village,...","adminCodes1":{"ISO3166_2":"MA"},"countryName":"United States","fcodeName":"populated place","adminName1":"Massachusetts","lat":"42.59583","fcode":"PPL"},{"adminCode1":"MA","lng":"-71.36312","geonameId":4932878,"toponymName":"Town of Chelmsford","countryId":"6252001","fcl":"A","population":35149,"countryCode":"US","name":"Town of Chelmsford","fclName":"country, state, region,...","adminCodes1":{"ISO3166_2":"MA"},"countryName":"United States","fcodeName":"third-order administrative division","adminName1":"Massachusetts","lat":"42.59996","fcode":"ADM3"},{"adminCode1":"MA","lng":"-71.43784","geonameId":4955219,"toponymName":"Westford","countryId":"6252001","fcl":"P","population":21587,"countryCode":"US","name":"Westford","fclName":"city, village,...","adminCodes1":{"ISO3166_2":"MA"},"countryName":"United States","fcodeName":"populated place","adminName1":"Massachusetts","lat":"42.57926","fcode":"PPL"},{"adminCode1":"MA","lng":"-71.35228","geonameId":4932870,"toponymName":"Chelmsford Center Historic District","countryId":"6252001","fcl":"L","population":0,"countryCode":"US","name":"Chelmsford Center Historic District","fclName":"parks,area, ...","adminCodes1":{"ISO3166_2":"MA"},"countryName":"United States","fcodeName":"park","adminName1":"Massachusetts","lat":"42.59537","fcode":"PRK"},{"adminCode1":"MA","lng":"-71.36506","geonameId":4948814,"toponymName":"Robbins Hill","countryId":"6252001","fcl":"T","population":0,"countryCode":"US","name":"Robbins Hill","fclName":"mountain,hill,rock,... ","adminCodes1":{"ISO3166_2":"MA"},"countryName":"United States","fcodeName":"mountain","adminName1":"Massachusetts","lat":"42.58509","fcode":"MT"},{"adminCode1":"MA","lng":"-71.37576","geonameId":4932873,"toponymName":"Chelmsford High School","countryId":"6252001","fcl":"S","population":0,"countryCode":"US","name":"Chelmsford High School","fclName":"spot, building, farm","adminCodes1":{"ISO3166_2":"MA"},"countryName":"United States","fcodeName":"school","adminName1":"Massachusetts","lat":"42.62154","fcode":"SCH"},{"adminCode1":"MA","lng":"-71.37867","geonameId":4947307,"toponymName":"Pine Hill","countryId":"6252001","fcl":"T","population":0,"countryCode":"US","name":"Pine Hill","fclName":"mountain,hill,rock,... ","adminCodes1":{"ISO3166_2":"MA"},"countryName":"United States","fcodeName":"mountain","adminName1":"Massachusetts","lat":"42.60842","fcode":"MT"},{"adminCode1":"MA","lng":"-71.44007","geonameId":4955228,"toponymName":"Town of Westford","countryId":"6252001","fcl":"A","population":23831,"countryCode":"US","name":"Town of Westford","fclName":"country, state, region,...","adminCodes1":{"ISO3166_2":"MA"},"countryName":"United States","fcodeName":"third-order administrative division","adminName1":"Massachusetts","lat":"42.58642","fcode":"ADM3"},{"adminCode1":"MA","lng":"-71.39284","geonameId":4932956,"toponymName":"Chestnut Hill","countryId":"6252001","fcl":"T","population":0,"countryCode":"US","name":"Chestnut Hill","fclName":"mountain,hill,rock,... ","adminCodes1":{"ISO3166_2":"MA"},"countryName":"United States","fcodeName":"mountain","adminName1":"Massachusetts","lat":"42.5987","fcode":"MT"},{"adminCode1":"MA","lng":"-71.49118","geonameId":4944185,"toponymName":"Millstone Hill","countryId":"6252001","fcl":"T","population":0,"countryCode":"US","name":"Millstone Hill","fclName":"mountain,hill,rock,... ","adminCodes1":{"ISO3166_2":"MA"},"countryName":"United States","fcodeName":"mountain","adminName1":"Massachusetts","lat":"42.61676","fcode":"MT"},{"adminCode1":"MA","lng":"-71.42034","geonameId":4944861,"toponymName":"Nabnasset","countryId":"6252001","fcl":"P","population":0,"countryCode":"US","name":"Nabnasset","fclName":"city, village,...","adminCodes1":{"ISO3166_2":"MA"},"countryName":"United States","fcodeName":"populated place","adminName1":"Massachusetts","lat":"42.61259","fcode":"PPL"},{"adminCode1":"MA","lng":"-71.37589","geonameId":4951348,"toponymName":"South Chelmsford","countryId":"6252001","fcl":"P","population":0,"countryCode":"US","name":"South Chelmsford","fclName":"city, village,...","adminCodes1":{"ISO3166_2":"MA"},"countryName":"United States","fcodeName":"populated place","adminName1":"Massachusetts","lat":"42.57093","fcode":"PPL"},{"adminCode1":"MA","lng":"-71.39951","geonameId":4954913,"toponymName":"West Chelmsford","countryId":"6252001","fcl":"P","population":0,"countryCode":"US","name":"West Chelmsford","fclName":"city, village,...","adminCodes1":{"ISO3166_2":"MA"},"countryName":"United States","fcodeName":"populated place","adminName1":"Massachusetts","lat":"42.61676","fcode":"PPL"},{"adminCode1":"MA","lng":"-71.38951","geonameId":4948357,"toponymName":"Rail Tree Hill","countryId":"6252001","fcl":"T","population":0,"countryCode":"US","name":"Rail Tree Hill","fclName":"mountain,hill,rock,... ","adminCodes1":{"ISO3166_2":"MA"},"countryName":"United States","fcodeName":"mountain","adminName1":"Massachusetts","lat":"42.54037","fcode":"MT"},{"adminCode1":"MA","lng":"-71.46201","geonameId":4951659,"toponymName":"Spalding Hill","countryId":"6252001","fcl":"T","population":0,"countryCode":"US","name":"Spalding Hill","fclName":"mountain,hill,rock,... ","adminCodes1":{"ISO3166_2":"MA"},"countryName":"United States","fcodeName":"mountain","adminName1":"Massachusetts","lat":"42.61676","fcode":"MT"},{"adminCode1":"MA","lng":"-71.44479","geonameId":4951667,"toponymName":"Sparks Hill","countryId":"6252001","fcl":"T","population":0,"countryCode":"US","name":"Sparks Hill","fclName":"mountain,hill,rock,... ","adminCodes1":{"ISO3166_2":"MA"},"countryName":"United States","fcodeName":"mountain","adminName1":"Massachusetts","lat":"42.56259","fcode":"MT"},{"adminCode1":"MA","lng":"-71.40506","geonameId":4937253,"toponymName":"Frances Hill","countryId":"6252001","fcl":"T","population":0,"countryCode":"US","name":"Frances Hill","fclName":"mountain,hill,rock,... ","adminCodes1":{"ISO3166_2":"MA"},"countryName":"United States","fcodeName":"mountain","adminName1":"Massachusetts","lat":"42.60009","fcode":"MT"},{"adminCode1":"MA","lng":"-71.44673","geonameId":4944977,"toponymName":"Nashoba Hill","countryId":"6252001","fcl":"T","population":0,"countryCode":"US","name":"Nashoba Hill","fclName":"mountain,hill,rock,... ","adminCodes1":{"ISO3166_2":"MA"},"countryName":"United States","fcodeName":"mountain","adminName1":"Massachusetts","lat":"42.54009","fcode":"MT"},{"adminCode1":"MA","lng":"-71.4384","geonameId":4931767,"toponymName":"Burns Hill","countryId":"6252001","fcl":"T","population":0,"countryCode":"US","name":"Burns Hill","fclName":"mountain,hill,rock,... ","adminCodes1":{"ISO3166_2":"MA"},"countryName":"United States","fcodeName":"mountain","adminName1":"Massachusetts","lat":"42.56398","fcode":"MT"},{"adminCode1":"MA","lng":"-71.47451","geonameId":4933822,"toponymName":"Conscience Hill","countryId":"6252001","fcl":"T","population":0,"countryCode":"US","name":"Conscience Hill","fclName":"mountain,hill,rock,... ","adminCodes1":{"ISO3166_2":"MA"},"countryName":"United States","fcodeName":"mountain","adminName1":"Massachusetts","lat":"42.62231","fcode":"MT"},{"adminCode1":"MA","lng":"-71.47034","geonameId":4949240,"toponymName":"Russian Cemetery","countryId":"6252001","fcl":"S","population":0,"countryCode":"US","name":"Russian Cemetery","fclName":"spot, building, farm","adminCodes1":{"ISO3166_2":"MA"},"countryName":"United States","fcodeName":"cemetery","adminName1":"Massachusetts","lat":"42.57787","fcode":"CMTY"},{"adminCode1":"MA","lng":"-71.46479","geonameId":4955220,"toponymName":"Westford Academy","countryId":"6252001","fcl":"S","population":0,"countryCode":"US","name":"Westford Academy","fclName":"spot, building, farm","adminCodes1":{"ISO3166_2":"MA"},"countryName":"United States","fcodeName":"school","adminName1":"Massachusetts","lat":"42.58898","fcode":"SCH"},{"adminCode1":"MA","lng":"-71.46673","geonameId":4955244,"toponymName":"Westlawn Cemetery","countryId":"6252001","fcl":"S","population":0,"countryCode":"US","name":"Westlawn Cemetery","fclName":"spot, building, farm","adminCodes1":{"ISO3166_2":"MA"},"countryName":"United States","fcodeName":"cemetery","adminName1":"Massachusetts","lat":"42.57092","fcode":"CMTY"},{"adminCode1":"MA","lng":"-71.46729","geonameId":4956273,"toponymName":"Wright Cemetery","countryId":"6252001","fcl":"S","population":0,"countryCode":"US","name":"Wright Cemetery","fclName":"spot, building, farm","adminCodes1":{"ISO3166_2":"MA"},"countryName":"United States","fcodeName":"cemetery","adminName1":"Massachusetts","lat":"42.60898","fcode":"CMTY"},{"adminCode1":"MA","lng":"-71.45367","geonameId":4935433,"toponymName":"East Littleton","countryId":"6252001","fcl":"P","population":0,"countryCode":"US","name":"East Littleton","fclName":"city, village,...","adminCodes1":{"ISO3166_2":"MA"},"countryName":"United States","fcodeName":"populated place","adminName1":"Massachusetts","lat":"42.56009","fcode":"PPL"},{"adminCode1":"MA","lng":"-71.41895","geonameId":4936108,"toponymName":"Fairview Cemetery","countryId":"6252001","fcl":"S","population":0,"countryCode":"US","name":"Fairview Cemetery","fclName":"spot, building, farm","adminCodes1":{"ISO3166_2":"MA"},"countryName":"United States","fcodeName":"cemetery","adminName1":"Massachusetts","lat":"42.58842","fcode":"CMTY"},{"adminCode1":"MA","lng":"-71.48701","geonameId":4937062,"toponymName":"Forge Village","countryId":"6252001","fcl":"P","population":0,"countryCode":"US","name":"Forge Village","fclName":"city, village,...","adminCodes1":{"ISO3166_2":"MA"},"countryName":"United States","fcodeName":"populated place","adminName1":"Massachusetts","lat":"42.58009","fcode":"PPL"},{"adminCode1":"MA","lng":"-71.4095","geonameId":7142999,"toponymName":"Nashoba Valley Technical High School","countryId":"6252001","fcl":"S","population":0,"countryCode":"US","name":"Nashoba Valley Technical High School","fclName":"spot, building, farm","adminCodes1":{"ISO3166_2":"MA"},"countryName":"United States","fcodeName":"school","adminName1":"Massachusetts","lat":"42.5707","fcode":"SCH"},{"adminCode1":"MA","lng":"-71.32117","geonameId":4948964,"toponymName":"Rocky Hill","countryId":"6252001","fcl":"T","population":0,"countryCode":"US","name":"Rocky Hill","fclName":"mountain,hill,rock,... ","adminCodes1":{"ISO3166_2":"MA"},"countryName":"United States","fcodeName":"mountain","adminName1":"Massachusetts","lat":"42.58231","fcode":"MT"},{"adminCode1":"MA","lng":"-71.3959","geonameId":4954446,"toponymName":"Ward Corner","countryId":"6252001","fcl":"P","population":0,"countryCode":"US","name":"Ward Corner","fclName":"city, village,...","adminCodes1":{"ISO3166_2":"MA"},"countryName":"United States","fcodeName":"populated place","adminName1":"Massachusetts","lat":"42.57843","fcode":"PPL"},{"adminCode1":"MA","lng":"-71.34117","geonameId":4955239,"toponymName":"Westlands","countryId":"6252001","fcl":"P","population":0,"countryCode":"US","name":"Westlands","fclName":"city, village,...","adminCodes1":{"ISO3166_2":"MA"},"countryName":"United States","fcodeName":"populated place","adminName1":"Massachusetts","lat":"42.61537","fcode":"PPL"},{"adminCode1":"MA","lng":"-71.44117","geonameId":4948043,"toponymName":"Prospect Hill","countryId":"6252001","fcl":"T","population":0,"countryCode":"US","name":"Prospect Hill","fclName":"mountain,hill,rock,... ","adminCodes1":{"ISO3166_2":"MA"},"countryName":"United States","fcodeName":"mountain","adminName1":"Massachusetts","lat":"42.57676","fcode":"MT"},{"adminCode1":"MA","lng":"-71.42006","geonameId":4948079,"toponymName":"Providence Hill","countryId":"6252001","fcl":"T","population":0,"countryCode":"US","name":"Providence Hill","fclName":"mountain,hill,rock,... ","adminCodes1":{"ISO3166_2":"MA"},"countryName":"United States","fcodeName":"mountain","adminName1":"Massachusetts","lat":"42.57926","fcode":"MT"},{"adminCode1":"MA","lng":"-71.4759","geonameId":4951183,"toponymName":"Snake Meadow Hill","countryId":"6252001","fcl":"T","population":0,"countryCode":"US","name":"Snake Meadow Hill","fclName":"mountain,hill,rock,... ","adminCodes1":{"ISO3166_2":"MA"},"countryName":"United States","fcodeName":"mountain","adminName1":"Massachusetts","lat":"42.60176","fcode":"MT"},{"adminCode1":"MA","lng":"-71.42312","geonameId":4955223,"toponymName":"Westford Hill","countryId":"6252001","fcl":"T","population":0,"countryCode":"US","name":"Westford Hill","fclName":"mountain,hill,rock,... ","adminCodes1":{"ISO3166_2":"MA"},"countryName":"United States","fcodeName":"mountain","adminName1":"Massachusetts","lat":"42.59454","fcode":"MT"},{"adminCode1":"MA","lng":"-71.43534","geonameId":4955225,"toponymName":"Westford Station","countryId":"6252001","fcl":"P","population":0,"countryCode":"US","name":"Westford Station","fclName":"city, village,...","adminCodes1":{"ISO3166_2":"MA"},"countryName":"United States","fcodeName":"populated place","adminName1":"Massachusetts","lat":"42.59704","fcode":"PPL"},{"adminCode1":"MA","lng":"-71.42034","geonameId":4955416,"toponymName":"Whidden Corner","countryId":"6252001","fcl":"P","population":0,"countryCode":"US","name":"Whidden Corner","fclName":"city, village,...","adminCodes1":{"ISO3166_2":"MA"},"countryName":"United States","fcodeName":"populated place","adminName1":"Massachusetts","lat":"42.62648","fcode":"PPL"},{"adminCode1":"MA","lng":"-71.48284","geonameId":4941411,"toponymName":"Kissacook Hill","countryId":"6252001","fcl":"T","population":0,"countryCode":"US","name":"Kissacook Hill","fclName":"mountain,hill,rock,... ","adminCodes1":{"ISO3166_2":"MA"},"countryName":"United States","fcodeName":"mountain","adminName1":"Massachusetts","lat":"42.58842","fcode":"MT"},{"adminCode1":"MA","lng":"-71.40117","geonameId":4942125,"toponymName":"Little Bear Hill","countryId":"6252001","fcl":"T","population":0,"countryCode":"US","name":"Little Bear Hill","fclName":"mountain,hill,rock,... ","adminCodes1":{"ISO3166_2":"MA"},"countryName":"United States","fcodeName":"mountain","adminName1":"Massachusetts","lat":"42.55676","fcode":"MT"},{"adminCode1":"MA","lng":"-71.49395","geonameId":4934045,"toponymName":"Cowdry Hill","countryId":"6252001","fcl":"T","population":0,"countryCode":"US","name":"Cowdry Hill","fclName":"mountain,hill,rock,... ","adminCodes1":{"ISO3166_2":"MA"},"countryName":"United States","fcodeName":"mountain","adminName1":"Massachusetts","lat":"42.60231","fcode":"MT"},{"adminCode1":"MA","lng":"-71.44534","geonameId":4936949,"toponymName":"Flushing Hill","countryId":"6252001","fcl":"T","population":0,"countryCode":"US","name":"Flushing Hill","fclName":"mountain,hill,rock,... ","adminCodes1":{"ISO3166_2":"MA"},"countryName":"United States","fcodeName":"mountain","adminName1":"Massachusetts","lat":"42.62787","fcode":"MT"},{"adminCode1":"MA","lng":"-71.46201","geonameId":4938084,"toponymName":"Graniteville","countryId":"6252001","fcl":"P","population":0,"countryCode":"US","name":"Graniteville","fclName":"city, village,...","adminCodes1":{"ISO3166_2":"MA"},"countryName":"United States","fcodeName":"populated place","adminName1":"Massachusetts","lat":"42.59592","fcode":"PPL"},{"adminCode1":"MA","lng":"-71.43284","geonameId":4946084,"toponymName":"Oak Hill","countryId":"6252001","fcl":"T","population":0,"countryCode":"US","name":"Oak Hill","fclName":"mountain,hill,rock,... ","adminCodes1":{"ISO3166_2":"MA"},"countryName":"United States","fcodeName":"mountain","adminName1":"Massachusetts","lat":"42.64509","fcode":"MT"},{"adminCode1":"MA","lng":"-71.4384","geonameId":4946752,"toponymName":"Parkerville","countryId":"6252001","fcl":"P","population":0,"countryCode":"US","name":"Parkerville","fclName":"city, village,...","adminCodes1":{"ISO3166_2":"MA"},"countryName":"United States","fcodeName":"populated place","adminName1":"Massachusetts","lat":"42.55231","fcode":"PPL"},{"adminCode1":"MA","lng":"-71.40617","geonameId":4930040,"toponymName":"Bear Hill","countryId":"6252001","fcl":"T","population":0,"countryCode":"US","name":"Bear Hill","fclName":"mountain,hill,rock,... ","adminCodes1":{"ISO3166_2":"MA"},"countryName":"United States","fcodeName":"mountain","adminName1":"Massachusetts","lat":"42.54593","fcode":"MT"},{"adminCode1":"MA","lng":"-71.43145","geonameId":4930773,"toponymName":"Blakes Hill","countryId":"6252001","fcl":"T","population":0,"countryCode":"US","name":"Blakes Hill","fclName":"mountain,hill,rock,... ","adminCodes1":{"ISO3166_2":"MA"},"countryName":"United States","fcodeName":"mountain","adminName1":"Massachusetts","lat":"42.57343","fcode":"MT"},{"adminCode1":"MA","lng":"-71.41117","geonameId":4931526,"toponymName":"Brookside Station","countryId":"6252001","fcl":"P","population":0,"countryCode":"US","name":"Brookside Station","fclName":"city, village,...","adminCodes1":{"ISO3166_2":"MA"},"countryName":"United States","fcodeName":"populated place","adminName1":"Massachusetts","lat":"42.60842","fcode":"PPL"},{"adminCode1":"MA","lng":"-71.44534","geonameId":4932040,"toponymName":"Camp Cielo Celeste","countryId":"6252001","fcl":"P","population":0,"countryCode":"US","name":"Camp Cielo Celeste","fclName":"city, village,...","adminCodes1":{"ISO3166_2":"MA"},"countryName":"United States","fcodeName":"populated place","adminName1":"Massachusetts","lat":"42.60204","fcode":"PPL"},{"adminCode1":"MA","lng":"-71.44756","geonameId":4932105,"toponymName":"Camp Nashoba","countryId":"6252001","fcl":"P","population":0,"countryCode":"US","name":"Camp Nashoba","fclName":"city, village,...","adminCodes1":{"ISO3166_2":"MA"},"countryName":"United States","fcodeName":"populated place","adminName1":"Massachusetts","lat":"42.60287","fcode":"PPL"},{"adminCode1":"MA","lng":"-71.45034","geonameId":4932150,"toponymName":"Camp Wakitatina","countryId":"6252001","fcl":"P","population":0,"countryCode":"US","name":"Camp Wakitatina","fclName":"city, village,...","adminCodes1":{"ISO3166_2":"MA"},"countryName":"United States","fcodeName":"populated place","adminName1":"Massachusetts","lat":"42.60037","fcode":"PPL"},{"adminCode1":"MA","lng":"-71.39701","geonameId":4932311,"toponymName":"Carlisle Station","countryId":"6252001","fcl":"P","population":0,"countryCode":"US","name":"Carlisle Station","fclName":"city, village,...","adminCodes1":{"ISO3166_2":"MA"},"countryName":"United States","fcodeName":"populated place","adminName1":"Massachusetts","lat":"42.5362","fcode":"PPL"},{"adminCode1":"MA","lng":"-71.312","geonameId":4949672,"toponymName":"Saint Josephs Cemetery","countryId":"6252001","fcl":"S","population":0,"countryCode":"US","name":"Saint Josephs Cemetery","fclName":"spot, building, farm","adminCodes1":{"ISO3166_2":"MA"},"countryName":"United States","fcodeName":"cemetery","adminName1":"Massachusetts","lat":"42.60565","fcode":"CMTY"},{"adminCode1":"MA","lng":"-71.34145","geonameId":4955240,"toponymName":"Westlands Elementary School","countryId":"6252001","fcl":"S","population":0,"countryCode":"US","name":"Westlands Elementary School","fclName":"spot, building, farm","adminCodes1":{"ISO3166_2":"MA"},"countryName":"United States","fcodeName":"school","adminName1":"Massachusetts","lat":"42.61231","fcode":"SCH"},{"adminCode1":"MA","lng":"-71.38562","geonameId":4939205,"toponymName":"Heart Pond Cemetery","countryId":"6252001","fcl":"S","population":0,"countryCode":"US","name":"Heart Pond Cemetery","fclName":"spot, building, farm","adminCodes1":{"ISO3166_2":"MA"},"countryName":"United States","fcodeName":"cemetery","adminName1":"Massachusetts","lat":"42.57093","fcode":"CMTY"},{"adminCode1":"MA","lng":"-71.32589","geonameId":4940507,"toponymName":"Interchange Thirty Five","countryId":"6252001","fcl":"R","population":0,"countryCode":"US","name":"Interchange Thirty Five","fclName":"road, railroad ","adminCodes1":{"ISO3166_2":"MA"},"countryName":"United States","fcodeName":"road junction","adminName1":"Massachusetts","lat":"42.60731","fcode":"RDJCT"},{"adminCode1":"MA","lng":"-71.32867","geonameId":4940513,"toponymName":"Interchange Thirty One","countryId":"6252001","fcl":"R","population":0,"countryCode":"US","name":"Interchange Thirty One","fclName":"road, railroad ","adminCodes1":{"ISO3166_2":"MA"},"countryName":"United States","fcodeName":"road junction","adminName1":"Massachusetts","lat":"42.60704","fcode":"RDJCT"},{"adminCode1":"MA","lng":"-71.36617","geonameId":4940519,"toponymName":"Interchange Thirty Two","countryId":"6252001","fcl":"R","population":0,"countryCode":"US","name":"Interchange Thirty Two","fclName":"road, railroad ","adminCodes1":{"ISO3166_2":"MA"},"countryName":"United States","fcodeName":"road junction","adminName1":"Massachusetts","lat":"42.62287","fcode":"RDJCT"},{"adminCode1":"MA","lng":"-71.40506","geonameId":4940539,"toponymName":"Interchange Thirty-three","countryId":"6252001","fcl":"R","population":0,"countryCode":"US","name":"Interchange Thirty-three","fclName":"road, railroad ","adminCodes1":{"ISO3166_2":"MA"},"countryName":"United States","fcodeName":"road junction","adminName1":"Massachusetts","lat":"42.63176","fcode":"RDJCT"},{"adminCode1":"MA","lng":"-71.31284","geonameId":4940571,"toponymName":"Interchange Twenty Nine","countryId":"6252001","fcl":"R","population":0,"countryCode":"US","name":"Interchange Twenty Nine","fclName":"road, railroad ","adminCodes1":{"ISO3166_2":"MA"},"countryName":"United States","fcodeName":"road junction","adminName1":"Massachusetts","lat":"42.58981","fcode":"RDJCT"},{"adminCode1":"MA","lng":"-71.35451","geonameId":4937001,"toponymName":"Forefathers Burying Ground","countryId":"6252001","fcl":"S","population":0,"countryCode":"US","name":"Forefathers Burying Ground","fclName":"spot, building, farm","adminCodes1":{"ISO3166_2":"MA"},"countryName":"United States","fcodeName":"cemetery","adminName1":"Massachusetts","lat":"42.59704","fcode":"CMTY"},{"adminCode1":"MA","lng":"-71.36701","geonameId":4943515,"toponymName":"McCarthy Middle School","countryId":"6252001","fcl":"S","population":0,"countryCode":"US","name":"McCarthy Middle School","fclName":"spot, building, farm","adminCodes1":{"ISO3166_2":"MA"},"countryName":"United States","fcodeName":"school","adminName1":"Massachusetts","lat":"42.61898","fcode":"SCH"},{"adminCode1":"MA","lng":"-71.37951","geonameId":4932766,"toponymName":"Charles D Harrington School","countryId":"6252001","fcl":"S","population":0,"countryCode":"US","name":"Charles D Harrington School","fclName":"spot, building, farm","adminCodes1":{"ISO3166_2":"MA"},"countryName":"United States","fcodeName":"school","adminName1":"Massachusetts","lat":"42.62287","fcode":"SCH"},{"adminCode1":"MA","lng":"-71.33756","geonameId":4928849,"toponymName":"Aldersgate Church","countryId":"6252001","fcl":"S","population":0,"countryCode":"US","name":"Aldersgate Church","fclName":"spot, building, farm","adminCodes1":{"ISO3166_2":"MA"},"countryName":"United States","fcodeName":"church","adminName1":"Massachusetts","lat":"42.57759","fcode":"CH"},{"adminCode1":"MA","lng":"-71.35034","geonameId":4928888,"toponymName":"All Saints Church","countryId":"6252001","fcl":"S","population":0,"countryCode":"US","name":"All Saints Church","fclName":"spot, building, farm","adminCodes1":{"ISO3166_2":"MA"},"countryName":"United States","fcodeName":"church","adminName1":"Massachusetts","lat":"42.59731","fcode":"CH"},{"adminCode1":"MA","lng":"-71.46479","geonameId":4949475,"toponymName":"Saint Catherines Cemetery","countryId":"6252001","fcl":"S","population":0,"countryCode":"US","name":"Saint Catherines Cemetery","fclName":"spot, building, farm","adminCodes1":{"ISO3166_2":"MA"},"countryName":"United States","fcodeName":"cemetery","adminName1":"Massachusetts","lat":"42.5862","fcode":"CMTY"},{"adminCode1":"MA","lng":"-71.47645","geonameId":4949476,"toponymName":"Saint Catherines Church","countryId":"6252001","fcl":"S","population":0,"countryCode":"US","name":"Saint Catherines Church","fclName":"spot, building, farm","adminCodes1":{"ISO3166_2":"MA"},"countryName":"United States","fcodeName":"church","adminName1":"Massachusetts","lat":"42.5912","fcode":"CH"},{"adminCode1":"MA","lng":"-71.45534","geonameId":4949752,"toponymName":"Saint Marks Church","countryId":"6252001","fcl":"S","population":0,"countryCode":"US","name":"Saint Marks Church","fclName":"spot, building, farm","adminCodes1":{"ISO3166_2":"MA"},"countryName":"United States","fcodeName":"church","adminName1":"Massachusetts","lat":"42.58842","fcode":"CH"},{"adminCode1":"MA","lng":"-71.47951","geonameId":4934602,"toponymName":"Day Elementary School","countryId":"6252001","fcl":"S","population":0,"countryCode":"US","name":"Day Elementary School","fclName":"spot, building, farm","adminCodes1":{"ISO3166_2":"MA"},"countryName":"United States","fcodeName":"school","adminName1":"Massachusetts","lat":"42.58954","fcode":"SCH"},{"adminCode1":"MA","lng":"-71.46423","geonameId":4933642,"toponymName":"Colonel John Robinson School","countryId":"6252001","fcl":"S","population":0,"countryCode":"US","name":"Colonel John Robinson School","fclName":"spot, building, farm","adminCodes1":{"ISO3166_2":"MA"},"countryName":"United States","fcodeName":"school","adminName1":"Massachusetts","lat":"42.57009","fcode":"SCH"},{"adminCode1":"MA","lng":"-71.43229","geonameId":4928650,"toponymName":"Abbott Elementary School","countryId":"6252001","fcl":"S","population":0,"countryCode":"US","name":"Abbott Elementary School","fclName":"spot, building, farm","adminCodes1":{"ISO3166_2":"MA"},"countryName":"United States","fcodeName":"school","adminName1":"Massachusetts","lat":"42.58842","fcode":"SCH"},{"adminCode1":"MA","lng":"-71.3457","geonameId":6486173,"toponymName":"Radisson Hotel and Suites Chelmsford","countryId":"6252001","fcl":"S","population":0,"countryCode":"US","name":"Radisson Hotel and Suites Chelmsford","fclName":"spot, building, farm","adminCodes1":{"ISO3166_2":"MA"},"countryName":"United States","fcodeName":"hotel","adminName1":"Massachusetts","lat":"42.6036","fcode":"HTL"},{"adminCode1":"MA","lng":"-71.3412","geonameId":6466059,"toponymName":"Best Western Chelmsford Inn","countryId":"6252001","fcl":"S","population":0,"countryCode":"US","name":"Best Western Chelmsford Inn","fclName":"spot, building, farm","adminCodes1":{"ISO3166_2":"MA"},"countryName":"United States","fcodeName":"hotel","adminName1":"Massachusetts","lat":"42.608","fcode":"HTL"},{"adminCode1":"MA","lng":"-71.3659","geonameId":6468566,"toponymName":"Hawthorn Suites LTD Boston/Chelmsford","countryId":"6252001","fcl":"S","population":0,"countryCode":"US","name":"Hawthorn Suites LTD Boston/Chelmsford","fclName":"spot, building, farm","adminCodes1":{"ISO3166_2":"MA"},"countryName":"United States","fcodeName":"hotel","adminName1":"Massachusetts","lat":"42.6271","fcode":"HTL"},{"adminCode1":"MA","lng":"-71.3165","geonameId":6480288,"toponymName":"Courtyard by Marriott Boston Lowell Chelmsford","countryId":"6252001","fcl":"S","population":0,"countryCode":"US","name":"Courtyard by Marriott Boston Lowell Chelmsford","fclName":"spot, building, farm","adminCodes1":{"ISO3166_2":"MA"},"countryName":"United States","fcodeName":"hotel","adminName1":"Massachusetts","lat":"42.6137","fcode":"HTL"},{"adminCode1":"MA","lng":"-71.38228","geonameId":4945585,"toponymName":"North Chelmsford Congregational Church","countryId":"6252001","fcl":"S","population":0,"countryCode":"US","name":"North Chelmsford Congregational Church","fclName":"spot, building, farm","adminCodes1":{"ISO3166_2":"MA"},"countryName":"United States","fcodeName":"church","adminName1":"Massachusetts","lat":"42.63815","fcode":"CH"},{"adminCode1":"MA","lng":"-71.38062","geonameId":4945586,"toponymName":"North Chelmsford Post Office","countryId":"6252001","fcl":"S","population":0,"countryCode":"US","name":"North Chelmsford Post Office","fclName":"spot, building, farm","adminCodes1":{"ISO3166_2":"MA"},"countryName":"United States","fcodeName":"post office","adminName1":"Massachusetts","lat":"42.63926","fcode":"PO"},{"adminCode1":"MA","lng":"-71.34451","geonameId":4932871,"toponymName":"Chelmsford Center Town Hall","countryId":"6252001","fcl":"S","population":0,"countryCode":"US","name":"Chelmsford Center Town Hall","fclName":"spot, building, farm","adminCodes1":{"ISO3166_2":"MA"},"countryName":"United States","fcodeName":"building(s)","adminName1":"Massachusetts","lat":"42.59954","fcode":"BLDG"},{"adminCode1":"MA","lng":"-71.36562","geonameId":4932872,"toponymName":"Chelmsford Glass Works Long House","countryId":"6252001","fcl":"S","population":0,"countryCode":"US","name":"Chelmsford Glass Works Long House","fclName":"spot, building, farm","adminCodes1":{"ISO3166_2":"MA"},"countryName":"United States","fcodeName":"building(s)","adminName1":"Massachusetts","lat":"42.63426","fcode":"BLDG"},{"adminCode1":"MA","lng":"-71.35395","geonameId":4932874,"toponymName":"Chelmsford Mall","countryId":"6252001","fcl":"S","population":0,"countryCode":"US","name":"Chelmsford Mall","fclName":"spot, building, farm","adminCodes1":{"ISO3166_2":"MA"},"countryName":"United States","fcodeName":"mall","adminName1":"Massachusetts","lat":"42.5962","fcode":"MALL"},{"adminCode1":"MA","lng":"-71.33423","geonameId":4932875,"toponymName":"Chelmsford Mall Shopping Center","countryId":"6252001","fcl":"S","population":0,"countryCode":"US","name":"Chelmsford Mall Shopping Center","fclName":"spot, building, farm","adminCodes1":{"ISO3166_2":"MA"},"countryName":"United States","fcodeName":"mall","adminName1":"Massachusetts","lat":"42.60981","fcode":"MALL"},{"adminCode1":"MA","lng":"-71.34728","geonameId":4932876,"toponymName":"Chelmsford Post Office","countryId":"6252001","fcl":"S","population":0,"countryCode":"US","name":"Chelmsford Post Office","fclName":"spot, building, farm","adminCodes1":{"ISO3166_2":"MA"},"countryName":"United States","fcodeName":"post office","adminName1":"Massachusetts","lat":"42.60176","fcode":"PO"},{"adminCode1":"MA","lng":"-71.35006","geonameId":4932877,"toponymName":"Chelmsford Public Library","countryId":"6252001","fcl":"S","population":0,"countryCode":"US","name":"Chelmsford Public Library","fclName":"spot, building, farm","adminCodes1":{"ISO3166_2":"MA"},"countryName":"United States","fcodeName":"library","adminName1":"Massachusetts","lat":"42.59259","fcode":"LIBR"},{"adminCode1":"MA","lng":"-71.35242","geonameId":8101643,"toponymName":"Chelmsford Fire Department Station 1 Headquarters","countryId":"6252001","fcl":"S","population":0,"countryCode":"US","name":"Chelmsford Fire Department Station 1 Headquarters","fclName":"spot, building, farm","adminCodes1":{"ISO3166_2":"MA"},"countryName":"United States","fcodeName":"building(s)","adminName1":"Massachusetts","lat":"42.59826","fcode":"BLDG"},{"adminCode1":"MA","lng":"-71.38135","geonameId":8101934,"toponymName":"Chelmsford Fire Department Station 2","countryId":"6252001","fcl":"S","population":0,"countryCode":"US","name":"Chelmsford Fire Department Station 2","fclName":"spot, building, farm","adminCodes1":{"ISO3166_2":"MA"},"countryName":"United States","fcodeName":"building(s)","adminName1":"Massachusetts","lat":"42.63715","fcode":"BLDG"},{"adminCode1":"MA","lng":"-71.37559","geonameId":8102289,"toponymName":"Chelmsford Fire Department Station 5","countryId":"6252001","fcl":"S","population":0,"countryCode":"US","name":"Chelmsford Fire Department Station 5","fclName":"spot, building, farm","adminCodes1":{"ISO3166_2":"MA"},"countryName":"United States","fcodeName":"building(s)","adminName1":"Massachusetts","lat":"42.57327","fcode":"BLDG"},{"adminCode1":"MA","lng":"-71.38924","geonameId":8102290,"toponymName":"Chelmsford Fire Department Station 3","countryId":"6252001","fcl":"S","population":0,"countryCode":"US","name":"Chelmsford Fire Department Station 3","fclName":"spot, building, farm","adminCodes1":{"ISO3166_2":"MA"},"countryName":"United States","fcodeName":"building(s)","adminName1":"Massachusetts","lat":"42.60622","fcode":"BLDG"},{"adminCode1":"MA","lng":"-71.31705","geonameId":8102291,"toponymName":"Chelmsford Fire Department Station 4","countryId":"6252001","fcl":"S","population":0,"countryCode":"US","name":"Chelmsford Fire Department Station 4","fclName":"spot, building, farm","adminCodes1":{"ISO3166_2":"MA"},"countryName":"United States","fcodeName":"building(s)","adminName1":"Massachusetts","lat":"42.60658","fcode":"BLDG"},{"adminCode1":"MA","lng":"-71.34163","geonameId":9828566,"toponymName":"Best Western Plus Chelmsford I","countryId":"6252001","fcl":"S","population":0,"countryCode":"US","name":"Best Western Plus Chelmsford I","fclName":"spot, building, farm","adminCodes1":{"ISO3166_2":"MA"},"countryName":"United States","fcodeName":"hotel","adminName1":"Massachusetts","lat":"42.60713","fcode":"HTL"},{"adminCode1":"MA","lng":"-71.36759","geonameId":9687952,"toponymName":"Chelmsford Police Department","countryId":"6252001","fcl":"S","population":0,"countryCode":"US","name":"Chelmsford Police Department","fclName":"spot, building, farm","adminCodes1":{"ISO3166_2":"MA"},"countryName":"United States","fcodeName":"building(s)","adminName1":"Massachusetts","lat":"42.62017","fcode":"BLDG"},{"adminCode1":"MA","lng":"-71.34128","geonameId":9856732,"toponymName":"Best Western Plus Chelmsford Inn","countryId":"6252001","fcl":"S","population":0,"countryCode":"US","name":"Best Western Plus Chelmsford Inn","fclName":"spot, building, farm","adminCodes1":{"ISO3166_2":"MA"},"countryName":"United States","fcodeName":"hotel","adminName1":"Massachusetts","lat":"42.60802","fcode":"HTL"},{"adminCode1":"MA","lng":"-71.34899","geonameId":9861549,"toponymName":"Radisson Hotel & Suites Chelmsford-Lowell","countryId":"6252001","fcl":"S","population":0,"countryCode":"US","name":"Radisson Hotel & Suites Chelmsford-Lowell","fclName":"spot, building, farm","adminCodes1":{"ISO3166_2":"MA"},"countryName":"United States","fcodeName":"hotel","adminName1":"Massachusetts","lat":"42.60289","fcode":"HTL"},{"adminCode1":"MA","lng":"-71.3651","geonameId":9964169,"toponymName":"Hawthorn Suites Chelmsford/Lowell","countryId":"6252001","fcl":"S","population":0,"countryCode":"US","name":"Hawthorn Suites Chelmsford/Lowell","fclName":"spot, building, farm","adminCodes1":{"ISO3166_2":"MA"},"countryName":"United States","fcodeName":"hotel","adminName1":"Massachusetts","lat":"42.6274","fcode":"HTL"},{"adminCode1":"MA","lng":"-71.36591","geonameId":10239516,"toponymName":"Hawthorn Suites By Wyndham Chelmsford/Lowell","countryId":"6252001","fcl":"S","population":0,"countryCode":"US","name":"Hawthorn Suites By Wyndham Chelmsford/Lowell","fclName":"spot, building, farm","adminCodes1":{"ISO3166_2":"MA"},"countryName":"United States","fcodeName":"hotel","adminName1":"Massachusetts","lat":"42.62723","fcode":"HTL"},{"adminCode1":"MA","lng":"-71.4183","geonameId":9795286,"toponymName":"Hampton Inn & Suites Westford-Chelmsford","countryId":"6252001","fcl":"S","population":0,"countryCode":"US","name":"Hampton Inn & Suites Westford-Chelmsford","fclName":"spot, building, farm","adminCodes1":{"ISO3166_2":"MA"},"countryName":"United States","fcodeName":"hotel","adminName1":"Massachusetts","lat":"42.5702","fcode":"HTL"},{"adminCode1":"MA","lng":"-71.3901","geonameId":7142853,"toponymName":"Lighthouse School","countryId":"6252001","fcl":"S","population":0,"countryCode":"US","name":"Lighthouse School","fclName":"spot, building, farm","adminCodes1":{"ISO3166_2":"MA"},"countryName":"United States","fcodeName":"school","adminName1":"Massachusetts","lat":"42.6459","fcode":"SCH"},{"adminCode1":"MA","lng":"-71.3309","geonameId":7142956,"toponymName":"Merrimack Educational Collaborative School","countryId":"6252001","fcl":"S","population":0,"countryCode":"US","name":"Merrimack Educational Collaborative School","fclName":"spot, building, farm","adminCodes1":{"ISO3166_2":"MA"},"countryName":"United States","fcodeName":"school","adminName1":"Massachusetts","lat":"42.5784","fcode":"SCH"},{"adminCode1":"MA","lng":"-71.3757","geonameId":7142990,"toponymName":"Murdoch Middle Public Charter School","countryId":"6252001","fcl":"S","population":0,"countryCode":"US","name":"Murdoch Middle Public Charter School","fclName":"spot, building, farm","adminCodes1":{"ISO3166_2":"MA"},"countryName":"United States","fcodeName":"school","adminName1":"Massachusetts","lat":"42.6214","fcode":"SCH"},{"adminCode1":"MA","lng":"-71.3704","geonameId":7143087,"toponymName":"Parker Middle School Library","countryId":"6252001","fcl":"S","population":0,"countryCode":"US","name":"Parker Middle School Library","fclName":"spot, building, farm","adminCodes1":{"ISO3166_2":"MA"},"countryName":"United States","fcodeName":"library","adminName1":"Massachusetts","lat":"42.5733","fcode":"LIBR"}]}
