{"totalResultsCount":1348,"geonames":[{"adminCode1":"CT","lng":"-72.90066","geonameId":5283837,"toponymName":"Cheshire","countryId":"6252001","fcl":"P","population":29443,"countryCode":"US","name":"Cheshire","fclName":"city, village,...","adminCodes1":{"ISO3166_2":"CT"},"countryName":"United States","fcodeName":"populated place","adminName1":"Connecticut","lat":"41.49899","fcode":"PPL"},{"adminCode1":"NH","lng":"-72.27814","geonameId":5088262,"toponymName":"Keene","countryId":"6252001","fcl":"P","population":23265,"countryCode":"US","name":"Keene","fclName":"city, village,...","adminCodes1":{"ISO3166_2":"NH"},"countryName":"United States","fcodeName":"seat of a second-order administrative division","adminName1":"New Hampshire","lat":"42.93369","fcode":"PPLA2"},{"adminCode1":"NH","lng":"-72.25118","geonameId":5084505,"toponymName":"Cheshire County","countryId":"6252001","fcl":"A","population":77117,"countryCode":"US","name":"Cheshire","fclName":"country, state, region,...","adminCodes1":{"ISO3166_2":"NH"},"countryName":"United States","fcodeName":"second-order administrative division","adminName1":"New Hampshire","lat":"42.91932","fcode":"ADM2"},{"adminCode1":"NH","lng":"-72.27009","geonameId":5085428,"toponymName":"Dillant-Hopkins Airport","countryId":"6252001","fcl":"S","population":0,"countryCode":"US","name":"Dillant\u2013Hopkins Airport","fclName":"spot, building, farm","adminCodes1":{"ISO3166_2":"NH"},"countryName":"United States","fcodeName":"airport","adminName1":"New Hampshire","lat":"42.89841","fcode":"AIRP"},{"adminCode1":"NH","lng":"-72.02314","geonameId":5088061,"toponymName":"Jaffrey","countryId":"6252001","fcl":"P","population":2757,"countryCode":"US","name":"Jaffrey","fclName":"city, village,...","adminCodes1":{"ISO3166_2":"NH"},"countryName":"United States","fcodeName":"populated place","adminName1":"New Hampshire","lat":"42.81397","fcode":"PPL"},{"adminCode1":"NH","lng":"-72.0023","geonameId":5088066,"toponymName":"Jaffrey Municipal-Silver Ranch Airport","countryId":"6252001","fcl":"S","population":0,"countryCode":"US","name":"Jaffrey Municipal-Silver Ranch Airport","fclName":"spot, building, farm","adminCodes1":{"ISO3166_2":"NH"},"countryName":"United States","fcodeName":"airport","adminName1":"New Hampshire","lat":"42.80508","fcode":"AIRP"},{"adminCode1":"NH","lng":"-72.06258","geonameId":5085564,"toponymName":"Dublin","countryId":"6252001","fcl":"P","population":1572,"countryCode":"US","name":"Dublin","fclName":"city, village,...","adminCodes1":{"ISO3166_2":"NH"},"countryName":"United States","fcodeName":"populated place","adminName1":"New Hampshire","lat":"42.90758","fcode":"PPL"},{"adminCode1":"NH","lng":"-72.14175","geonameId":5086182,"toponymName":"Fitzwilliam","countryId":"6252001","fcl":"P","population":2280,"countryCode":"US","name":"Fitzwilliam","fclName":"city, village,...","adminCodes1":{"ISO3166_2":"NH"},"countryName":"United States","fcodeName":"populated place","adminName1":"New Hampshire","lat":"42.78064","fcode":"PPL"},{"adminCode1":"NH","lng":"-72.09647","geonameId":5087227,"toponymName":"Harrisville","countryId":"6252001","fcl":"P","population":1145,"countryCode":"US","name":"Harrisville","fclName":"city, village,...","adminCodes1":{"ISO3166_2":"NH"},"countryName":"United States","fcodeName":"populated place","adminName1":"New Hampshire","lat":"42.94508","fcode":"PPL"},{"adminCode1":"NH","lng":"-72.36064","geonameId":5082595,"toponymName":"Alstead","countryId":"6252001","fcl":"P","population":2071,"countryCode":"US","name":"Alstead","fclName":"city, village,...","adminCodes1":{"ISO3166_2":"NH"},"countryName":"United States","fcodeName":"populated place","adminName1":"New Hampshire","lat":"43.14897","fcode":"PPL"},{"adminCode1":"NH","lng":"-72.47037","geonameId":5084524,"toponymName":"Chesterfield","countryId":"6252001","fcl":"P","population":3773,"countryCode":"US","name":"Chesterfield","fclName":"city, village,...","adminCodes1":{"ISO3166_2":"NH"},"countryName":"United States","fcodeName":"populated place","adminName1":"New Hampshire","lat":"42.8873","fcode":"PPL"},{"adminCode1":"NH","lng":"-72.08155","geonameId":5085568,"toponymName":"Dublin Pond","countryId":"6252001","fcl":"H","population":0,"countryCode":"US","name":"Dublin Pond","fclName":"stream, lake, ...","adminCodes1":{"ISO3166_2":"NH"},"countryName":"United States","fcodeName":"lake","adminName1":"New Hampshire","lat":"42.90591","fcode":"LK"},{"adminCode1":"NH","lng":"-72.09397","geonameId":5087228,"toponymName":"Harrisville Historic District","countryId":"6252001","fcl":"L","population":0,"countryCode":"US","name":"Harrisville Historic District","fclName":"parks,area, ...","adminCodes1":{"ISO3166_2":"NH"},"countryName":"United States","fcodeName":"park","adminName1":"New Hampshire","lat":"42.94536","fcode":"PRK"},{"adminCode1":"NH","lng":"-72.08878","geonameId":5087422,"toponymName":"Highland Lake","countryId":"6252001","fcl":"H","population":0,"countryCode":"US","name":"Highland Lake","fclName":"stream, lake, ...","adminCodes1":{"ISO3166_2":"NH"},"countryName":"United States","fcodeName":"lake","adminName1":"New Hampshire","lat":"43.10061","fcode":"LK"},{"adminCode1":"NH","lng":"-72.48648","geonameId":5087494,"toponymName":"Hinsdale","countryId":"6252001","fcl":"P","population":1548,"countryCode":"US","name":"Hinsdale","fclName":"city, village,...","adminCodes1":{"ISO3166_2":"NH"},"countryName":"United States","fcodeName":"populated place","adminName1":"New Hampshire","lat":"42.78619","fcode":"PPL"},{"adminCode1":"NH","lng":"-72.31759","geonameId":5082615,"toponymName":"Alumni Field","countryId":"6252001","fcl":"L","population":0,"countryCode":"US","name":"Alumni Field","fclName":"parks,area, ...","adminCodes1":{"ISO3166_2":"NH"},"countryName":"United States","fcodeName":"park","adminName1":"New Hampshire","lat":"42.94064","fcode":"PRK"},{"adminCode1":"NH","lng":"-72.20786","geonameId":5089236,"toponymName":"Marlborough","countryId":"6252001","fcl":"P","population":1094,"countryCode":"US","name":"Marlborough","fclName":"city, village,...","adminCodes1":{"ISO3166_2":"NH"},"countryName":"United States","fcodeName":"populated place","adminName1":"New Hampshire","lat":"42.90425","fcode":"PPL"},{"adminCode1":"NH","lng":"-72.4537","geonameId":5091236,"toponymName":"Pisgah State Park","countryId":"6252001","fcl":"L","population":0,"countryCode":"US","name":"Pisgah State Park","fclName":"parks,area, ...","adminCodes1":{"ISO3166_2":"NH"},"countryName":"United States","fcodeName":"park","adminName1":"New Hampshire","lat":"42.84036","fcode":"PRK"},{"adminCode1":"NH","lng":"-72.19119","geonameId":5091706,"toponymName":"Rhododendron State Park","countryId":"6252001","fcl":"L","population":0,"countryCode":"US","name":"Rhododendron State Park","fclName":"parks,area, ...","adminCodes1":{"ISO3166_2":"NH"},"countryName":"United States","fcodeName":"park","adminName1":"New Hampshire","lat":"42.78481","fcode":"PRK"},{"adminCode1":"NH","lng":"-72.0098","geonameId":5091744,"toponymName":"Rindge","countryId":"6252001","fcl":"P","population":6049,"countryCode":"US","name":"Rindge","fclName":"city, village,...","adminCodes1":{"ISO3166_2":"NH"},"countryName":"United States","fcodeName":"populated place","adminName1":"New Hampshire","lat":"42.7512","fcode":"PPL"},{"adminCode1":"NH","lng":"-72.13971","geonameId":5092673,"toponymName":"Silver Lake","countryId":"6252001","fcl":"H","population":0,"countryCode":"US","name":"Silver Lake","fclName":"stream, lake, ...","adminCodes1":{"ISO3166_2":"NH"},"countryName":"United States","fcodeName":"lake","adminName1":"New Hampshire","lat":"42.95885","fcode":"LK"},{"adminCode1":"NH","lng":"-72.07589","geonameId":5092699,"toponymName":"Skatutakee Lake","countryId":"6252001","fcl":"H","population":0,"countryCode":"US","name":"Skatutakee Lake","fclName":"stream, lake, ...","adminCodes1":{"ISO3166_2":"NH"},"countryName":"United States","fcodeName":"lake","adminName1":"New Hampshire","lat":"42.93775","fcode":"LK"},{"adminCode1":"NH","lng":"-72.28175","geonameId":5093422,"toponymName":"Swanzey","countryId":"6252001","fcl":"P","population":7224,"countryCode":"US","name":"Swanzey","fclName":"city, village,...","adminCodes1":{"ISO3166_2":"NH"},"countryName":"United States","fcodeName":"populated place","adminName1":"New Hampshire","lat":"42.8698","fcode":"PPL"},{"adminCode1":"NH","lng":"-72.18119","geonameId":5093821,"toponymName":"Troy","countryId":"6252001","fcl":"P","population":1221,"countryCode":"US","name":"Troy","fclName":"city, village,...","adminCodes1":{"ISO3166_2":"NH"},"countryName":"United States","fcodeName":"populated place","adminName1":"New Hampshire","lat":"42.82397","fcode":"PPL"},{"adminCode1":"NH","lng":"-72.42592","geonameId":5094235,"toponymName":"Walpole","countryId":"6252001","fcl":"P","population":605,"countryCode":"US","name":"Walpole","fclName":"city, village,...","adminCodes1":{"ISO3166_2":"NH"},"countryName":"United States","fcodeName":"populated place","adminName1":"New Hampshire","lat":"43.07952","fcode":"PPL"},{"adminCode1":"NH","lng":"-72.32175","geonameId":5094538,"toponymName":"West Swanzey","countryId":"6252001","fcl":"P","population":1308,"countryCode":"US","name":"West Swanzey","fclName":"city, village,...","adminCodes1":{"ISO3166_2":"NH"},"countryName":"United States","fcodeName":"populated place","adminName1":"New Hampshire","lat":"42.87008","fcode":"PPL"},{"adminCode1":"NH","lng":"-72.44231","geonameId":5094550,"toponymName":"Westmoreland","countryId":"6252001","fcl":"P","population":1861,"countryCode":"US","name":"Westmoreland","fclName":"city, village,...","adminCodes1":{"ISO3166_2":"NH"},"countryName":"United States","fcodeName":"populated place","adminName1":"New Hampshire","lat":"42.96203","fcode":"PPL"},{"adminCode1":"NH","lng":"-72.38314","geonameId":5094812,"toponymName":"Winchester","countryId":"6252001","fcl":"P","population":1733,"countryCode":"US","name":"Winchester","fclName":"city, village,...","adminCodes1":{"ISO3166_2":"NH"},"countryName":"United States","fcodeName":"populated place","adminName1":"New Hampshire","lat":"42.77342","fcode":"PPL"},{"adminCode1":"MA","lng":"-73.16288","geonameId":4932915,"toponymName":"Cheshire","countryId":"6252001","fcl":"P","population":514,"countryCode":"US","name":"Cheshire","fclName":"city, village,...","adminCodes1":{"ISO3166_2":"MA"},"countryName":"United States","fcodeName":"populated place","adminName1":"Massachusetts","lat":"42.56203","fcode":"PPL"},{"adminCode1":"NH","lng":"-72.09365","geonameId":5085252,"toponymName":"Dark Pond","countryId":"6252001","fcl":"H","population":0,"countryCode":"US","name":"Dark Pond","fclName":"stream, lake, ...","adminCodes1":{"ISO3166_2":"NH"},"countryName":"United States","fcodeName":"lake","adminName1":"New Hampshire","lat":"42.9103","fcode":"LK"},{"adminCode1":"NH","lng":"-72.39203","geonameId":5085542,"toponymName":"Drewsville","countryId":"6252001","fcl":"P","population":0,"countryCode":"US","name":"Drewsville","fclName":"city, village,...","adminCodes1":{"ISO3166_2":"NH"},"countryName":"United States","fcodeName":"populated place","adminName1":"New Hampshire","lat":"43.12813","fcode":"PPL"},{"adminCode1":"NH","lng":"-72.26286","geonameId":5086574,"toponymName":"Gilsum","countryId":"6252001","fcl":"P","population":828,"countryCode":"US","name":"Gilsum","fclName":"city, village,...","adminCodes1":{"ISO3166_2":"NH"},"countryName":"United States","fcodeName":"populated place","adminName1":"New Hampshire","lat":"43.04841","fcode":"PPL"},{"adminCode1":"NH","lng":"-72.4237","geonameId":5082764,"toponymName":"Ashuelot","countryId":"6252001","fcl":"P","population":0,"countryCode":"US","name":"Ashuelot","fclName":"city, village,...","adminCodes1":{"ISO3166_2":"NH"},"countryName":"United States","fcodeName":"populated place","adminName1":"New Hampshire","lat":"42.77758","fcode":"PPL"},{"adminCode1":"NH","lng":"-72.46613","geonameId":5082914,"toponymName":"Baker Pond","countryId":"6252001","fcl":"H","population":0,"countryCode":"US","name":"Baker Pond","fclName":"stream, lake, ...","adminCodes1":{"ISO3166_2":"NH"},"countryName":"United States","fcodeName":"lake","adminName1":"New Hampshire","lat":"42.85229","fcode":"LK"},{"adminCode1":"NH","lng":"-72.19703","geonameId":5089240,"toponymName":"Marlow","countryId":"6252001","fcl":"P","population":796,"countryCode":"US","name":"Marlow","fclName":"city, village,...","adminCodes1":{"ISO3166_2":"NH"},"countryName":"United States","fcodeName":"populated place","adminName1":"New Hampshire","lat":"43.11591","fcode":"PPL"},{"adminCode1":"NH","lng":"-72.44814","geonameId":5090441,"toponymName":"North Walpole","countryId":"6252001","fcl":"P","population":828,"countryCode":"US","name":"North Walpole","fclName":"city, village,...","adminCodes1":{"ISO3166_2":"NH"},"countryName":"United States","fcodeName":"populated place","adminName1":"New Hampshire","lat":"43.13897","fcode":"PPL"},{"adminCode1":"NH","lng":"-71.96355","geonameId":5090909,"toponymName":"Pecker Pond","countryId":"6252001","fcl":"H","population":0,"countryCode":"US","name":"Pecker Pond","fclName":"stream, lake, ...","adminCodes1":{"ISO3166_2":"NH"},"countryName":"United States","fcodeName":"lake","adminName1":"New Hampshire","lat":"42.71526","fcode":"LK"},{"adminCode1":"NH","lng":"-72.27175","geonameId":5091729,"toponymName":"Richmond","countryId":"6252001","fcl":"P","population":1147,"countryCode":"US","name":"Richmond","fclName":"city, village,...","adminCodes1":{"ISO3166_2":"NH"},"countryName":"United States","fcodeName":"populated place","adminName1":"New Hampshire","lat":"42.75481","fcode":"PPL"},{"adminCode1":"NH","lng":"-72.41953","geonameId":5093012,"toponymName":"Spofford","countryId":"6252001","fcl":"P","population":0,"countryCode":"US","name":"Spofford","fclName":"city, village,...","adminCodes1":{"ISO3166_2":"NH"},"countryName":"United States","fcodeName":"populated place","adminName1":"New Hampshire","lat":"42.90703","fcode":"PPL"},{"adminCode1":"NH","lng":"-72.11453","geonameId":5093183,"toponymName":"Stoddard","countryId":"6252001","fcl":"P","population":988,"countryCode":"US","name":"Stoddard","fclName":"city, village,...","adminCodes1":{"ISO3166_2":"NH"},"countryName":"United States","fcodeName":"populated place","adminName1":"New Hampshire","lat":"43.07869","fcode":"PPL"},{"adminCode1":"NH","lng":"-72.22092","geonameId":5093333,"toponymName":"Sullivan","countryId":"6252001","fcl":"P","population":795,"countryCode":"US","name":"Sullivan","fclName":"city, village,...","adminCodes1":{"ISO3166_2":"NH"},"countryName":"United States","fcodeName":"populated place","adminName1":"New Hampshire","lat":"43.01314","fcode":"PPL"},{"adminCode1":"NH","lng":"-72.51564","geonameId":5094477,"toponymName":"West Chesterfield","countryId":"6252001","fcl":"P","population":0,"countryCode":"US","name":"West Chesterfield","fclName":"city, village,...","adminCodes1":{"ISO3166_2":"NH"},"countryName":"United States","fcodeName":"populated place","adminName1":"New Hampshire","lat":"42.90425","fcode":"PPL"},{"adminCode1":"NH","lng":"-72.39038","geonameId":5087257,"toponymName":"Harvey Pond","countryId":"6252001","fcl":"H","population":0,"countryCode":"US","name":"Harvey Pond","fclName":"stream, lake, ...","adminCodes1":{"ISO3166_2":"NH"},"countryName":"United States","fcodeName":"lake","adminName1":"New Hampshire","lat":"42.93412","fcode":"LK"},{"adminCode1":"NH","lng":"-72.05147","geonameId":5087269,"toponymName":"Haven State Park","countryId":"6252001","fcl":"L","population":0,"countryCode":"US","name":"Haven State Park","fclName":"parks,area, ...","adminCodes1":{"ISO3166_2":"NH"},"countryName":"United States","fcodeName":"park","adminName1":"New Hampshire","lat":"42.83842","fcode":"PRK"},{"adminCode1":"NH","lng":"-72.26122","geonameId":5082723,"toponymName":"Arch Pond","countryId":"6252001","fcl":"H","population":0,"countryCode":"US","name":"Arch Pond","fclName":"stream, lake, ...","adminCodes1":{"ISO3166_2":"NH"},"countryName":"United States","fcodeName":"lake","adminName1":"New Hampshire","lat":"43.1392","fcode":"LK"},{"adminCode1":"NH","lng":"-72.26358","geonameId":5084296,"toponymName":"Cass Pond","countryId":"6252001","fcl":"H","population":0,"countryCode":"US","name":"Cass Pond","fclName":"stream, lake, ...","adminCodes1":{"ISO3166_2":"NH"},"countryName":"United States","fcodeName":"lake","adminName1":"New Hampshire","lat":"42.74582","fcode":"LK"},{"adminCode1":"NH","lng":"-72.06758","geonameId":5089730,"toponymName":"Monadnock State Park","countryId":"6252001","fcl":"L","population":0,"countryCode":"US","name":"Monadnock State Park","fclName":"parks,area, ...","adminCodes1":{"ISO3166_2":"NH"},"countryName":"United States","fcodeName":"park","adminName1":"New Hampshire","lat":"42.86258","fcode":"PRK"},{"adminCode1":"NH","lng":"-72.21758","geonameId":5090109,"toponymName":"New Cumings Pond","countryId":"6252001","fcl":"H","population":0,"countryCode":"US","name":"New Cumings Pond","fclName":"stream, lake, ...","adminCodes1":{"ISO3166_2":"NH"},"countryName":"United States","fcodeName":"lake","adminName1":"New Hampshire","lat":"42.84425","fcode":"LK"},{"adminCode1":"NH","lng":"-72.10311","geonameId":5092690,"toponymName":"Sip Pond","countryId":"6252001","fcl":"H","population":0,"countryCode":"US","name":"Sip Pond","fclName":"stream, lake, ...","adminCodes1":{"ISO3166_2":"NH"},"countryName":"United States","fcodeName":"lake","adminName1":"New Hampshire","lat":"42.73343","fcode":"LK"},{"adminCode1":"CT","lng":"-72.89952","geonameId":7257805,"toponymName":"Cheshire Village","countryId":"6252001","fcl":"P","population":5786,"countryCode":"US","name":"Cheshire Village","fclName":"city, village,...","adminCodes1":{"ISO3166_2":"CT"},"countryName":"United States","fcodeName":"populated place","adminName1":"Connecticut","lat":"41.5026","fcode":"PPL"},{"adminCode1":"OR","lng":"-123.28565","geonameId":5718899,"toponymName":"Cheshire","countryId":"6252001","fcl":"P","population":0,"countryCode":"US","name":"Cheshire","fclName":"city, village,...","adminCodes1":{"ISO3166_2":"OR"},"countryName":"United States","fcodeName":"populated place","adminName1":"Oregon","lat":"44.18957","fcode":"PPL"},{"adminCode1":"NH","lng":"-72.25842","geonameId":5085748,"toponymName":"East Swanzey","countryId":"6252001","fcl":"P","population":0,"countryCode":"US","name":"East Swanzey","fclName":"city, village,...","adminCodes1":{"ISO3166_2":"NH"},"countryName":"United States","fcodeName":"populated place","adminName1":"New Hampshire","lat":"42.85147","fcode":"PPL"},{"adminCode1":"NH","lng":"-72.4295","geonameId":5086342,"toponymName":"Frank D. Comerford Airport","countryId":"6252001","fcl":"S","population":0,"countryCode":"US","name":"Frank D. Comerford Airport","fclName":"spot, building, farm","adminCodes1":{"ISO3166_2":"NH"},"countryName":"United States","fcodeName":"airport","adminName1":"New Hampshire","lat":"43.03341","fcode":"AIRP"},{"adminCode1":"NH","lng":"-72.14092","geonameId":5086445,"toponymName":"Gap Mountain","countryId":"6252001","fcl":"T","population":0,"countryCode":"US","name":"Gap Mountain","fclName":"mountain,hill,rock,... ","adminCodes1":{"ISO3166_2":"NH"},"countryName":"United States","fcodeName":"mountain","adminName1":"New Hampshire","lat":"42.82203","fcode":"MT"},{"adminCode1":"NH","lng":"-72.05508","geonameId":5088062,"toponymName":"Jaffrey Center","countryId":"6252001","fcl":"P","population":0,"countryCode":"US","name":"Jaffrey Center","fclName":"city, village,...","adminCodes1":{"ISO3166_2":"NH"},"countryName":"United States","fcodeName":"populated place","adminName1":"New Hampshire","lat":"42.82786","fcode":"PPL"},{"adminCode1":"NH","lng":"-72.20592","geonameId":5088821,"toponymName":"Little Monadnock Mountain","countryId":"6252001","fcl":"T","population":0,"countryCode":"US","name":"Little Monadnock Mountain","fclName":"mountain,hill,rock,... ","adminCodes1":{"ISO3166_2":"NH"},"countryName":"United States","fcodeName":"mountain","adminName1":"New Hampshire","lat":"42.78981","fcode":"MT"},{"adminCode1":"NH","lng":"-72.07342","geonameId":5083236,"toponymName":"Beech Hill","countryId":"6252001","fcl":"T","population":0,"countryCode":"US","name":"Beech Hill","fclName":"mountain,hill,rock,... ","adminCodes1":{"ISO3166_2":"NH"},"countryName":"United States","fcodeName":"mountain","adminName1":"New Hampshire","lat":"42.91592","fcode":"MT"},{"adminCode1":"NH","lng":"-72.14869","geonameId":5084501,"toponymName":"Chesham","countryId":"6252001","fcl":"P","population":0,"countryCode":"US","name":"Chesham","fclName":"city, village,...","adminCodes1":{"ISO3166_2":"NH"},"countryName":"United States","fcodeName":"populated place","adminName1":"New Hampshire","lat":"42.93064","fcode":"PPL"},{"adminCode1":"NH","lng":"-72.40787","geonameId":5084526,"toponymName":"Chesterfield Gorge State Park","countryId":"6252001","fcl":"L","population":0,"countryCode":"US","name":"Chesterfield Gorge State Park","fclName":"parks,area, ...","adminCodes1":{"ISO3166_2":"NH"},"countryName":"United States","fcodeName":"park","adminName1":"New Hampshire","lat":"42.91397","fcode":"PRK"},{"adminCode1":"NH","lng":"-71.99644","geonameId":4941538,"toponymName":"Lake Monomonac","countryId":"6252001","fcl":"H","population":0,"countryCode":"US","name":"Lake Monomonac","fclName":"stream, lake, ...","adminCodes1":{"ISO3166_2":"NH"},"countryName":"United States","fcodeName":"reservoir(s)","adminName1":"New Hampshire","lat":"42.71829","fcode":"RSV"},{"adminCode1":"NH","lng":"-72.10925","geonameId":5089725,"toponymName":"Monadnock Mountain","countryId":"6252001","fcl":"T","population":0,"countryCode":"US","name":"Monadnock Mountain","fclName":"mountain,hill,rock,... ","adminCodes1":{"ISO3166_2":"NH"},"countryName":"United States","fcodeName":"mountain","adminName1":"New Hampshire","lat":"42.86119","fcode":"MT"},{"adminCode1":"NH","lng":"-72.14869","geonameId":5090014,"toponymName":"Munsonville","countryId":"6252001","fcl":"P","population":0,"countryCode":"US","name":"Munsonville","fclName":"city, village,...","adminCodes1":{"ISO3166_2":"NH"},"countryName":"United States","fcodeName":"populated place","adminName1":"New Hampshire","lat":"43.01425","fcode":"PPL"},{"adminCode1":"NH","lng":"-72.13092","geonameId":5090084,"toponymName":"Nelson","countryId":"6252001","fcl":"P","population":675,"countryCode":"US","name":"Nelson","fclName":"city, village,...","adminCodes1":{"ISO3166_2":"NH"},"countryName":"United States","fcodeName":"populated place","adminName1":"New Hampshire","lat":"42.99064","fcode":"PPL"},{"adminCode1":"NH","lng":"-72.13536","geonameId":5091243,"toponymName":"Pitcher Mountain","countryId":"6252001","fcl":"T","population":0,"countryCode":"US","name":"Pitcher Mountain","fclName":"mountain,hill,rock,... ","adminCodes1":{"ISO3166_2":"NH"},"countryName":"United States","fcodeName":"mountain","adminName1":"New Hampshire","lat":"43.09425","fcode":"MT"},{"adminCode1":"NH","lng":"-72.47731","geonameId":5091366,"toponymName":"Poocham","countryId":"6252001","fcl":"P","population":0,"countryCode":"US","name":"Poocham","fclName":"city, village,...","adminCodes1":{"ISO3166_2":"NH"},"countryName":"United States","fcodeName":"populated place","adminName1":"New Hampshire","lat":"42.95064","fcode":"PPL"},{"adminCode1":"NH","lng":"-72.3212","geonameId":5093401,"toponymName":"Surry","countryId":"6252001","fcl":"P","population":717,"countryCode":"US","name":"Surry","fclName":"city, village,...","adminCodes1":{"ISO3166_2":"NH"},"countryName":"United States","fcodeName":"populated place","adminName1":"New Hampshire","lat":"43.01786","fcode":"PPL"},{"adminCode1":"OH","lng":"-82.11125","geonameId":4508419,"toponymName":"Cheshire","countryId":"6252001","fcl":"P","population":131,"countryCode":"US","name":"Cheshire","fclName":"city, village,...","adminCodes1":{"ISO3166_2":"OH"},"countryName":"United States","fcodeName":"populated place","adminName1":"Ohio","lat":"38.9448","fcode":"PPL"},{"adminCode1":"NH","lng":"-72.19631","geonameId":5233713,"toponymName":"Bellows Falls Canal","countryId":"6252001","fcl":"H","population":0,"countryCode":"US","name":"Bellows Falls Canal","fclName":"stream, lake, ...","adminCodes1":{"ISO3166_2":"NH"},"countryName":"United States","fcodeName":"lake","adminName1":"New Hampshire","lat":"42.78948","fcode":"LK"},{"adminCode1":"NH","lng":"-71.93411","geonameId":5281178,"toponymName":"Island Pond","countryId":"6252001","fcl":"H","population":0,"countryCode":"US","name":"Island Pond","fclName":"stream, lake, ...","adminCodes1":{"ISO3166_2":"NH"},"countryName":"United States","fcodeName":"lake","adminName1":"New Hampshire","lat":"42.73917","fcode":"LK"},{"adminCode1":"NH","lng":"-72.33047","geonameId":5281188,"toponymName":"Town of Surry","countryId":"6252001","fcl":"A","population":723,"countryCode":"US","name":"Town of Surry","fclName":"country, state, region,...","adminCodes1":{"ISO3166_2":"NH"},"countryName":"United States","fcodeName":"third-order administrative division","adminName1":"New Hampshire","lat":"43.0211","fcode":"ADM3"},{"adminCode1":"NH","lng":"-72.43148","geonameId":5085436,"toponymName":"Dickinson Pond","countryId":"6252001","fcl":"H","population":0,"countryCode":"US","name":"Dickinson Pond","fclName":"stream, lake, ...","adminCodes1":{"ISO3166_2":"NH"},"countryName":"United States","fcodeName":"lake","adminName1":"New Hampshire","lat":"42.78536","fcode":"LK"},{"adminCode1":"NH","lng":"-72.00639","geonameId":5085438,"toponymName":"Dinsmore Pond","countryId":"6252001","fcl":"H","population":0,"countryCode":"US","name":"Dinsmore Pond","fclName":"stream, lake, ...","adminCodes1":{"ISO3166_2":"NH"},"countryName":"United States","fcodeName":"lake","adminName1":"New Hampshire","lat":"42.92916","fcode":"LK"},{"adminCode1":"NH","lng":"-71.94515","geonameId":5085441,"toponymName":"Divol Pond","countryId":"6252001","fcl":"H","population":0,"countryCode":"US","name":"Divol Pond","fclName":"stream, lake, ...","adminCodes1":{"ISO3166_2":"NH"},"countryName":"United States","fcodeName":"lake","adminName1":"New Hampshire","lat":"42.72843","fcode":"LK"},{"adminCode1":"NH","lng":"-72.39287","geonameId":5085543,"toponymName":"Drewsville Village Green","countryId":"6252001","fcl":"L","population":0,"countryCode":"US","name":"Drewsville Village Green","fclName":"parks,area, ...","adminCodes1":{"ISO3166_2":"NH"},"countryName":"United States","fcodeName":"park","adminName1":"New Hampshire","lat":"43.12786","fcode":"PRK"},{"adminCode1":"NH","lng":"-72.28481","geonameId":5085545,"toponymName":"Drummer Hill Preserve","countryId":"6252001","fcl":"L","population":0,"countryCode":"US","name":"Drummer Hill Preserve","fclName":"parks,area, ...","adminCodes1":{"ISO3166_2":"NH"},"countryName":"United States","fcodeName":"park","adminName1":"New Hampshire","lat":"42.9573","fcode":"PRK"},{"adminCode1":"NH","lng":"-72.07119","geonameId":5085567,"toponymName":"Dublin Lake Historic District","countryId":"6252001","fcl":"L","population":0,"countryCode":"US","name":"Dublin Lake Historic District","fclName":"parks,area, ...","adminCodes1":{"ISO3166_2":"NH"},"countryName":"United States","fcodeName":"park","adminName1":"New Hampshire","lat":"42.90564","fcode":"PRK"},{"adminCode1":"NH","lng":"-72.0598","geonameId":5085570,"toponymName":"Dublin Village Historic District","countryId":"6252001","fcl":"L","population":0,"countryCode":"US","name":"Dublin Village Historic District","fclName":"parks,area, ...","adminCodes1":{"ISO3166_2":"NH"},"countryName":"United States","fcodeName":"park","adminName1":"New Hampshire","lat":"42.90592","fcode":"PRK"},{"adminCode1":"NH","lng":"-72.07218","geonameId":5085571,"toponymName":"Town of Dublin","countryId":"6252001","fcl":"A","population":1550,"countryCode":"US","name":"Town of Dublin","fclName":"country, state, region,...","adminCodes1":{"ISO3166_2":"NH"},"countryName":"United States","fcodeName":"third-order administrative division","adminName1":"New Hampshire","lat":"42.89438","fcode":"ADM3"},{"adminCode1":"NH","lng":"-72.23286","geonameId":5085572,"toponymName":"Duck Hole","countryId":"6252001","fcl":"H","population":0,"countryCode":"US","name":"Duck Hole","fclName":"stream, lake, ...","adminCodes1":{"ISO3166_2":"NH"},"countryName":"United States","fcodeName":"lake","adminName1":"New Hampshire","lat":"43.10869","fcode":"LK"},{"adminCode1":"NH","lng":"-72.27036","geonameId":5085858,"toponymName":"Ells-Harrison Park","countryId":"6252001","fcl":"L","population":0,"countryCode":"US","name":"Ells-Harrison Park","fclName":"parks,area, ...","adminCodes1":{"ISO3166_2":"NH"},"countryName":"United States","fcodeName":"park","adminName1":"New Hampshire","lat":"42.94647","fcode":"PRK"},{"adminCode1":"NH","lng":"-71.98749","geonameId":5085889,"toponymName":"Emerson Pond","countryId":"6252001","fcl":"H","population":0,"countryCode":"US","name":"Emerson Pond","fclName":"stream, lake, ...","adminCodes1":{"ISO3166_2":"NH"},"countryName":"United States","fcodeName":"lake","adminName1":"New Hampshire","lat":"42.76429","fcode":"LK"},{"adminCode1":"NH","lng":"-72.18314","geonameId":5086038,"toponymName":"Farrar Pond","countryId":"6252001","fcl":"H","population":0,"countryCode":"US","name":"Farrar Pond","fclName":"stream, lake, ...","adminCodes1":{"ISO3166_2":"NH"},"countryName":"United States","fcodeName":"lake","adminName1":"New Hampshire","lat":"42.84147","fcode":"LK"},{"adminCode1":"NH","lng":"-72.15092","geonameId":5086183,"toponymName":"Fitzwilliam Depot","countryId":"6252001","fcl":"P","population":0,"countryCode":"US","name":"Fitzwilliam Depot","fclName":"city, village,...","adminCodes1":{"ISO3166_2":"NH"},"countryName":"United States","fcodeName":"populated place","adminName1":"New Hampshire","lat":"42.76481","fcode":"PPL"},{"adminCode1":"NH","lng":"-72.14752","geonameId":5086184,"toponymName":"Town of Fitzwilliam","countryId":"6252001","fcl":"A","population":2339,"countryCode":"US","name":"Town of Fitzwilliam","fclName":"country, state, region,...","adminCodes1":{"ISO3166_2":"NH"},"countryName":"United States","fcodeName":"third-order administrative division","adminName1":"New Hampshire","lat":"42.75923","fcode":"ADM3"},{"adminCode1":"NH","lng":"-71.99119","geonameId":5086281,"toponymName":"Fosket Wildlife Refuge","countryId":"6252001","fcl":"L","population":0,"countryCode":"US","name":"Fosket Wildlife Refuge","fclName":"parks,area, ...","adminCodes1":{"ISO3166_2":"NH"},"countryName":"United States","fcodeName":"park","adminName1":"New Hampshire","lat":"42.75425","fcode":"PRK"},{"adminCode1":"NH","lng":"-72.02281","geonameId":5086412,"toponymName":"Frost Pond","countryId":"6252001","fcl":"H","population":0,"countryCode":"US","name":"Frost Pond","fclName":"stream, lake, ...","adminCodes1":{"ISO3166_2":"NH"},"countryName":"United States","fcodeName":"lake","adminName1":"New Hampshire","lat":"42.86231","fcode":"LK"},{"adminCode1":"NH","lng":"-72.2787","geonameId":5086421,"toponymName":"Fuller Park","countryId":"6252001","fcl":"L","population":0,"countryCode":"US","name":"Fuller Park","fclName":"parks,area, ...","adminCodes1":{"ISO3166_2":"NH"},"countryName":"United States","fcodeName":"park","adminName1":"New Hampshire","lat":"42.9423","fcode":"PRK"},{"adminCode1":"NH","lng":"-72.02847","geonameId":5086456,"toponymName":"Garfield Pond","countryId":"6252001","fcl":"H","population":0,"countryCode":"US","name":"Garfield Pond","fclName":"stream, lake, ...","adminCodes1":{"ISO3166_2":"NH"},"countryName":"United States","fcodeName":"lake","adminName1":"New Hampshire","lat":"42.85113","fcode":"LK"},{"adminCode1":"NH","lng":"-72.05583","geonameId":5086571,"toponymName":"Gilmore Pond","countryId":"6252001","fcl":"H","population":0,"countryCode":"US","name":"Gilmore Pond","fclName":"stream, lake, ...","adminCodes1":{"ISO3166_2":"NH"},"countryName":"United States","fcodeName":"lake","adminName1":"New Hampshire","lat":"42.80917","fcode":"LK"},{"adminCode1":"NH","lng":"-72.26435","geonameId":5086579,"toponymName":"Town of Gilsum","countryId":"6252001","fcl":"A","population":802,"countryCode":"US","name":"Town of Gilsum","fclName":"country, state, region,...","adminCodes1":{"ISO3166_2":"NH"},"countryName":"United States","fcodeName":"third-order administrative division","adminName1":"New Hampshire","lat":"43.04027","fcode":"ADM3"},{"adminCode1":"NH","lng":"-72.22175","geonameId":5086740,"toponymName":"Gould Pond","countryId":"6252001","fcl":"H","population":0,"countryCode":"US","name":"Gould Pond","fclName":"stream, lake, ...","adminCodes1":{"ISO3166_2":"NH"},"countryName":"United States","fcodeName":"lake","adminName1":"New Hampshire","lat":"43.09869","fcode":"LK"},{"adminCode1":"NH","lng":"-72.41476","geonameId":5086820,"toponymName":"Graves Pond","countryId":"6252001","fcl":"H","population":0,"countryCode":"US","name":"Graves Pond","fclName":"stream, lake, ...","adminCodes1":{"ISO3166_2":"NH"},"countryName":"United States","fcodeName":"lake","adminName1":"New Hampshire","lat":"43.04221","fcode":"LK"},{"adminCode1":"NH","lng":"-71.99891","geonameId":5086830,"toponymName":"Grassy Pond","countryId":"6252001","fcl":"H","population":0,"countryCode":"US","name":"Grassy Pond","fclName":"stream, lake, ...","adminCodes1":{"ISO3166_2":"NH"},"countryName":"United States","fcodeName":"lake","adminName1":"New Hampshire","lat":"42.77175","fcode":"LK"},{"adminCode1":"NH","lng":"-72.24476","geonameId":5087033,"toponymName":"Gustin Pond","countryId":"6252001","fcl":"H","population":0,"countryCode":"US","name":"Gustin Pond","fclName":"stream, lake, ...","adminCodes1":{"ISO3166_2":"NH"},"countryName":"United States","fcodeName":"lake","adminName1":"New Hampshire","lat":"43.14668","fcode":"LK"},{"adminCode1":"NH","lng":"-72.4062","geonameId":5087071,"toponymName":"Hale Pond","countryId":"6252001","fcl":"H","population":0,"countryCode":"US","name":"Hale Pond","fclName":"stream, lake, ...","adminCodes1":{"ISO3166_2":"NH"},"countryName":"United States","fcodeName":"lake","adminName1":"New Hampshire","lat":"42.80647","fcode":"LK"},{"adminCode1":"NH","lng":"-72.0398","geonameId":5087231,"toponymName":"Harrisville Rural District","countryId":"6252001","fcl":"L","population":0,"countryCode":"US","name":"Harrisville Rural District","fclName":"parks,area, ...","adminCodes1":{"ISO3166_2":"NH"},"countryName":"United States","fcodeName":"park","adminName1":"New Hampshire","lat":"42.91536","fcode":"PRK"},{"adminCode1":"NH","lng":"-72.09108","geonameId":5087232,"toponymName":"Town of Harrisville","countryId":"6252001","fcl":"A","population":946,"countryCode":"US","name":"Town of Harrisville","fclName":"country, state, region,...","adminCodes1":{"ISO3166_2":"NH"},"countryName":"United States","fcodeName":"third-order administrative division","adminName1":"New Hampshire","lat":"42.94172","fcode":"ADM3"},{"adminCode1":"NH","lng":"-72.29092","geonameId":5087399,"toponymName":"Hewes Hill","countryId":"6252001","fcl":"T","population":0,"countryCode":"US","name":"Hewes Hill","fclName":"mountain,hill,rock,... ","adminCodes1":{"ISO3166_2":"NH"},"countryName":"United States","fcodeName":"mountain","adminName1":"New Hampshire","lat":"42.82564","fcode":"MT"},{"adminCode1":"NH","lng":"-72.2862","geonameId":5087405,"toponymName":"Hickey-Desilets Park","countryId":"6252001","fcl":"L","population":0,"countryCode":"US","name":"Hickey-Desilets Park","fclName":"parks,area, ...","adminCodes1":{"ISO3166_2":"NH"},"countryName":"United States","fcodeName":"park","adminName1":"New Hampshire","lat":"42.92786","fcode":"PRK"},{"adminCode1":"NH","lng":"-72.10231","geonameId":5087408,"toponymName":"Hidded Pond","countryId":"6252001","fcl":"H","population":0,"countryCode":"US","name":"Hidded Pond","fclName":"stream, lake, ...","adminCodes1":{"ISO3166_2":"NH"},"countryName":"United States","fcodeName":"lake","adminName1":"New Hampshire","lat":"43.11591","fcode":"LK"}]}
