{"totalResultsCount":403,"geonames":[{"adminCode1":"AR","lng":"-91.29397","geonameId":4105506,"toponymName":"Chicot County","countryId":"6252001","fcl":"A","population":11800,"countryCode":"US","name":"Chicot","fclName":"country, state, region,...","adminCodes1":{"ISO3166_2":"AR"},"countryName":"United States","fcodeName":"second-order administrative division","adminName1":"Arkansas","lat":"33.26725","fcode":"ADM2"},{"adminCode1":"AR","lng":"-91.25447","geonameId":4105513,"toponymName":"Lake Chicot","countryId":"6252001","fcl":"H","population":0,"countryCode":"US","name":"Lake Chicot","fclName":"stream, lake, ...","adminCodes1":{"ISO3166_2":"AR"},"countryName":"United States","fcodeName":"lake","adminName1":"Arkansas","lat":"33.285","fcode":"LK"},{"adminCode1":"AR","lng":"-91.19678","geonameId":4117868,"toponymName":"Lake Chicot State Park","countryId":"6252001","fcl":"L","population":0,"countryCode":"US","name":"Lake Chicot State Park","fclName":"parks,area, ...","adminCodes1":{"ISO3166_2":"AR"},"countryName":"United States","fcodeName":"park","adminName1":"Arkansas","lat":"33.37012","fcode":"PRK"},{"adminCode1":"AR","lng":"-91.43595","geonameId":4108090,"toponymName":"Dermott","countryId":"6252001","fcl":"P","population":2720,"countryCode":"US","name":"Dermott","fclName":"city, village,...","adminCodes1":{"ISO3166_2":"AR"},"countryName":"United States","fcodeName":"populated place","adminName1":"Arkansas","lat":"33.52539","fcode":"PPL"},{"adminCode1":"AR","lng":"-91.26206","geonameId":4110100,"toponymName":"Eudora","countryId":"6252001","fcl":"P","population":2102,"countryCode":"US","name":"Eudora","fclName":"city, village,...","adminCodes1":{"ISO3166_2":"AR"},"countryName":"United States","fcodeName":"populated place","adminName1":"Arkansas","lat":"33.10957","fcode":"PPL"},{"adminCode1":"AR","lng":"-91.28178","geonameId":4118121,"toponymName":"Lake Village","countryId":"6252001","fcl":"P","population":2575,"countryCode":"US","name":"Lake Village","fclName":"city, village,...","adminCodes1":{"ISO3166_2":"AR"},"countryName":"United States","fcodeName":"seat of a second-order administrative division","adminName1":"Arkansas","lat":"33.32873","fcode":"PPLA2"},{"adminCode1":"AR","lng":"-91.35928","geonameId":4101123,"toponymName":"Bellaire","countryId":"6252001","fcl":"P","population":0,"countryCode":"US","name":"Bellaire","fclName":"city, village,...","adminCodes1":{"ISO3166_2":"AR"},"countryName":"United States","fcodeName":"populated place","adminName1":"Arkansas","lat":"33.50428","fcode":"PPL"},{"adminCode1":"AR","lng":"-91.17673","geonameId":4122040,"toponymName":"Moon Chute","countryId":"6252001","fcl":"H","population":0,"countryCode":"US","name":"Moon Chute","fclName":"stream, lake, ...","adminCodes1":{"ISO3166_2":"AR"},"countryName":"United States","fcodeName":"lake","adminName1":"Arkansas","lat":"33.15226","fcode":"LK"},{"adminCode1":"AR","lng":"-91.13799","geonameId":4127123,"toponymName":"Lake Port","countryId":"6252001","fcl":"H","population":0,"countryCode":"US","name":"Lake Port","fclName":"stream, lake, ...","adminCodes1":{"ISO3166_2":"AR"},"countryName":"United States","fcodeName":"lake","adminName1":"Arkansas","lat":"33.24229","fcode":"LK"},{"adminCode1":"AR","lng":"-91.1965","geonameId":4128049,"toponymName":"Red Leaf","countryId":"6252001","fcl":"P","population":0,"countryCode":"US","name":"Red Leaf","fclName":"city, village,...","adminCodes1":{"ISO3166_2":"AR"},"countryName":"United States","fcodeName":"populated place","adminName1":"Arkansas","lat":"33.27234","fcode":"PPL"},{"adminCode1":"AR","lng":"-91.34873","geonameId":4129102,"toponymName":"Ross Van Ness","countryId":"6252001","fcl":"P","population":0,"countryCode":"US","name":"Ross Van Ness","fclName":"city, village,...","adminCodes1":{"ISO3166_2":"AR"},"countryName":"United States","fcodeName":"populated place","adminName1":"Arkansas","lat":"33.1104","fcode":"PPL"},{"adminCode1":"AR","lng":"-91.17094","geonameId":4130993,"toponymName":"Shives","countryId":"6252001","fcl":"P","population":0,"countryCode":"US","name":"Shives","fclName":"city, village,...","adminCodes1":{"ISO3166_2":"AR"},"countryName":"United States","fcodeName":"populated place","adminName1":"Arkansas","lat":"33.2754","fcode":"PPL"},{"adminCode1":"AR","lng":"-91.4354","geonameId":4109995,"toponymName":"Empire","countryId":"6252001","fcl":"P","population":0,"countryCode":"US","name":"Empire","fclName":"city, village,...","adminCodes1":{"ISO3166_2":"AR"},"countryName":"United States","fcodeName":"populated place","adminName1":"Arkansas","lat":"33.12207","fcode":"PPL"},{"adminCode1":"AR","lng":"-91.30317","geonameId":4102706,"toponymName":"Bowman","countryId":"6252001","fcl":"P","population":0,"countryCode":"US","name":"Bowman","fclName":"city, village,...","adminCodes1":{"ISO3166_2":"AR"},"countryName":"United States","fcodeName":"populated place","adminName1":"Arkansas","lat":"33.454","fcode":"PPL"},{"adminCode1":"AR","lng":"-91.27928","geonameId":4105339,"toponymName":"Chanticleer","countryId":"6252001","fcl":"P","population":0,"countryCode":"US","name":"Chanticleer","fclName":"city, village,...","adminCodes1":{"ISO3166_2":"AR"},"countryName":"United States","fcodeName":"populated place","adminName1":"Arkansas","lat":"33.30095","fcode":"PPL"},{"adminCode1":"AR","lng":"-91.39956","geonameId":4106705,"toponymName":"Cosgrove","countryId":"6252001","fcl":"P","population":0,"countryCode":"US","name":"Cosgrove","fclName":"city, village,...","adminCodes1":{"ISO3166_2":"AR"},"countryName":"United States","fcodeName":"populated place","adminName1":"Arkansas","lat":"33.30651","fcode":"PPL"},{"adminCode1":"AR","lng":"-91.41262","geonameId":4117799,"toponymName":"Lafourche Lake","countryId":"6252001","fcl":"H","population":0,"countryCode":"US","name":"Lafourche Lake","fclName":"stream, lake, ...","adminCodes1":{"ISO3166_2":"AR"},"countryName":"United States","fcodeName":"lake","adminName1":"Arkansas","lat":"33.05568","fcode":"LK"},{"adminCode1":"AR","lng":"-91.12678","geonameId":4118164,"toponymName":"Lakeport","countryId":"6252001","fcl":"P","population":0,"countryCode":"US","name":"Lakeport","fclName":"city, village,...","adminCodes1":{"ISO3166_2":"AR"},"countryName":"United States","fcodeName":"populated place","adminName1":"Arkansas","lat":"33.22512","fcode":"PPL"},{"adminCode1":"AR","lng":"-91.04538","geonameId":4118612,"toponymName":"Lake Lee","countryId":"6252001","fcl":"H","population":0,"countryCode":"US","name":"Lake Lee","fclName":"stream, lake, ...","adminCodes1":{"ISO3166_2":"AR"},"countryName":"United States","fcodeName":"lake","adminName1":"Arkansas","lat":"33.27956","fcode":"LK"},{"adminCode1":"AR","lng":"-91.20511","geonameId":4120070,"toponymName":"Luna","countryId":"6252001","fcl":"P","population":0,"countryCode":"US","name":"Luna","fclName":"city, village,...","adminCodes1":{"ISO3166_2":"AR"},"countryName":"United States","fcodeName":"populated place","adminName1":"Arkansas","lat":"33.38317","fcode":"PPL"},{"adminCode1":"AR","lng":"-91.31512","geonameId":4120257,"toponymName":"Macon Lake","countryId":"6252001","fcl":"H","population":0,"countryCode":"US","name":"Macon Lake","fclName":"stream, lake, ...","adminCodes1":{"ISO3166_2":"AR"},"countryName":"United States","fcodeName":"lake","adminName1":"Arkansas","lat":"33.43373","fcode":"LK"},{"adminCode1":"AR","lng":"-91.21067","geonameId":4112736,"toponymName":"Grand Lake","countryId":"6252001","fcl":"P","population":0,"countryCode":"US","name":"Grand Lake","fclName":"city, village,...","adminCodes1":{"ISO3166_2":"AR"},"countryName":"United States","fcodeName":"populated place","adminName1":"Arkansas","lat":"33.09234","fcode":"PPL"},{"adminCode1":"AR","lng":"-91.12816","geonameId":4114044,"toponymName":"Harwood","countryId":"6252001","fcl":"P","population":0,"countryCode":"US","name":"Harwood","fclName":"city, village,...","adminCodes1":{"ISO3166_2":"AR"},"countryName":"United States","fcodeName":"populated place","adminName1":"Arkansas","lat":"33.1629","fcode":"PPL"},{"adminCode1":"AR","lng":"-91.12816","geonameId":4115478,"toponymName":"Howard Island","countryId":"6252001","fcl":"L","population":0,"countryCode":"US","name":"Howard Island","fclName":"parks,area, ...","adminCodes1":{"ISO3166_2":"AR"},"countryName":"United States","fcodeName":"area","adminName1":"Arkansas","lat":"33.14651","fcode":"AREA"},{"adminCode1":"AR","lng":"-91.28956","geonameId":4115851,"toponymName":"Indian","countryId":"6252001","fcl":"P","population":0,"countryCode":"US","name":"Indian","fclName":"city, village,...","adminCodes1":{"ISO3166_2":"AR"},"countryName":"United States","fcodeName":"populated place","adminName1":"Arkansas","lat":"33.05262","fcode":"PPL"},{"adminCode1":"AR","lng":"-91.28622","geonameId":4116495,"toponymName":"Jennie","countryId":"6252001","fcl":"P","population":0,"countryCode":"US","name":"Jennie","fclName":"city, village,...","adminCodes1":{"ISO3166_2":"AR"},"countryName":"United States","fcodeName":"populated place","adminName1":"Arkansas","lat":"33.25623","fcode":"PPL"},{"adminCode1":"AR","lng":"-91.254","geonameId":4137277,"toponymName":"Yellow Bayou","countryId":"6252001","fcl":"P","population":0,"countryCode":"US","name":"Yellow Bayou","fclName":"city, village,...","adminCodes1":{"ISO3166_2":"AR"},"countryName":"United States","fcodeName":"populated place","adminName1":"Arkansas","lat":"33.40817","fcode":"PPL"},{"adminCode1":"AR","lng":"-91.2511","geonameId":8502772,"toponymName":"Panther Forest","countryId":"6252001","fcl":"P","population":0,"countryCode":"US","name":"Panther Forest","fclName":"city, village,...","adminCodes1":{"ISO3166_2":"AR"},"countryName":"United States","fcodeName":"populated place","adminName1":"Arkansas","lat":"33.40368","fcode":"PPL"},{"adminCode1":"AR","lng":"-91.28519","geonameId":7170304,"toponymName":"City of Lake Village","countryId":"6252001","fcl":"A","population":2575,"countryCode":"US","name":"City of Lake Village","fclName":"country, state, region,...","adminCodes1":{"ISO3166_2":"AR"},"countryName":"United States","fcodeName":"administrative division","adminName1":"Arkansas","lat":"33.32902","fcode":"ADMD"},{"adminCode1":"AR","lng":"-91.26399","geonameId":7317666,"toponymName":"City of Eudora","countryId":"6252001","fcl":"A","population":2269,"countryCode":"US","name":"City of Eudora","fclName":"country, state, region,...","adminCodes1":{"ISO3166_2":"AR"},"countryName":"United States","fcodeName":"administrative division","adminName1":"Arkansas","lat":"33.11913","fcode":"ADMD"},{"adminCode1":"AR","lng":"-91.43231","geonameId":7317846,"toponymName":"City of Dermott","countryId":"6252001","fcl":"A","population":2316,"countryCode":"US","name":"City of Dermott","fclName":"country, state, region,...","adminCodes1":{"ISO3166_2":"AR"},"countryName":"United States","fcodeName":"administrative division","adminName1":"Arkansas","lat":"33.52694","fcode":"ADMD"},{"adminCode1":"AR","lng":"-91.17567","geonameId":4440261,"toponymName":"Lake Paradise","countryId":"6252001","fcl":"H","population":0,"countryCode":"US","name":"Lake Paradise","fclName":"stream, lake, ...","adminCodes1":{"ISO3166_2":"AR"},"countryName":"United States","fcodeName":"lake","adminName1":"Arkansas","lat":"33.47681","fcode":"LK"},{"adminCode1":"AR","lng":"-91.17928","geonameId":4099195,"toponymName":"Township of Alexander (historical)","countryId":"6252001","fcl":"A","population":0,"countryCode":"US","name":"Alexander (historical) Township","fclName":"country, state, region,...","adminCodes1":{"ISO3166_2":"AR"},"countryName":"United States","fcodeName":"administrative division","adminName1":"Arkansas","lat":"33.21262","fcode":"ADMD"},{"adminCode1":"AR","lng":"-91.09076","geonameId":4099621,"toponymName":"Archer Lake","countryId":"6252001","fcl":"H","population":0,"countryCode":"US","name":"Archer Lake","fclName":"stream, lake, ...","adminCodes1":{"ISO3166_2":"AR"},"countryName":"United States","fcodeName":"lake","adminName1":"Arkansas","lat":"33.40657","fcode":"LK"},{"adminCode1":"AR","lng":"-91.35428","geonameId":4100622,"toponymName":"Township of Bayou Mason (historical)","countryId":"6252001","fcl":"A","population":0,"countryCode":"US","name":"Bayou Mason (historical) Township","fclName":"country, state, region,...","adminCodes1":{"ISO3166_2":"AR"},"countryName":"United States","fcodeName":"administrative division","adminName1":"Arkansas","lat":"33.04457","fcode":"ADMD"},{"adminCode1":"AR","lng":"-91.1488","geonameId":4100882,"toponymName":"Beaver Lake","countryId":"6252001","fcl":"H","population":0,"countryCode":"US","name":"Beaver Lake","fclName":"stream, lake, ...","adminCodes1":{"ISO3166_2":"AR"},"countryName":"United States","fcodeName":"lake","adminName1":"Arkansas","lat":"33.31331","fcode":"LK"},{"adminCode1":"AR","lng":"-91.06816","geonameId":4101104,"toponymName":"Bell Island","countryId":"6252001","fcl":"T","population":0,"countryCode":"US","name":"Bell Island","fclName":"mountain,hill,rock,... ","adminCodes1":{"ISO3166_2":"AR"},"countryName":"United States","fcodeName":"island","adminName1":"Arkansas","lat":"33.26123","fcode":"ISL"},{"adminCode1":"AR","lng":"-91.15727","geonameId":4102282,"toponymName":"Blue Bayou","countryId":"6252001","fcl":"H","population":0,"countryCode":"US","name":"Blue Bayou","fclName":"stream, lake, ...","adminCodes1":{"ISO3166_2":"AR"},"countryName":"United States","fcodeName":"lake","adminName1":"Arkansas","lat":"33.27627","fcode":"LK"},{"adminCode1":"AR","lng":"-91.15907","geonameId":4123061,"toponymName":"Mud Lake","countryId":"6252001","fcl":"H","population":0,"countryCode":"US","name":"Mud Lake","fclName":"stream, lake, ...","adminCodes1":{"ISO3166_2":"AR"},"countryName":"United States","fcodeName":"lake","adminName1":"Arkansas","lat":"33.4319","fcode":"LK"},{"adminCode1":"AR","lng":"-91.23688","geonameId":4123102,"toponymName":"Muddy Lake","countryId":"6252001","fcl":"H","population":0,"countryCode":"US","name":"Muddy Lake","fclName":"stream, lake, ...","adminCodes1":{"ISO3166_2":"AR"},"countryName":"United States","fcodeName":"lake","adminName1":"Arkansas","lat":"33.32109","fcode":"LK"},{"adminCode1":"AR","lng":"-91.21678","geonameId":4124279,"toponymName":"Island Number 80","countryId":"6252001","fcl":"L","population":0,"countryCode":"US","name":"Island Number 80","fclName":"parks,area, ...","adminCodes1":{"ISO3166_2":"AR"},"countryName":"United States","fcodeName":"area","adminName1":"Arkansas","lat":"33.51761","fcode":"AREA"},{"adminCode1":"AR","lng":"-91.25428","geonameId":4124631,"toponymName":"Township of Oden (historical)","countryId":"6252001","fcl":"A","population":0,"countryCode":"US","name":"Oden (historical) Township","fclName":"country, state, region,...","adminCodes1":{"ISO3166_2":"AR"},"countryName":"United States","fcodeName":"administrative division","adminName1":"Arkansas","lat":"33.40845","fcode":"ADMD"},{"adminCode1":"AR","lng":"-91.19152","geonameId":4125032,"toponymName":"Otter Bayou","countryId":"6252001","fcl":"H","population":0,"countryCode":"US","name":"Otter Bayou","fclName":"stream, lake, ...","adminCodes1":{"ISO3166_2":"AR"},"countryName":"United States","fcodeName":"lake","adminName1":"Arkansas","lat":"33.19131","fcode":"LK"},{"adminCode1":"AR","lng":"-91.1869","geonameId":4125042,"toponymName":"Otter Lake","countryId":"6252001","fcl":"H","population":0,"countryCode":"US","name":"Otter Lake","fclName":"stream, lake, ...","adminCodes1":{"ISO3166_2":"AR"},"countryName":"United States","fcodeName":"lake","adminName1":"Arkansas","lat":"33.20169","fcode":"LK"},{"adminCode1":"AR","lng":"-91.27419","geonameId":4126565,"toponymName":"Township of Planters","countryId":"6252001","fcl":"A","population":0,"countryCode":"US","name":"Planters Township","fclName":"country, state, region,...","adminCodes1":{"ISO3166_2":"AR"},"countryName":"United States","fcodeName":"third-order administrative division","adminName1":"Arkansas","lat":"33.13329","fcode":"ADM3"},{"adminCode1":"AR","lng":"-91.27373","geonameId":4127785,"toponymName":"Township of Railroad (historical)","countryId":"6252001","fcl":"A","population":0,"countryCode":"US","name":"Railroad (historical) Township","fclName":"country, state, region,...","adminCodes1":{"ISO3166_2":"AR"},"countryName":"United States","fcodeName":"administrative division","adminName1":"Arkansas","lat":"33.47234","fcode":"ADMD"},{"adminCode1":"AR","lng":"-91.23817","geonameId":4129252,"toponymName":"Rowdy Bend Towhead","countryId":"6252001","fcl":"L","population":0,"countryCode":"US","name":"Rowdy Bend Towhead","fclName":"parks,area, ...","adminCodes1":{"ISO3166_2":"AR"},"countryName":"United States","fcodeName":"area","adminName1":"Arkansas","lat":"33.45067","fcode":"AREA"},{"adminCode1":"AR","lng":"-91.20085","geonameId":4131547,"toponymName":"Snag Lake","countryId":"6252001","fcl":"H","population":0,"countryCode":"US","name":"Snag Lake","fclName":"stream, lake, ...","adminCodes1":{"ISO3166_2":"AR"},"countryName":"United States","fcodeName":"lake","adminName1":"Arkansas","lat":"33.00633","fcode":"LK"},{"adminCode1":"AR","lng":"-91.14312","geonameId":4109144,"toponymName":"Dry Lake","countryId":"6252001","fcl":"H","population":0,"countryCode":"US","name":"Dry Lake","fclName":"stream, lake, ...","adminCodes1":{"ISO3166_2":"AR"},"countryName":"United States","fcodeName":"lake","adminName1":"Arkansas","lat":"33.43224","fcode":"LK"},{"adminCode1":"AR","lng":"-91.26706","geonameId":4109176,"toponymName":"Duck Lake","countryId":"6252001","fcl":"H","population":0,"countryCode":"US","name":"Duck Lake","fclName":"stream, lake, ...","adminCodes1":{"ISO3166_2":"AR"},"countryName":"United States","fcodeName":"lake","adminName1":"Arkansas","lat":"33.449","fcode":"LK"},{"adminCode1":"AR","lng":"-91.20931","geonameId":4110111,"toponymName":"Eunice Chute","countryId":"6252001","fcl":"H","population":0,"countryCode":"US","name":"Eunice Chute","fclName":"stream, lake, ...","adminCodes1":{"ISO3166_2":"AR"},"countryName":"United States","fcodeName":"lake","adminName1":"Arkansas","lat":"33.49222","fcode":"LK"},{"adminCode1":"AR","lng":"-91.42512","geonameId":4111892,"toponymName":"Township of Gaines (historical)","countryId":"6252001","fcl":"A","population":0,"countryCode":"US","name":"Gaines (historical) Township","fclName":"country, state, region,...","adminCodes1":{"ISO3166_2":"AR"},"countryName":"United States","fcodeName":"administrative division","adminName1":"Arkansas","lat":"33.30012","fcode":"ADMD"},{"adminCode1":"AR","lng":"-91.21632","geonameId":4132947,"toponymName":"Swan Pond","countryId":"6252001","fcl":"H","population":0,"countryCode":"US","name":"Swan Pond","fclName":"stream, lake, ...","adminCodes1":{"ISO3166_2":"AR"},"countryName":"United States","fcodeName":"lake","adminName1":"Arkansas","lat":"33.34361","fcode":"LK"},{"adminCode1":"AR","lng":"-91.18979","geonameId":4136086,"toponymName":"Whiskey Chute","countryId":"6252001","fcl":"H","population":0,"countryCode":"US","name":"Whiskey Chute","fclName":"stream, lake, ...","adminCodes1":{"ISO3166_2":"AR"},"countryName":"United States","fcodeName":"lake","adminName1":"Arkansas","lat":"33.31133","fcode":"LK"},{"adminCode1":"AR","lng":"-91.17759","geonameId":4136656,"toponymName":"Willow Lake","countryId":"6252001","fcl":"H","population":0,"countryCode":"US","name":"Willow Lake","fclName":"stream, lake, ...","adminCodes1":{"ISO3166_2":"AR"},"countryName":"United States","fcodeName":"lake","adminName1":"Arkansas","lat":"33.04697","fcode":"LK"},{"adminCode1":"AR","lng":"-91.1875","geonameId":4136657,"toponymName":"Willow Lake","countryId":"6252001","fcl":"H","population":0,"countryCode":"US","name":"Willow Lake","fclName":"stream, lake, ...","adminCodes1":{"ISO3166_2":"AR"},"countryName":"United States","fcodeName":"lake","adminName1":"Arkansas","lat":"33.42586","fcode":"LK"},{"adminCode1":"AR","lng":"-91.23911","geonameId":4102487,"toponymName":"Lake Boggy Bayou","countryId":"6252001","fcl":"H","population":0,"countryCode":"US","name":"Lake Boggy Bayou","fclName":"stream, lake, ...","adminCodes1":{"ISO3166_2":"AR"},"countryName":"United States","fcodeName":"lake","adminName1":"Arkansas","lat":"33.4805","fcode":"LK"},{"adminCode1":"AR","lng":"-91.35172","geonameId":4102701,"toponymName":"Township of Bowie","countryId":"6252001","fcl":"A","population":0,"countryCode":"US","name":"Bowie Township","fclName":"country, state, region,...","adminCodes1":{"ISO3166_2":"AR"},"countryName":"United States","fcodeName":"third-order administrative division","adminName1":"Arkansas","lat":"33.48888","fcode":"ADM3"},{"adminCode1":"AR","lng":"-91.29499","geonameId":4104620,"toponymName":"Township of Carlton","countryId":"6252001","fcl":"A","population":0,"countryCode":"US","name":"Carlton Township","fclName":"country, state, region,...","adminCodes1":{"ISO3166_2":"AR"},"countryName":"United States","fcodeName":"third-order administrative division","adminName1":"Arkansas","lat":"33.34035","fcode":"ADM3"},{"adminCode1":"AR","lng":"-91.12233","geonameId":4104632,"toponymName":"Carolina Chute","countryId":"6252001","fcl":"H","population":0,"countryCode":"US","name":"Carolina Chute","fclName":"stream, lake, ...","adminCodes1":{"ISO3166_2":"AR"},"countryName":"United States","fcodeName":"lake","adminName1":"Arkansas","lat":"33.05179","fcode":"LK"},{"adminCode1":"AR","lng":"-91.13678","geonameId":4106154,"toponymName":"Cocklebur Lake","countryId":"6252001","fcl":"H","population":0,"countryCode":"US","name":"Cocklebur Lake","fclName":"stream, lake, ...","adminCodes1":{"ISO3166_2":"AR"},"countryName":"United States","fcodeName":"lake","adminName1":"Arkansas","lat":"33.43789","fcode":"LK"},{"adminCode1":"AR","lng":"-91.11844","geonameId":4106682,"toponymName":"Cornfield Chute","countryId":"6252001","fcl":"H","population":0,"countryCode":"US","name":"Cornfield Chute","fclName":"stream, lake, ...","adminCodes1":{"ISO3166_2":"AR"},"countryName":"United States","fcodeName":"lake","adminName1":"Arkansas","lat":"33.1516","fcode":"LK"},{"adminCode1":"AR","lng":"-91.14666","geonameId":4106749,"toponymName":"Cottonwood Chute","countryId":"6252001","fcl":"H","population":0,"countryCode":"US","name":"Cottonwood Chute","fclName":"stream, lake, ...","adminCodes1":{"ISO3166_2":"AR"},"countryName":"United States","fcodeName":"lake","adminName1":"Arkansas","lat":"33.29978","fcode":"LK"},{"adminCode1":"AR","lng":"-91.24178","geonameId":4117801,"toponymName":"Township of Lake (historical)","countryId":"6252001","fcl":"A","population":0,"countryCode":"US","name":"Lake (historical) Township","fclName":"country, state, region,...","adminCodes1":{"ISO3166_2":"AR"},"countryName":"United States","fcodeName":"administrative division","adminName1":"Arkansas","lat":"33.32512","fcode":"ADMD"},{"adminCode1":"AR","lng":"-91.16152","geonameId":4118651,"toponymName":"Leland Chute","countryId":"6252001","fcl":"H","population":0,"countryCode":"US","name":"Leland Chute","fclName":"stream, lake, ...","adminCodes1":{"ISO3166_2":"AR"},"countryName":"United States","fcodeName":"lake","adminName1":"Arkansas","lat":"33.35678","fcode":"LK"},{"adminCode1":"AR","lng":"-91.16678","geonameId":4119288,"toponymName":"Little Island","countryId":"6252001","fcl":"L","population":0,"countryCode":"US","name":"Little Island","fclName":"parks,area, ...","adminCodes1":{"ISO3166_2":"AR"},"countryName":"United States","fcodeName":"area","adminName1":"Arkansas","lat":"33.47456","fcode":"AREA"},{"adminCode1":"AR","lng":"-91.15831","geonameId":4119742,"toponymName":"Long Lake","countryId":"6252001","fcl":"H","population":0,"countryCode":"US","name":"Long Lake","fclName":"stream, lake, ...","adminCodes1":{"ISO3166_2":"AR"},"countryName":"United States","fcodeName":"lake","adminName1":"Arkansas","lat":"33.43558","fcode":"LK"},{"adminCode1":"AR","lng":"-91.21678","geonameId":4119917,"toponymName":"Township of Louisiana (historical)","countryId":"6252001","fcl":"A","population":0,"countryCode":"US","name":"Louisiana (historical) Township","fclName":"country, state, region,...","adminCodes1":{"ISO3166_2":"AR"},"countryName":"United States","fcodeName":"administrative division","adminName1":"Arkansas","lat":"33.08346","fcode":"ADMD"},{"adminCode1":"AR","lng":"-91.37928","geonameId":4120735,"toponymName":"Township of Masona (historical)","countryId":"6252001","fcl":"A","population":0,"countryCode":"US","name":"Masona (historical) Township","fclName":"country, state, region,...","adminCodes1":{"ISO3166_2":"AR"},"countryName":"United States","fcodeName":"administrative division","adminName1":"Arkansas","lat":"33.21679","fcode":"ADMD"},{"adminCode1":"AR","lng":"-91.17511","geonameId":4120948,"toponymName":"Township of McConnell (historical)","countryId":"6252001","fcl":"A","population":0,"countryCode":"US","name":"Township of McConnell (historical)","fclName":"country, state, region,...","adminCodes1":{"ISO3166_2":"AR"},"countryName":"United States","fcodeName":"administrative division","adminName1":"Arkansas","lat":"33.30428","fcode":"ADMD"},{"adminCode1":"AR","lng":"-91.20401","geonameId":4112735,"toponymName":"Grand Lake","countryId":"6252001","fcl":"H","population":0,"countryCode":"US","name":"Grand Lake","fclName":"stream, lake, ...","adminCodes1":{"ISO3166_2":"AR"},"countryName":"United States","fcodeName":"lake","adminName1":"Arkansas","lat":"33.06711","fcode":"LK"},{"adminCode1":"AR","lng":"-91.24567","geonameId":4112821,"toponymName":"Grassy Lake","countryId":"6252001","fcl":"H","population":0,"countryCode":"US","name":"Grassy Lake","fclName":"stream, lake, ...","adminCodes1":{"ISO3166_2":"AR"},"countryName":"United States","fcodeName":"lake","adminName1":"Arkansas","lat":"33.31901","fcode":"LK"},{"adminCode1":"AR","lng":"-91.15428","geonameId":4116152,"toponymName":"Island Number 84","countryId":"6252001","fcl":"L","population":0,"countryCode":"US","name":"Island Number 84","fclName":"parks,area, ...","adminCodes1":{"ISO3166_2":"AR"},"countryName":"United States","fcodeName":"area","adminName1":"Arkansas","lat":"33.31678","fcode":"AREA"},{"adminCode1":"AR","lng":"-91.10705","geonameId":4116153,"toponymName":"Island Number 86","countryId":"6252001","fcl":"L","population":0,"countryCode":"US","name":"Island Number 86","fclName":"parks,area, ...","adminCodes1":{"ISO3166_2":"AR"},"countryName":"United States","fcodeName":"area","adminName1":"Arkansas","lat":"33.16818","fcode":"AREA"},{"adminCode1":"AR","lng":"-91.16122","geonameId":4116154,"toponymName":"Island Number 87","countryId":"6252001","fcl":"L","population":0,"countryCode":"US","name":"Island Number 87","fclName":"parks,area, ...","adminCodes1":{"ISO3166_2":"AR"},"countryName":"United States","fcodeName":"area","adminName1":"Arkansas","lat":"33.15707","fcode":"AREA"},{"adminCode1":"AR","lng":"-91.18122","geonameId":4116155,"toponymName":"Island Number 89","countryId":"6252001","fcl":"L","population":0,"countryCode":"US","name":"Island Number 89","fclName":"parks,area, ...","adminCodes1":{"ISO3166_2":"AR"},"countryName":"United States","fcodeName":"area","adminName1":"Arkansas","lat":"33.01846","fcode":"AREA"},{"adminCode1":"AR","lng":"-91.2865","geonameId":4105503,"toponymName":"Chicot","countryId":"6252001","fcl":"P","population":0,"countryCode":"US","name":"Chicot","fclName":"city, village,...","adminCodes1":{"ISO3166_2":"AR"},"countryName":"United States","fcodeName":"populated place","adminName1":"Arkansas","lat":"33.20568","fcode":"PPL"},{"adminCode1":"LA","lng":"-92.28346","geonameId":4319800,"toponymName":"Chicot State Park","countryId":"6252001","fcl":"L","population":0,"countryCode":"US","name":"Chicot State Park","fclName":"parks,area, ...","adminCodes1":{"ISO3166_2":"LA"},"countryName":"United States","fcodeName":"park","adminName1":"Louisiana","lat":"30.79042","fcode":"PRK"},{"adminCode1":"AR","lng":"-91.33928","geonameId":4099884,"toponymName":"Ashton","countryId":"6252001","fcl":"P","population":0,"countryCode":"US","name":"Ashton","fclName":"city, village,...","adminCodes1":{"ISO3166_2":"AR"},"countryName":"United States","fcodeName":"populated place","adminName1":"Arkansas","lat":"33.31289","fcode":"PPL"},{"adminCode1":"AR","lng":"-91.42887","geonameId":4108084,"toponymName":"Dermott High School","countryId":"6252001","fcl":"S","population":0,"countryCode":"US","name":"Dermott High School","fclName":"spot, building, farm","adminCodes1":{"ISO3166_2":"AR"},"countryName":"United States","fcodeName":"school","adminName1":"Arkansas","lat":"33.52304","fcode":"SCH"},{"adminCode1":"AR","lng":"-91.4417","geonameId":4108087,"toponymName":"Dermott Municipal Airport","countryId":"6252001","fcl":"S","population":0,"countryCode":"US","name":"Dermott Municipal Airport","fclName":"spot, building, farm","adminCodes1":{"ISO3166_2":"AR"},"countryName":"United States","fcodeName":"airport","adminName1":"Arkansas","lat":"33.48799","fcode":"AIRP"},{"adminCode1":"AR","lng":"-91.26178","geonameId":4110102,"toponymName":"Eudora City Hall","countryId":"6252001","fcl":"S","population":0,"countryCode":"US","name":"Eudora City Hall","fclName":"spot, building, farm","adminCodes1":{"ISO3166_2":"AR"},"countryName":"United States","fcodeName":"building(s)","adminName1":"Arkansas","lat":"33.10845","fcode":"BLDG"},{"adminCode1":"AR","lng":"-91.22456","geonameId":4132597,"toponymName":"Stuart Island","countryId":"6252001","fcl":"T","population":0,"countryCode":"US","name":"Stuart Island","fclName":"mountain,hill,rock,... ","adminCodes1":{"ISO3166_2":"AR"},"countryName":"United States","fcodeName":"island","adminName1":"Arkansas","lat":"33.36623","fcode":"ISL"},{"adminCode1":"AR","lng":"-91.18067","geonameId":4132852,"toponymName":"Sunnyside","countryId":"6252001","fcl":"P","population":0,"countryCode":"US","name":"Sunnyside","fclName":"city, village,...","adminCodes1":{"ISO3166_2":"AR"},"countryName":"United States","fcodeName":"populated place","adminName1":"Arkansas","lat":"33.29456","fcode":"PPL"},{"adminCode1":"AR","lng":"-91.37984","geonameId":4102470,"toponymName":"Boeuf","countryId":"6252001","fcl":"P","population":0,"countryCode":"US","name":"Boeuf","fclName":"city, village,...","adminCodes1":{"ISO3166_2":"AR"},"countryName":"United States","fcodeName":"populated place","adminName1":"Arkansas","lat":"33.19873","fcode":"PPL"},{"adminCode1":"AR","lng":"-91.13483","geonameId":4106968,"toponymName":"Cracraft Towhead","countryId":"6252001","fcl":"T","population":0,"countryCode":"US","name":"Cracraft Towhead","fclName":"mountain,hill,rock,... ","adminCodes1":{"ISO3166_2":"AR"},"countryName":"United States","fcodeName":"island","adminName1":"Arkansas","lat":"33.05012","fcode":"ISL"},{"adminCode1":"AR","lng":"-91.38512","geonameId":4117164,"toponymName":"KVSA-AM (McGehee)","countryId":"6252001","fcl":"S","population":0,"countryCode":"US","name":"KVSA-AM (McGehee)","fclName":"spot, building, farm","adminCodes1":{"ISO3166_2":"AR"},"countryName":"United States","fcodeName":"tower","adminName1":"Arkansas","lat":"33.56094","fcode":"TOWR"},{"adminCode1":"AR","lng":"-91.31565","geonameId":4118123,"toponymName":"Lake Village Municipal Airport","countryId":"6252001","fcl":"S","population":0,"countryCode":"US","name":"Lake Village Municipal Airport","fclName":"spot, building, farm","adminCodes1":{"ISO3166_2":"AR"},"countryName":"United States","fcodeName":"airport","adminName1":"Arkansas","lat":"33.34246","fcode":"AIRP"},{"adminCode1":"AR","lng":"-91.27067","geonameId":4118160,"toponymName":"Lakehall","countryId":"6252001","fcl":"P","population":0,"countryCode":"US","name":"Lakehall","fclName":"city, village,...","adminCodes1":{"ISO3166_2":"AR"},"countryName":"United States","fcodeName":"populated place","adminName1":"Arkansas","lat":"33.32845","fcode":"PPL"},{"adminCode1":"AR","lng":"-91.32456","geonameId":4120258,"toponymName":"Macon Lake","countryId":"6252001","fcl":"P","population":0,"countryCode":"US","name":"Macon Lake","fclName":"city, village,...","adminCodes1":{"ISO3166_2":"AR"},"countryName":"United States","fcodeName":"populated place","adminName1":"Arkansas","lat":"33.42873","fcode":"PPL"},{"adminCode1":"AR","lng":"-91.30845","geonameId":4121151,"toponymName":"McMillan Corner","countryId":"6252001","fcl":"P","population":0,"countryCode":"US","name":"McMillan Corner","fclName":"city, village,...","adminCodes1":{"ISO3166_2":"AR"},"countryName":"United States","fcodeName":"populated place","adminName1":"Arkansas","lat":"33.38706","fcode":"PPL"},{"adminCode1":"AR","lng":"-91.35623","geonameId":4115665,"toponymName":"Hurds","countryId":"6252001","fcl":"P","population":0,"countryCode":"US","name":"Hurds","fclName":"city, village,...","adminCodes1":{"ISO3166_2":"AR"},"countryName":"United States","fcodeName":"populated place","adminName1":"Arkansas","lat":"33.534","fcode":"PPL"},{"adminCode1":"AR","lng":"-91.33815","geonameId":8096383,"toponymName":"Ward's Airport","countryId":"6252001","fcl":"S","population":0,"countryCode":"US","name":"Ward's Airport","fclName":"spot, building, farm","adminCodes1":{"ISO3166_2":"AR"},"countryName":"United States","fcodeName":"airport","adminName1":"Arkansas","lat":"33.04983","fcode":"AIRP"},{"adminCode1":"LA","lng":"-92.35096","geonameId":4315777,"toponymName":"Bayou Chicot","countryId":"6252001","fcl":"P","population":0,"countryCode":"US","name":"Bayou Chicot","fclName":"city, village,...","adminCodes1":{"ISO3166_2":"LA"},"countryName":"United States","fcodeName":"populated place","adminName1":"Louisiana","lat":"30.81714","fcode":"PPL"},{"adminCode1":"LA","lng":"-91.46019","geonameId":4319814,"toponymName":"Crossing Cove","countryId":"6252001","fcl":"H","population":0,"countryCode":"US","name":"Crossing Cove","fclName":"stream, lake, ...","adminCodes1":{"ISO3166_2":"LA"},"countryName":"United States","fcodeName":"lake","adminName1":"Louisiana","lat":"30.06822","fcode":"LK"},{"adminCode1":"AR","lng":"-91.07511","geonameId":4126964,"toponymName":"Point Chicot","countryId":"6252001","fcl":"T","population":0,"countryCode":"US","name":"Point Chicot","fclName":"mountain,hill,rock,... ","adminCodes1":{"ISO3166_2":"AR"},"countryName":"United States","fcodeName":"cape","adminName1":"Arkansas","lat":"33.44456","fcode":"CAPE"},{"adminCode1":"AR","lng":"-91.25983","geonameId":4105508,"toponymName":"Chicot Junction","countryId":"6252001","fcl":"P","population":0,"countryCode":"US","name":"Chicot Junction","fclName":"city, village,...","adminCodes1":{"ISO3166_2":"AR"},"countryName":"United States","fcodeName":"populated place","adminName1":"Arkansas","lat":"33.2029","fcode":"PPL"},{"adminCode1":"LA","lng":"-89.2656","geonameId":4319794,"toponymName":"Chicot Island","countryId":"6252001","fcl":"T","population":0,"countryCode":"US","name":"Chicot Island","fclName":"mountain,hill,rock,... ","adminCodes1":{"ISO3166_2":"LA"},"countryName":"United States","fcodeName":"island","adminName1":"Louisiana","lat":"29.7352","fcode":"ISL"},{"adminCode1":"AR","lng":"-91.09289","geonameId":4099383,"toponymName":"American Cutoff Revetment","countryId":"6252001","fcl":"T","population":0,"countryCode":"US","name":"American Cutoff Revetment","fclName":"mountain,hill,rock,... ","adminCodes1":{"ISO3166_2":"AR"},"countryName":"United States","fcodeName":"levee","adminName1":"Arkansas","lat":"33.2454","fcode":"LEV"},{"adminCode1":"AR","lng":"-91.07844","geonameId":4099620,"toponymName":"Archer Island","countryId":"6252001","fcl":"T","population":0,"countryCode":"US","name":"Archer Island","fclName":"mountain,hill,rock,... ","adminCodes1":{"ISO3166_2":"AR"},"countryName":"United States","fcodeName":"island","adminName1":"Arkansas","lat":"33.43039","fcode":"ISL"}]}
