{"totalResultsCount":39,"geonames":[{"adminCode1":"GA","lng":"-85.29079","geonameId":4187696,"toponymName":"Chickamauga","countryId":"6252001","fcl":"P","population":3107,"countryCode":"US","name":"Chickamauga","fclName":"city, village,...","adminCodes1":{"ISO3166_2":"GA"},"countryName":"United States","fcodeName":"populated place","adminName1":"Georgia","lat":"34.87119","fcode":"PPL"},{"adminCode1":"GA","lng":"-85.25401","geonameId":4187705,"toponymName":"Chickamauga and Chattanooga National Military Park","countryId":"6252001","fcl":"L","population":0,"countryCode":"US","name":"Chickamauga and Chattanooga National Military Park","fclName":"parks,area, ...","adminCodes1":{"ISO3166_2":"GA"},"countryName":"United States","fcodeName":"park","adminName1":"Georgia","lat":"34.91897","fcode":"PRK"},{"adminCode1":"GA","lng":"-85.28901","geonameId":7317788,"toponymName":"City of Chickamauga","countryId":"6252001","fcl":"A","population":3101,"countryCode":"US","name":"City of Chickamauga","fclName":"country, state, region,...","adminCodes1":{"ISO3166_2":"GA"},"countryName":"United States","fcodeName":"third-order administrative division","adminName1":"Georgia","lat":"34.8744","fcode":"ADM3"},{"adminCode1":"TN","lng":"-85.21996","geonameId":4613237,"toponymName":"Chickamauga Dam Day Use Area","countryId":"6252001","fcl":"L","population":0,"countryCode":"US","name":"Chickamauga Dam Day Use Area","fclName":"parks,area, ...","adminCodes1":{"ISO3166_2":"TN"},"countryName":"United States","fcodeName":"park","adminName1":"Tennessee","lat":"35.09646","fcode":"PRK"},{"adminCode1":"TN","lng":"-85.36857","geonameId":4613247,"toponymName":"Chickamauga and Chattanooga National Military Park","countryId":"6252001","fcl":"L","population":0,"countryCode":"US","name":"Chickamauga and Chattanooga National Military Park","fclName":"parks,area, ...","adminCodes1":{"ISO3166_2":"TN"},"countryName":"United States","fcodeName":"park","adminName1":"Tennessee","lat":"34.99008","fcode":"PRK"},{"adminCode1":"TN","lng":"-84.98885","geonameId":4613242,"toponymName":"Chickamauga Lake","countryId":"6252001","fcl":"H","population":0,"countryCode":"US","name":"Chickamauga Lake","fclName":"stream, lake, ...","adminCodes1":{"ISO3166_2":"TN"},"countryName":"United States","fcodeName":"reservoir(s)","adminName1":"Tennessee","lat":"35.40315","fcode":"RSV"},{"adminCode1":"GA","lng":"-85.29357","geonameId":4194861,"toponymName":"First Baptist Church of Chickamauga","countryId":"6252001","fcl":"S","population":0,"countryCode":"US","name":"First Baptist Church of Chickamauga","fclName":"spot, building, farm","adminCodes1":{"ISO3166_2":"GA"},"countryName":"United States","fcodeName":"church","adminName1":"Georgia","lat":"34.87535","fcode":"CH"},{"adminCode1":"TN","lng":"-85.1919","geonameId":4657175,"toponymName":"Shepherd","countryId":"6252001","fcl":"P","population":0,"countryCode":"US","name":"Shepherd","fclName":"city, village,...","adminCodes1":{"ISO3166_2":"TN"},"countryName":"United States","fcodeName":"populated place","adminName1":"Tennessee","lat":"35.03896","fcode":"PPL"},{"adminCode1":"TN","lng":"-85.21912","geonameId":4613253,"toponymName":"Chickamauga Island (historical)","countryId":"6252001","fcl":"T","population":0,"countryCode":"US","name":"Chickamauga Island (historical)","fclName":"mountain,hill,rock,... ","adminCodes1":{"ISO3166_2":"TN"},"countryName":"United States","fcodeName":"island","adminName1":"Tennessee","lat":"35.10452","fcode":"ISL"},{"adminCode1":"TN","lng":"-85.2294","geonameId":4613236,"toponymName":"Chickamauga Dam","countryId":"6252001","fcl":"S","population":0,"countryCode":"US","name":"Chickamauga Dam","fclName":"spot, building, farm","adminCodes1":{"ISO3166_2":"TN"},"countryName":"United States","fcodeName":"dam","adminName1":"Tennessee","lat":"35.10396","fcode":"DAM"},{"adminCode1":"TN","lng":"-85.08329","geonameId":4613244,"toponymName":"Chickamauga Reservoir Airport","countryId":"6252001","fcl":"S","population":0,"countryCode":"US","name":"Chickamauga Reservoir Airport","fclName":"spot, building, farm","adminCodes1":{"ISO3166_2":"TN"},"countryName":"United States","fcodeName":"airport","adminName1":"Tennessee","lat":"35.30007","fcode":"AIRP"},{"adminCode1":"GA","lng":"-85.11828","geonameId":4205999,"toponymName":"Little Chickamauga Creek","countryId":"6252001","fcl":"H","population":0,"countryCode":"US","name":"Little Chickamauga Creek","fclName":"stream, lake, ...","adminCodes1":{"ISO3166_2":"GA"},"countryName":"United States","fcodeName":"stream","adminName1":"Georgia","lat":"34.91341","fcode":"STM"},{"adminCode1":"GA","lng":"-85.28862","geonameId":4187703,"toponymName":"Chickamauga Post Office","countryId":"6252001","fcl":"S","population":0,"countryCode":"US","name":"Chickamauga Post Office","fclName":"spot, building, farm","adminCodes1":{"ISO3166_2":"GA"},"countryName":"United States","fcodeName":"post office","adminName1":"Georgia","lat":"34.87204","fcode":"PO"},{"adminCode1":"TN","lng":"-85.2319","geonameId":4645844,"toponymName":"North Chickamauga Creek","countryId":"6252001","fcl":"H","population":0,"countryCode":"US","name":"North Chickamauga Creek","fclName":"stream, lake, ...","adminCodes1":{"ISO3166_2":"TN"},"countryName":"United States","fcodeName":"stream","adminName1":"Tennessee","lat":"35.10674","fcode":"STM"},{"adminCode1":"OH","lng":"-82.21181","geonameId":4508475,"toponymName":"Chickamauga Creek","countryId":"6252001","fcl":"H","population":0,"countryCode":"US","name":"Chickamauga Creek","fclName":"stream, lake, ...","adminCodes1":{"ISO3166_2":"OH"},"countryName":"United States","fcodeName":"stream","adminName1":"Ohio","lat":"38.80175","fcode":"STM"},{"adminCode1":"GA","lng":"-85.20468","geonameId":4215183,"toponymName":"Peavine Ridge","countryId":"6252001","fcl":"T","population":0,"countryCode":"US","name":"Peavine Ridge","fclName":"mountain,hill,rock,... ","adminCodes1":{"ISO3166_2":"GA"},"countryName":"United States","fcodeName":"ridge(s)","adminName1":"Georgia","lat":"34.80452","fcode":"RDGE"},{"adminCode1":"TN","lng":"-85.27135","geonameId":4658851,"toponymName":"South Chickamauga Shoals","countryId":"6252001","fcl":"T","population":0,"countryCode":"US","name":"South Chickamauga Shoals","fclName":"mountain,hill,rock,... ","adminCodes1":{"ISO3166_2":"TN"},"countryName":"United States","fcodeName":"bar","adminName1":"Tennessee","lat":"35.08868","fcode":"BAR"},{"adminCode1":"TN","lng":"-85.22468","geonameId":4613240,"toponymName":"Chickamauga Gulch","countryId":"6252001","fcl":"T","population":0,"countryCode":"US","name":"Chickamauga Gulch","fclName":"mountain,hill,rock,... ","adminCodes1":{"ISO3166_2":"TN"},"countryName":"United States","fcodeName":"valley","adminName1":"Tennessee","lat":"35.22451","fcode":"VAL"},{"adminCode1":"TN","lng":"-85.21107","geonameId":4613246,"toponymName":"Chickamauga Shoals","countryId":"6252001","fcl":"T","population":0,"countryCode":"US","name":"Chickamauga Shoals","fclName":"mountain,hill,rock,... ","adminCodes1":{"ISO3166_2":"TN"},"countryName":"United States","fcodeName":"bar","adminName1":"Tennessee","lat":"35.10591","fcode":"BAR"},{"adminCode1":"GA","lng":"-85.08189","geonameId":4192589,"toponymName":"East Chickamauga Creek","countryId":"6252001","fcl":"H","population":0,"countryCode":"US","name":"East Chickamauga Creek","fclName":"stream, lake, ...","adminCodes1":{"ISO3166_2":"GA"},"countryName":"United States","fcodeName":"stream","adminName1":"Georgia","lat":"34.90535","fcode":"STM"},{"adminCode1":"TN","lng":"-85.18245","geonameId":4613238,"toponymName":"Chickamauga Elementary School","countryId":"6252001","fcl":"S","population":0,"countryCode":"US","name":"Chickamauga Elementary School","fclName":"spot, building, farm","adminCodes1":{"ISO3166_2":"TN"},"countryName":"United States","fcodeName":"school","adminName1":"Tennessee","lat":"35.04396","fcode":"SCH"},{"adminCode1":"TN","lng":"-85.21912","geonameId":4613241,"toponymName":"Chickamauga Boat Harbor","countryId":"6252001","fcl":"H","population":0,"countryCode":"US","name":"Chickamauga Boat Harbor","fclName":"stream, lake, ...","adminCodes1":{"ISO3166_2":"TN"},"countryName":"United States","fcodeName":"bay","adminName1":"Tennessee","lat":"35.09591","fcode":"BAY"},{"adminCode1":"OH","lng":"-82.21459","geonameId":4516778,"toponymName":"Little Chickamauga Creek","countryId":"6252001","fcl":"H","population":0,"countryCode":"US","name":"Little Chickamauga Creek","fclName":"stream, lake, ...","adminCodes1":{"ISO3166_2":"OH"},"countryName":"United States","fcodeName":"stream","adminName1":"Ohio","lat":"38.83286","fcode":"STM"},{"adminCode1":"TN","lng":"-85.21245","geonameId":4608257,"toponymName":"Brainerd Mission (historical)","countryId":"6252001","fcl":"S","population":0,"countryCode":"US","name":"Brainerd Mission (historical)","fclName":"spot, building, farm","adminCodes1":{"ISO3166_2":"TN"},"countryName":"United States","fcodeName":"church","adminName1":"Tennessee","lat":"35.01035","fcode":"CH"},{"adminCode1":"GA","lng":"-83.64684","geonameId":4187697,"toponymName":"Chickamauga Branch","countryId":"6252001","fcl":"H","population":0,"countryCode":"US","name":"Chickamauga Branch","fclName":"stream, lake, ...","adminCodes1":{"ISO3166_2":"GA"},"countryName":"United States","fcodeName":"stream","adminName1":"Georgia","lat":"34.74843","fcode":"STM"},{"adminCode1":"GA","lng":"-85.2919","geonameId":4187699,"toponymName":"Chickamauga City Hall","countryId":"6252001","fcl":"S","population":0,"countryCode":"US","name":"Chickamauga City Hall","fclName":"spot, building, farm","adminCodes1":{"ISO3166_2":"GA"},"countryName":"United States","fcodeName":"building(s)","adminName1":"Georgia","lat":"34.87147","fcode":"BLDG"},{"adminCode1":"GA","lng":"-83.66823","geonameId":4187700,"toponymName":"Chickamauga Creek","countryId":"6252001","fcl":"H","population":0,"countryCode":"US","name":"Chickamauga Creek","fclName":"stream, lake, ...","adminCodes1":{"ISO3166_2":"GA"},"countryName":"United States","fcodeName":"stream","adminName1":"Georgia","lat":"34.67676","fcode":"STM"},{"adminCode1":"GA","lng":"-85.29385","geonameId":4187701,"toponymName":"Chickamauga Cemetery","countryId":"6252001","fcl":"S","population":0,"countryCode":"US","name":"Chickamauga Cemetery","fclName":"spot, building, farm","adminCodes1":{"ISO3166_2":"GA"},"countryName":"United States","fcodeName":"cemetery","adminName1":"Georgia","lat":"34.87591","fcode":"CMTY"},{"adminCode1":"GA","lng":"-85.29357","geonameId":4187702,"toponymName":"Chickamauga High School (historical)","countryId":"6252001","fcl":"S","population":0,"countryCode":"US","name":"Chickamauga High School (historical)","fclName":"spot, building, farm","adminCodes1":{"ISO3166_2":"GA"},"countryName":"United States","fcodeName":"school","adminName1":"Georgia","lat":"34.86897","fcode":"SCH"},{"adminCode1":"GA","lng":"-85.2919","geonameId":4187704,"toponymName":"Chickamauga Public Library","countryId":"6252001","fcl":"S","population":0,"countryCode":"US","name":"Chickamauga Public Library","fclName":"spot, building, farm","adminCodes1":{"ISO3166_2":"GA"},"countryName":"United States","fcodeName":"library","adminName1":"Georgia","lat":"34.87341","fcode":"LIBR"},{"adminCode1":"GA","lng":"-85.29626","geonameId":4187707,"toponymName":"Chickamauga Elementary School","countryId":"6252001","fcl":"S","population":0,"countryCode":"US","name":"Chickamauga Elementary School","fclName":"spot, building, farm","adminCodes1":{"ISO3166_2":"GA"},"countryName":"United States","fcodeName":"school","adminName1":"Georgia","lat":"34.87193","fcode":"SCH"},{"adminCode1":"GA","lng":"-85.29377","geonameId":7712017,"toponymName":"Walker County Emergency Services Station 6 Chickamauga","countryId":"6252001","fcl":"S","population":0,"countryCode":"US","name":"Walker County Emergency Services Station 6 Chickamauga","fclName":"spot, building, farm","adminCodes1":{"ISO3166_2":"GA"},"countryName":"United States","fcodeName":"building(s)","adminName1":"Georgia","lat":"34.86874","fcode":"BLDG"},{"adminCode1":"GA","lng":"-85.29331","geonameId":9675515,"toponymName":"Chickamauga Police Department","countryId":"6252001","fcl":"S","population":0,"countryCode":"US","name":"Chickamauga Police Department","fclName":"spot, building, farm","adminCodes1":{"ISO3166_2":"GA"},"countryName":"United States","fcodeName":"building(s)","adminName1":"Georgia","lat":"34.86983","fcode":"BLDG"},{"adminCode1":"TN","lng":"-85.19968","geonameId":4666653,"toponymName":"West Chickamauga Creek","countryId":"6252001","fcl":"H","population":0,"countryCode":"US","name":"West Chickamauga Creek","fclName":"stream, lake, ...","adminCodes1":{"ISO3166_2":"TN"},"countryName":"United States","fcodeName":"stream","adminName1":"Tennessee","lat":"35.00507","fcode":"STM"},{"adminCode1":"TN","lng":"-85.26857","geonameId":4658853,"toponymName":"South Chickamauga Creek","countryId":"6252001","fcl":"H","population":0,"countryCode":"US","name":"South Chickamauga Creek","fclName":"stream, lake, ...","adminCodes1":{"ISO3166_2":"TN"},"countryName":"United States","fcodeName":"stream","adminName1":"Tennessee","lat":"35.08924","fcode":"STM"},{"adminCode1":"TN","lng":"-85.08718","geonameId":4613239,"toponymName":"Chickamauga Fly and Bait Casting Club","countryId":"6252001","fcl":"S","population":0,"countryCode":"US","name":"Chickamauga Fly and Bait Casting Club","fclName":"spot, building, farm","adminCodes1":{"ISO3166_2":"TN"},"countryName":"United States","fcodeName":"","adminName1":"Tennessee","lat":"35.31007"},{"adminCode1":"TN","lng":"-85.19634","geonameId":4613243,"toponymName":"Chickamauga Post Office","countryId":"6252001","fcl":"S","population":0,"countryCode":"US","name":"Chickamauga Post Office","fclName":"spot, building, farm","adminCodes1":{"ISO3166_2":"TN"},"countryName":"United States","fcodeName":"post office","adminName1":"Tennessee","lat":"35.01757","fcode":"PO"},{"adminCode1":"TN","lng":"-85.1944","geonameId":4613245,"toponymName":"Chickamauga School (historical)","countryId":"6252001","fcl":"S","population":0,"countryCode":"US","name":"Chickamauga School (historical)","fclName":"spot, building, farm","adminCodes1":{"ISO3166_2":"TN"},"countryName":"United States","fcodeName":"school","adminName1":"Tennessee","lat":"35.03007","fcode":"SCH"},{"adminCode1":"GA","lng":"-85.25993","geonameId":9675861,"toponymName":"National Park Service Chickamauga and Chattanooga National Military Park Rangers Office","countryId":"6252001","fcl":"S","population":0,"countryCode":"US","name":"National Park Service Chickamauga and Chattanooga National Military Park Rangers Office","fclName":"spot, building, farm","adminCodes1":{"ISO3166_2":"GA"},"countryName":"United States","fcodeName":"building(s)","adminName1":"Georgia","lat":"34.9404","fcode":"BLDG"}]}
