{"totalResultsCount":2703,"geonames":[{"adminCode1":"OR","lng":"-122.67065","geonameId":5735724,"toponymName":"Lake Oswego","countryId":"6252001","fcl":"P","population":38496,"countryCode":"US","name":"Lake Oswego","fclName":"city, village,...","adminCodes1":{"ISO3166_2":"OR"},"countryName":"United States","fcodeName":"populated place","adminName1":"Oregon","lat":"45.42067","fcode":"PPL"},{"adminCode1":"OR","lng":"-122.61231","geonameId":5760009,"toponymName":"West Linn","countryId":"6252001","fcl":"P","population":26593,"countryCode":"US","name":"West Linn","fclName":"city, village,...","adminCodes1":{"ISO3166_2":"OR"},"countryName":"United States","fcodeName":"populated place","adminName1":"Oregon","lat":"45.36568","fcode":"PPL"},{"adminCode1":"OR","lng":"-122.60676","geonameId":5744253,"toponymName":"Oregon City","countryId":"6252001","fcl":"P","population":35831,"countryCode":"US","name":"Oregon City","fclName":"city, village,...","adminCodes1":{"ISO3166_2":"OR"},"countryName":"United States","fcodeName":"seat of a second-order administrative division","adminName1":"Oregon","lat":"45.35734","fcode":"PPLA2"},{"adminCode1":"OR","lng":"-122.69259","geonameId":5717758,"toponymName":"Canby","countryId":"6252001","fcl":"P","population":17271,"countryCode":"US","name":"Canby","fclName":"city, village,...","adminCodes1":{"ISO3166_2":"OR"},"countryName":"United States","fcodeName":"populated place","adminName1":"Oregon","lat":"45.2629","fcode":"PPL"},{"adminCode1":"OR","lng":"-122.26148","geonameId":5750477,"toponymName":"Sandy","countryId":"6252001","fcl":"P","population":10644,"countryCode":"US","name":"Sandy","fclName":"city, village,...","adminCodes1":{"ISO3166_2":"OR"},"countryName":"United States","fcodeName":"populated place","adminName1":"Oregon","lat":"45.39734","fcode":"PPL"},{"adminCode1":"OR","lng":"-122.77371","geonameId":5761287,"toponymName":"Wilsonville","countryId":"6252001","fcl":"P","population":22729,"countryCode":"US","name":"Wilsonville","fclName":"city, village,...","adminCodes1":{"ISO3166_2":"OR"},"countryName":"United States","fcodeName":"populated place","adminName1":"Oregon","lat":"45.29984","fcode":"PPL"},{"adminCode1":"OR","lng":"-122.63926","geonameId":5740900,"toponymName":"Milwaukie","countryId":"6252001","fcl":"P","population":20830,"countryCode":"US","name":"Milwaukie","fclName":"city, village,...","adminCodes1":{"ISO3166_2":"OR"},"countryName":"United States","fcodeName":"populated place","adminName1":"Oregon","lat":"45.44623","fcode":"PPL"},{"adminCode1":"OR","lng":"-122.59481","geonameId":5728429,"toponymName":"Gladstone","countryId":"6252001","fcl":"P","population":11986,"countryCode":"US","name":"Gladstone","fclName":"city, village,...","adminCodes1":{"ISO3166_2":"OR"},"countryName":"United States","fcodeName":"populated place","adminName1":"Oregon","lat":"45.38068","fcode":"PPL"},{"adminCode1":"OR","lng":"-122.22094","geonameId":5719297,"toponymName":"Clackamas County","countryId":"6252001","fcl":"A","population":375992,"countryCode":"US","name":"Clackamas","fclName":"country, state, region,...","adminCodes1":{"ISO3166_2":"OR"},"countryName":"United States","fcodeName":"second-order administrative division","adminName1":"Oregon","lat":"45.18816","fcode":"ADM2"},{"adminCode1":"OR","lng":"-122.57037","geonameId":5719308,"toponymName":"Clackamas","countryId":"6252001","fcl":"P","population":6767,"countryCode":"US","name":"Clackamas","fclName":"city, village,...","adminCodes1":{"ISO3166_2":"OR"},"countryName":"United States","fcodeName":"populated place","adminName1":"Oregon","lat":"45.40762","fcode":"PPL"},{"adminCode1":"OR","lng":"-121.83033","geonameId":5716640,"toponymName":"Bull Run Lake","countryId":"6252001","fcl":"H","population":0,"countryCode":"US","name":"Bull Run Lake","fclName":"stream, lake, ...","adminCodes1":{"ISO3166_2":"OR"},"countryName":"United States","fcodeName":"lake","adminName1":"Oregon","lat":"45.45469","fcode":"LK"},{"adminCode1":"OR","lng":"-121.80239","geonameId":5716886,"toponymName":"Burnt Lake","countryId":"6252001","fcl":"H","population":0,"countryCode":"US","name":"Burnt Lake","fclName":"stream, lake, ...","adminCodes1":{"ISO3166_2":"OR"},"countryName":"United States","fcodeName":"lake","adminName1":"Oregon","lat":"45.35082","fcode":"LK"},{"adminCode1":"OR","lng":"-121.78798","geonameId":5755180,"toponymName":"Summit Lake","countryId":"6252001","fcl":"H","population":0,"countryCode":"US","name":"Summit Lake","fclName":"stream, lake, ...","adminCodes1":{"ISO3166_2":"OR"},"countryName":"United States","fcodeName":"lake","adminName1":"Oregon","lat":"45.03147","fcode":"LK"},{"adminCode1":"OR","lng":"-122.61815","geonameId":5739252,"toponymName":"Mary S Young Park","countryId":"6252001","fcl":"L","population":0,"countryCode":"US","name":"Mary S Young Park","fclName":"parks,area, ...","adminCodes1":{"ISO3166_2":"OR"},"countryName":"United States","fcodeName":"park","adminName1":"Oregon","lat":"45.3729","fcode":"PRK"},{"adminCode1":"OR","lng":"-122.37342","geonameId":5740888,"toponymName":"Milo McIver State Park","countryId":"6252001","fcl":"L","population":0,"countryCode":"US","name":"Milo McIver State Park","fclName":"parks,area, ...","adminCodes1":{"ISO3166_2":"OR"},"countryName":"United States","fcodeName":"park","adminName1":"Oregon","lat":"45.30595","fcode":"PRK"},{"adminCode1":"OR","lng":"-122.57703","geonameId":5741182,"toponymName":"Molalla","countryId":"6252001","fcl":"P","population":8972,"countryCode":"US","name":"Molalla","fclName":"city, village,...","adminCodes1":{"ISO3166_2":"OR"},"countryName":"United States","fcodeName":"populated place","adminName1":"Oregon","lat":"45.14734","fcode":"PPL"},{"adminCode1":"OR","lng":"-122.58453","geonameId":5741187,"toponymName":"Molalla Prairie","countryId":"6252001","fcl":"L","population":0,"countryCode":"US","name":"Molalla Prairie","fclName":"parks,area, ...","adminCodes1":{"ISO3166_2":"OR"},"countryName":"United States","fcodeName":"area","adminName1":"Oregon","lat":"45.16651","fcode":"AREA"},{"adminCode1":"OR","lng":"-122.71282","geonameId":5741192,"toponymName":"Molalla River State Park","countryId":"6252001","fcl":"L","population":0,"countryCode":"US","name":"Molalla River State Park","fclName":"parks,area, ...","adminCodes1":{"ISO3166_2":"OR"},"countryName":"United States","fcodeName":"park","adminName1":"Oregon","lat":"45.29501","fcode":"PRK"},{"adminCode1":"OR","lng":"-121.73498","geonameId":5741684,"toponymName":"Mount Hood Wilderness","countryId":"6252001","fcl":"L","population":0,"countryCode":"US","name":"Mount Hood Wilderness","fclName":"parks,area, ...","adminCodes1":{"ISO3166_2":"OR"},"countryName":"United States","fcodeName":"reserve","adminName1":"Oregon","lat":"45.35633","fcode":"RES"},{"adminCode1":"OR","lng":"-122.58203","geonameId":5742096,"toponymName":"Mulino","countryId":"6252001","fcl":"P","population":2103,"countryCode":"US","name":"Mulino","fclName":"city, village,...","adminCodes1":{"ISO3166_2":"OR"},"countryName":"United States","fcodeName":"populated place","adminName1":"Oregon","lat":"45.22151","fcode":"PPL"},{"adminCode1":"OR","lng":"-121.75087","geonameId":5736923,"toponymName":"Little Crater Lake","countryId":"6252001","fcl":"H","population":0,"countryCode":"US","name":"Little Crater Lake","fclName":"stream, lake, ...","adminCodes1":{"ISO3166_2":"OR"},"countryName":"United States","fcodeName":"lake","adminName1":"Oregon","lat":"45.14821","fcode":"LK"},{"adminCode1":"OR","lng":"-122.64009","geonameId":5743731,"toponymName":"Oak Grove","countryId":"6252001","fcl":"P","population":16629,"countryCode":"US","name":"Oak Grove","fclName":"city, village,...","adminCodes1":{"ISO3166_2":"OR"},"countryName":"United States","fcodeName":"populated place","adminName1":"Oregon","lat":"45.41679","fcode":"PPL"},{"adminCode1":"OR","lng":"-122.53037","geonameId":5730183,"toponymName":"Happy Valley","countryId":"6252001","fcl":"P","population":18493,"countryCode":"US","name":"Happy Valley","fclName":"city, village,...","adminCodes1":{"ISO3166_2":"OR"},"countryName":"United States","fcodeName":"populated place","adminName1":"Oregon","lat":"45.44679","fcode":"PPL"},{"adminCode1":"OR","lng":"-122.45898","geonameId":5722088,"toponymName":"Damascus","countryId":"6252001","fcl":"P","population":10952,"countryCode":"US","name":"Damascus","fclName":"city, village,...","adminCodes1":{"ISO3166_2":"OR"},"countryName":"United States","fcodeName":"populated place","adminName1":"Oregon","lat":"45.41762","fcode":"PPL"},{"adminCode1":"OR","lng":"-122.3337","geonameId":5725801,"toponymName":"Estacada","countryId":"6252001","fcl":"P","population":3152,"countryCode":"US","name":"Estacada","fclName":"city, village,...","adminCodes1":{"ISO3166_2":"OR"},"countryName":"United States","fcodeName":"populated place","adminName1":"Oregon","lat":"45.28957","fcode":"PPL"},{"adminCode1":"OR","lng":"-122.60007","geonameId":7262019,"toponymName":"Oatfield","countryId":"6252001","fcl":"P","population":13415,"countryCode":"US","name":"Oatfield","fclName":"city, village,...","adminCodes1":{"ISO3166_2":"OR"},"countryName":"United States","fcodeName":"populated place","adminName1":"Oregon","lat":"45.41418","fcode":"PPL"},{"adminCode1":"OR","lng":"-121.74295","geonameId":5719303,"toponymName":"Clackamas Lake","countryId":"6252001","fcl":"H","population":0,"countryCode":"US","name":"Clackamas Lake","fclName":"stream, lake, ...","adminCodes1":{"ISO3166_2":"OR"},"countryName":"United States","fcodeName":"lake","adminName1":"Oregon","lat":"45.09616","fcode":"LK"},{"adminCode1":"OR","lng":"-122.53564","geonameId":5713224,"toponymName":"Beavercreek","countryId":"6252001","fcl":"P","population":4485,"countryCode":"US","name":"Beavercreek","fclName":"city, village,...","adminCodes1":{"ISO3166_2":"OR"},"countryName":"United States","fcodeName":"populated place","adminName1":"Oregon","lat":"45.2879","fcode":"PPL"},{"adminCode1":"OR","lng":"-122.55649","geonameId":5713814,"toponymName":"Beyer Reservoir","countryId":"6252001","fcl":"H","population":0,"countryCode":"US","name":"Beyer Reservoir","fclName":"stream, lake, ...","adminCodes1":{"ISO3166_2":"OR"},"countryName":"United States","fcodeName":"lake","adminName1":"Oregon","lat":"45.03234","fcode":"LK"},{"adminCode1":"OR","lng":"-122.37481","geonameId":5715260,"toponymName":"Boring","countryId":"6252001","fcl":"P","population":0,"countryCode":"US","name":"Boring","fclName":"city, village,...","adminCodes1":{"ISO3166_2":"OR"},"countryName":"United States","fcodeName":"populated place","adminName1":"Oregon","lat":"45.42984","fcode":"PPL"},{"adminCode1":"OR","lng":"-122.01675","geonameId":5715803,"toponymName":"Brightwood","countryId":"6252001","fcl":"P","population":0,"countryCode":"US","name":"Brightwood","fclName":"city, village,...","adminCodes1":{"ISO3166_2":"OR"},"countryName":"United States","fcodeName":"populated place","adminName1":"Oregon","lat":"45.37623","fcode":"PPL"},{"adminCode1":"OR","lng":"-122.72259","geonameId":5754243,"toponymName":"Stafford","countryId":"6252001","fcl":"P","population":1577,"countryCode":"US","name":"Stafford","fclName":"city, village,...","adminCodes1":{"ISO3166_2":"OR"},"countryName":"United States","fcodeName":"populated place","adminName1":"Oregon","lat":"45.35734","fcode":"PPL"},{"adminCode1":"OR","lng":"-122.35407","geonameId":5755835,"toponymName":"Table Rock Fork","countryId":"6252001","fcl":"H","population":0,"countryCode":"US","name":"Table Rock Fork","fclName":"stream, lake, ...","adminCodes1":{"ISO3166_2":"OR"},"countryName":"United States","fcodeName":"lake","adminName1":"Oregon","lat":"44.98229","fcode":"LK"},{"adminCode1":"OR","lng":"-122.50065","geonameId":5757416,"toponymName":"Happy Valley Airport","countryId":"6252001","fcl":"S","population":0,"countryCode":"US","name":"Happy Valley Airport","fclName":"spot, building, farm","adminCodes1":{"ISO3166_2":"OR"},"countryName":"United States","fcodeName":"airport","adminName1":"Oregon","lat":"45.4479","fcode":"AIRP"},{"adminCode1":"OR","lng":"-121.91119","geonameId":5748126,"toponymName":"Rhododendron","countryId":"6252001","fcl":"P","population":0,"countryCode":"US","name":"Rhododendron","fclName":"city, village,...","adminCodes1":{"ISO3166_2":"OR"},"countryName":"United States","fcodeName":"populated place","adminName1":"Oregon","lat":"45.32956","fcode":"PPL"},{"adminCode1":"OR","lng":"-122.22879","geonameId":5748206,"toponymName":"Sandy River Airport","countryId":"6252001","fcl":"S","population":0,"countryCode":"US","name":"Sandy River Airport","fclName":"spot, building, farm","adminCodes1":{"ISO3166_2":"OR"},"countryName":"United States","fcodeName":"airport","adminName1":"Oregon","lat":"45.40068","fcode":"AIRP"},{"adminCode1":"OR","lng":"-122.3633","geonameId":5751265,"toponymName":"Beaver Oaks Airport","countryId":"6252001","fcl":"S","population":0,"countryCode":"US","name":"Beaver Oaks Airport","fclName":"spot, building, farm","adminCodes1":{"ISO3166_2":"OR"},"countryName":"United States","fcodeName":"airport","adminName1":"Oregon","lat":"45.31851","fcode":"AIRP"},{"adminCode1":"OR","lng":"-121.96091","geonameId":5759647,"toponymName":"Welches","countryId":"6252001","fcl":"P","population":0,"countryCode":"US","name":"Welches","fclName":"city, village,...","adminCodes1":{"ISO3166_2":"OR"},"countryName":"United States","fcodeName":"populated place","adminName1":"Oregon","lat":"45.32817","fcode":"PPL"},{"adminCode1":"OR","lng":"-122.65059","geonameId":5760859,"toponymName":"Wiley's Seaplane Port","countryId":"6252001","fcl":"S","population":0,"countryCode":"US","name":"Wiley's Seaplane Port","fclName":"spot, building, farm","adminCodes1":{"ISO3166_2":"OR"},"countryName":"United States","fcodeName":"airport","adminName1":"Oregon","lat":"45.43085","fcode":"AIRP"},{"adminCode1":"OR","lng":"-122.66538","geonameId":5761832,"toponymName":"Workman AirPark","countryId":"6252001","fcl":"S","population":0,"countryCode":"US","name":"Workman AirPark","fclName":"spot, building, farm","adminCodes1":{"ISO3166_2":"OR"},"countryName":"United States","fcodeName":"airport","adminName1":"Oregon","lat":"45.20768","fcode":"AIRP"},{"adminCode1":"OR","lng":"-122.6512","geonameId":5739258,"toponymName":"Marylhurst","countryId":"6252001","fcl":"P","population":0,"countryCode":"US","name":"Marylhurst","fclName":"city, village,...","adminCodes1":{"ISO3166_2":"OR"},"countryName":"United States","fcodeName":"populated place","adminName1":"Oregon","lat":"45.40123","fcode":"PPL"},{"adminCode1":"OR","lng":"-122.24207","geonameId":5739885,"toponymName":"Mc Kinnon Airpark","countryId":"6252001","fcl":"S","population":0,"countryCode":"US","name":"Mc Kinnon Airpark","fclName":"spot, building, farm","adminCodes1":{"ISO3166_2":"OR"},"countryName":"United States","fcodeName":"airport","adminName1":"Oregon","lat":"45.43132","fcode":"AIRP"},{"adminCode1":"OR","lng":"-122.23665","geonameId":5740176,"toponymName":"Memaloose Lake","countryId":"6252001","fcl":"H","population":0,"countryCode":"US","name":"Memaloose Lake","fclName":"stream, lake, ...","adminCodes1":{"ISO3166_2":"OR"},"countryName":"United States","fcodeName":"lake","adminName1":"Oregon","lat":"45.09783","fcode":"LK"},{"adminCode1":"OR","lng":"-121.98064","geonameId":5741683,"toponymName":"Mount Hood Village","countryId":"6252001","fcl":"P","population":4864,"countryCode":"US","name":"Mount Hood Village","fclName":"city, village,...","adminCodes1":{"ISO3166_2":"OR"},"countryName":"United States","fcodeName":"populated place","adminName1":"Oregon","lat":"45.3554","fcode":"PPL"},{"adminCode1":"OR","lng":"-122.61259","geonameId":5733582,"toponymName":"Jennings Lodge","countryId":"6252001","fcl":"P","population":7315,"countryCode":"US","name":"Jennings Lodge","fclName":"city, village,...","adminCodes1":{"ISO3166_2":"OR"},"countryName":"United States","fcodeName":"populated place","adminName1":"Oregon","lat":"45.39123","fcode":"PPL"},{"adminCode1":"OR","lng":"-122.57898","geonameId":5733855,"toponymName":"Johnson City","countryId":"6252001","fcl":"P","population":580,"countryCode":"US","name":"Johnson City","fclName":"city, village,...","adminCodes1":{"ISO3166_2":"OR"},"countryName":"United States","fcodeName":"populated place","adminName1":"Oregon","lat":"45.40456","fcode":"PPL"},{"adminCode1":"OR","lng":"-122.74643","geonameId":5736358,"toponymName":"Lenhardt Airpark","countryId":"6252001","fcl":"S","population":0,"countryCode":"US","name":"Lenhardt Airpark","fclName":"spot, building, farm","adminCodes1":{"ISO3166_2":"OR"},"countryName":"United States","fcodeName":"airport","adminName1":"Oregon","lat":"45.17994","fcode":"AIRP"},{"adminCode1":"OR","lng":"-122.52201","geonameId":5742811,"toponymName":"Nielsen Airport","countryId":"6252001","fcl":"S","population":0,"countryCode":"US","name":"Nielsen Airport","fclName":"spot, building, farm","adminCodes1":{"ISO3166_2":"OR"},"countryName":"United States","fcodeName":"airport","adminName1":"Oregon","lat":"45.34626","fcode":"AIRP"},{"adminCode1":"OR","lng":"-121.7548","geonameId":5728895,"toponymName":"Government Camp","countryId":"6252001","fcl":"P","population":193,"countryCode":"US","name":"Government Camp","fclName":"city, village,...","adminCodes1":{"ISO3166_2":"OR"},"countryName":"United States","fcodeName":"populated place","adminName1":"Oregon","lat":"45.30401","fcode":"PPL"},{"adminCode1":"OR","lng":"-122.61805","geonameId":5732621,"toponymName":"Skydive Oregon","countryId":"6252001","fcl":"S","population":0,"countryCode":"US","name":"Skydive Oregon","fclName":"spot, building, farm","adminCodes1":{"ISO3166_2":"OR"},"countryName":"United States","fcodeName":"airport","adminName1":"Oregon","lat":"45.1465","fcode":"AIRP"},{"adminCode1":"OR","lng":"-122.43786","geonameId":5720155,"toponymName":"Colton","countryId":"6252001","fcl":"P","population":0,"countryCode":"US","name":"Colton","fclName":"city, village,...","adminCodes1":{"ISO3166_2":"OR"},"countryName":"United States","fcodeName":"populated place","adminName1":"Oregon","lat":"45.17207","fcode":"PPL"},{"adminCode1":"OR","lng":"-122.26647","geonameId":5720989,"toponymName":"Country Squire Airpark","countryId":"6252001","fcl":"S","population":0,"countryCode":"US","name":"Country Squire Airpark","fclName":"spot, building, farm","adminCodes1":{"ISO3166_2":"OR"},"countryName":"United States","fcodeName":"airport","adminName1":"Oregon","lat":"45.3537","fcode":"AIRP"},{"adminCode1":"OR","lng":"-122.59981","geonameId":5721667,"toponymName":"Cross Memorial City Park","countryId":"6252001","fcl":"L","population":0,"countryCode":"US","name":"Cross Memorial City Park","fclName":"parks,area, ...","adminCodes1":{"ISO3166_2":"OR"},"countryName":"United States","fcodeName":"park","adminName1":"Oregon","lat":"45.3754","fcode":"PRK"},{"adminCode1":"OR","lng":"-122.65139","geonameId":5723248,"toponymName":"Dietz Airpark","countryId":"6252001","fcl":"S","population":0,"countryCode":"US","name":"Dietz Airpark","fclName":"spot, building, farm","adminCodes1":{"ISO3166_2":"OR"},"countryName":"United States","fcodeName":"airport","adminName1":"Oregon","lat":"45.25908","fcode":"AIRP"},{"adminCode1":"OR","lng":"-122.35898","geonameId":5724534,"toponymName":"Eagle Creek","countryId":"6252001","fcl":"P","population":0,"countryCode":"US","name":"Eagle Creek","fclName":"city, village,...","adminCodes1":{"ISO3166_2":"OR"},"countryName":"United States","fcodeName":"populated place","adminName1":"Oregon","lat":"45.35734","fcode":"PPL"},{"adminCode1":"OR","lng":"-122.34806","geonameId":5724575,"toponymName":"Eagle Nest Ranch Airport","countryId":"6252001","fcl":"S","population":0,"countryCode":"US","name":"Eagle Nest Ranch Airport","fclName":"spot, building, farm","adminCodes1":{"ISO3166_2":"OR"},"countryName":"United States","fcodeName":"airport","adminName1":"Oregon","lat":"45.35656","fcode":"AIRP"},{"adminCode1":"OR","lng":"-122.31883","geonameId":5725802,"toponymName":"Valley View Airport","countryId":"6252001","fcl":"S","population":0,"countryCode":"US","name":"Valley View Airport","fclName":"spot, building, farm","adminCodes1":{"ISO3166_2":"OR"},"countryName":"United States","fcodeName":"airport","adminName1":"Oregon","lat":"45.30575","fcode":"AIRP"},{"adminCode1":"OR","lng":"-122.55299","geonameId":5726056,"toponymName":"Fairways Airport","countryId":"6252001","fcl":"S","population":0,"countryCode":"US","name":"Fairways Airport","fclName":"spot, building, farm","adminCodes1":{"ISO3166_2":"OR"},"countryName":"United States","fcodeName":"airport","adminName1":"Oregon","lat":"45.31652","fcode":"AIRP"},{"adminCode1":"OR","lng":"-122.3209","geonameId":5727081,"toponymName":"Flying K Bar J Ranch Airport","countryId":"6252001","fcl":"S","population":0,"countryCode":"US","name":"Flying K Bar J Ranch Airport","fclName":"spot, building, farm","adminCodes1":{"ISO3166_2":"OR"},"countryName":"United States","fcodeName":"airport","adminName1":"Oregon","lat":"45.44278","fcode":"AIRP"},{"adminCode1":"OR","lng":"-122.60375","geonameId":5710664,"toponymName":"Aeroacres Airport","countryId":"6252001","fcl":"S","population":0,"countryCode":"US","name":"Aeroacres Airport","fclName":"spot, building, farm","adminCodes1":{"ISO3166_2":"OR"},"countryName":"United States","fcodeName":"airport","adminName1":"Oregon","lat":"45.31695","fcode":"AIRP"},{"adminCode1":"OR","lng":"-122.46919","geonameId":8093393,"toponymName":"Parson Landing","countryId":"6252001","fcl":"S","population":0,"countryCode":"US","name":"Parson Landing","fclName":"spot, building, farm","adminCodes1":{"ISO3166_2":"OR"},"countryName":"United States","fcodeName":"airport","adminName1":"Oregon","lat":"45.32496","fcode":"AIRP"},{"adminCode1":"OR","lng":"-122.72435","geonameId":8093394,"toponymName":"Compton Airport","countryId":"6252001","fcl":"S","population":0,"countryCode":"US","name":"Compton Airport","fclName":"spot, building, farm","adminCodes1":{"ISO3166_2":"OR"},"countryName":"United States","fcodeName":"airport","adminName1":"Oregon","lat":"45.22312","fcode":"AIRP"},{"adminCode1":"OR","lng":"-122.55449","geonameId":7260677,"toponymName":"Clackamas","countryId":"6252001","fcl":"P","population":0,"countryCode":"US","name":"Clackamas","fclName":"city, village,...","adminCodes1":{"ISO3166_2":"OR"},"countryName":"United States","fcodeName":"populated place","adminName1":"Oregon","lat":"45.41222","fcode":"PPL"},{"adminCode1":"OR","lng":"-122.37675","geonameId":5715186,"toponymName":"Bonnie Lure State Park","countryId":"6252001","fcl":"L","population":0,"countryCode":"US","name":"Bonnie Lure State Park","fclName":"parks,area, ...","adminCodes1":{"ISO3166_2":"OR"},"countryName":"United States","fcodeName":"park","adminName1":"Oregon","lat":"45.35207","fcode":"PRK"},{"adminCode1":"OR","lng":"-122.40703","geonameId":5715254,"toponymName":"Boring-Estacada Rail Line","countryId":"6252001","fcl":"L","population":0,"countryCode":"US","name":"Boring-Estacada Rail Line","fclName":"parks,area, ...","adminCodes1":{"ISO3166_2":"OR"},"countryName":"United States","fcodeName":"park","adminName1":"Oregon","lat":"45.38901","fcode":"PRK"},{"adminCode1":"OR","lng":"-122.61898","geonameId":5715296,"toponymName":"Bolton School Park","countryId":"6252001","fcl":"L","population":0,"countryCode":"US","name":"Bolton School Park","fclName":"parks,area, ...","adminCodes1":{"ISO3166_2":"OR"},"countryName":"United States","fcodeName":"park","adminName1":"Oregon","lat":"45.37012","fcode":"PRK"},{"adminCode1":"OR","lng":"-122.23175","geonameId":5716630,"toponymName":"Bull Run","countryId":"6252001","fcl":"P","population":0,"countryCode":"US","name":"Bull Run","fclName":"city, village,...","adminCodes1":{"ISO3166_2":"OR"},"countryName":"United States","fcodeName":"populated place","adminName1":"Oregon","lat":"45.4304","fcode":"PPL"},{"adminCode1":"OR","lng":"-122.57064","geonameId":5718095,"toponymName":"Carus","countryId":"6252001","fcl":"P","population":0,"countryCode":"US","name":"Carus","fclName":"city, village,...","adminCodes1":{"ISO3166_2":"OR"},"countryName":"United States","fcodeName":"populated place","adminName1":"Oregon","lat":"45.27123","fcode":"PPL"},{"adminCode1":"OR","lng":"-122.49731","geonameId":5718099,"toponymName":"Carver","countryId":"6252001","fcl":"P","population":0,"countryCode":"US","name":"Carver","fclName":"city, village,...","adminCodes1":{"ISO3166_2":"OR"},"countryName":"United States","fcodeName":"populated place","adminName1":"Oregon","lat":"45.39457","fcode":"PPL"},{"adminCode1":"OR","lng":"-122.33953","geonameId":5754017,"toponymName":"Springwater","countryId":"6252001","fcl":"P","population":0,"countryCode":"US","name":"Springwater","fclName":"city, village,...","adminCodes1":{"ISO3166_2":"OR"},"countryName":"United States","fcodeName":"populated place","adminName1":"Oregon","lat":"45.25068","fcode":"PPL"},{"adminCode1":"OR","lng":"-122.02286","geonameId":5754178,"toponymName":"Tumala Lakes","countryId":"6252001","fcl":"H","population":0,"countryCode":"US","name":"Tumala Lakes","fclName":"stream, lake, ...","adminCodes1":{"ISO3166_2":"OR"},"countryName":"United States","fcodeName":"lake","adminName1":"Oregon","lat":"45.22484","fcode":"LK"},{"adminCode1":"OR","lng":"-122.04111","geonameId":5754186,"toponymName":"Tumala Mountain","countryId":"6252001","fcl":"T","population":0,"countryCode":"US","name":"Tumala Mountain","fclName":"mountain,hill,rock,... ","adminCodes1":{"ISO3166_2":"OR"},"countryName":"United States","fcodeName":"mountain","adminName1":"Oregon","lat":"45.23028","fcode":"MT"},{"adminCode1":"OR","lng":"-122.5837","geonameId":5754725,"toponymName":"Stocker City Park","countryId":"6252001","fcl":"L","population":0,"countryCode":"US","name":"Stocker City Park","fclName":"parks,area, ...","adminCodes1":{"ISO3166_2":"OR"},"countryName":"United States","fcodeName":"park","adminName1":"Oregon","lat":"45.38345","fcode":"PRK"},{"adminCode1":"OR","lng":"-122.55176","geonameId":5755883,"toponymName":"Mount Talbert","countryId":"6252001","fcl":"T","population":0,"countryCode":"US","name":"Mount Talbert","fclName":"mountain,hill,rock,... ","adminCodes1":{"ISO3166_2":"OR"},"countryName":"United States","fcodeName":"mountain","adminName1":"Oregon","lat":"45.42679","fcode":"MT"},{"adminCode1":"OR","lng":"-121.79147","geonameId":5757044,"toponymName":"Tom Dick and Harry Mountain","countryId":"6252001","fcl":"T","population":0,"countryCode":"US","name":"Tom Dick and Harry Mountain","fclName":"mountain,hill,rock,... ","adminCodes1":{"ISO3166_2":"OR"},"countryName":"United States","fcodeName":"mountain","adminName1":"Oregon","lat":"45.29012","fcode":"MT"},{"adminCode1":"OR","lng":"-122.49287","geonameId":5747881,"toponymName":"Redland","countryId":"6252001","fcl":"P","population":0,"countryCode":"US","name":"Redland","fclName":"city, village,...","adminCodes1":{"ISO3166_2":"OR"},"countryName":"United States","fcodeName":"populated place","adminName1":"Oregon","lat":"45.34346","fcode":"PPL"},{"adminCode1":"OR","lng":"-122.04341","geonameId":5748411,"toponymName":"Ripplebrook","countryId":"6252001","fcl":"P","population":0,"countryCode":"US","name":"Ripplebrook","fclName":"city, village,...","adminCodes1":{"ISO3166_2":"OR"},"countryName":"United States","fcodeName":"populated place","adminName1":"Oregon","lat":"45.08234","fcode":"PPL"},{"adminCode1":"OR","lng":"-122.73343","geonameId":5748481,"toponymName":"Rivergrove","countryId":"6252001","fcl":"P","population":289,"countryCode":"US","name":"Rivergrove","fclName":"city, village,...","adminCodes1":{"ISO3166_2":"OR"},"countryName":"United States","fcodeName":"populated place","adminName1":"Oregon","lat":"45.39123","fcode":"PPL"},{"adminCode1":"OR","lng":"-121.94236","geonameId":5750232,"toponymName":"Salmon-Huckleberry Wilderness","countryId":"6252001","fcl":"L","population":0,"countryCode":"US","name":"Salmon-Huckleberry Wilderness","fclName":"parks,area, ...","adminCodes1":{"ISO3166_2":"OR"},"countryName":"United States","fcodeName":"reserve","adminName1":"Oregon","lat":"45.26721","fcode":"RES"},{"adminCode1":"OR","lng":"-122.55065","geonameId":5750910,"toponymName":"Mount Scott","countryId":"6252001","fcl":"T","population":0,"countryCode":"US","name":"Mount Scott","fclName":"mountain,hill,rock,... ","adminCodes1":{"ISO3166_2":"OR"},"countryName":"United States","fcodeName":"mountain","adminName1":"Oregon","lat":"45.45456","fcode":"MT"},{"adminCode1":"OR","lng":"-122.69454","geonameId":5751249,"toponymName":"Shadowood","countryId":"6252001","fcl":"P","population":0,"countryCode":"US","name":"Shadowood","fclName":"city, village,...","adminCodes1":{"ISO3166_2":"OR"},"countryName":"United States","fcodeName":"populated place","adminName1":"Oregon","lat":"45.37873","fcode":"PPL"},{"adminCode1":"OR","lng":"-122.69582","geonameId":5758857,"toponymName":"Wait City Park","countryId":"6252001","fcl":"L","population":0,"countryCode":"US","name":"Wait City Park","fclName":"parks,area, ...","adminCodes1":{"ISO3166_2":"OR"},"countryName":"United States","fcodeName":"park","adminName1":"Oregon","lat":"45.26422","fcode":"PRK"},{"adminCode1":"OR","lng":"-122.72371","geonameId":5759107,"toponymName":"Waluga Park East","countryId":"6252001","fcl":"L","population":0,"countryCode":"US","name":"Waluga Park East","fclName":"parks,area, ...","adminCodes1":{"ISO3166_2":"OR"},"countryName":"United States","fcodeName":"park","adminName1":"Oregon","lat":"45.41317","fcode":"PRK"},{"adminCode1":"OR","lng":"-121.96591","geonameId":5759694,"toponymName":"Wemme","countryId":"6252001","fcl":"P","population":0,"countryCode":"US","name":"Wemme","fclName":"city, village,...","adminCodes1":{"ISO3166_2":"OR"},"countryName":"United States","fcodeName":"populated place","adminName1":"Oregon","lat":"45.34873","fcode":"PPL"},{"adminCode1":"OR","lng":"-122.66704","geonameId":5760882,"toponymName":"Willamette","countryId":"6252001","fcl":"P","population":0,"countryCode":"US","name":"Willamette","fclName":"city, village,...","adminCodes1":{"ISO3166_2":"OR"},"countryName":"United States","fcodeName":"populated place","adminName1":"Oregon","lat":"45.34429","fcode":"PPL"},{"adminCode1":"OR","lng":"-122.68176","geonameId":5762109,"toponymName":"Yoder","countryId":"6252001","fcl":"P","population":0,"countryCode":"US","name":"Yoder","fclName":"city, village,...","adminCodes1":{"ISO3166_2":"OR"},"countryName":"United States","fcodeName":"populated place","adminName1":"Oregon","lat":"45.13818","fcode":"PPL"},{"adminCode1":"OR","lng":"-121.94314","geonameId":5762226,"toponymName":"Zigzag","countryId":"6252001","fcl":"P","population":0,"countryCode":"US","name":"Zigzag","fclName":"city, village,...","adminCodes1":{"ISO3166_2":"OR"},"countryName":"United States","fcodeName":"populated place","adminName1":"Oregon","lat":"45.34401","fcode":"PPL"},{"adminCode1":"OR","lng":"-121.83813","geonameId":5762233,"toponymName":"Zigzag Mountain","countryId":"6252001","fcl":"T","population":0,"countryCode":"US","name":"Zigzag Mountain","fclName":"mountain,hill,rock,... ","adminCodes1":{"ISO3166_2":"OR"},"countryName":"United States","fcodeName":"mountain","adminName1":"Oregon","lat":"45.34623","fcode":"MT"},{"adminCode1":"OR","lng":"-122.6612","geonameId":5738664,"toponymName":"Macksburg","countryId":"6252001","fcl":"P","population":0,"countryCode":"US","name":"Macksburg","fclName":"city, village,...","adminCodes1":{"ISO3166_2":"OR"},"countryName":"United States","fcodeName":"populated place","adminName1":"Oregon","lat":"45.21373","fcode":"PPL"},{"adminCode1":"OR","lng":"-122.11564","geonameId":5739115,"toponymName":"Marmot","countryId":"6252001","fcl":"P","population":0,"countryCode":"US","name":"Marmot","fclName":"city, village,...","adminCodes1":{"ISO3166_2":"OR"},"countryName":"United States","fcodeName":"populated place","adminName1":"Oregon","lat":"45.39651","fcode":"PPL"},{"adminCode1":"OR","lng":"-122.68703","geonameId":5739124,"toponymName":"Marquam","countryId":"6252001","fcl":"P","population":0,"countryCode":"US","name":"Marquam","fclName":"city, village,...","adminCodes1":{"ISO3166_2":"OR"},"countryName":"United States","fcodeName":"populated place","adminName1":"Oregon","lat":"45.07318","fcode":"PPL"},{"adminCode1":"OR","lng":"-122.59009","geonameId":5739389,"toponymName":"Max Patterson Memorial City Park","countryId":"6252001","fcl":"L","population":0,"countryCode":"US","name":"Max Patterson Memorial City Park","fclName":"parks,area, ...","adminCodes1":{"ISO3166_2":"OR"},"countryName":"United States","fcodeName":"park","adminName1":"Oregon","lat":"45.3829","fcode":"PRK"},{"adminCode1":"OR","lng":"-122.6012","geonameId":5739914,"toponymName":"McLoughlin House National Historic Site","countryId":"6252001","fcl":"L","population":0,"countryCode":"US","name":"McLoughlin House National Historic Site","fclName":"parks,area, ...","adminCodes1":{"ISO3166_2":"OR"},"countryName":"United States","fcodeName":"park","adminName1":"Oregon","lat":"45.35818","fcode":"PRK"},{"adminCode1":"OR","lng":"-122.61512","geonameId":5740145,"toponymName":"Meldrum Bar City Park","countryId":"6252001","fcl":"L","population":0,"countryCode":"US","name":"Meldrum Bar City Park","fclName":"parks,area, ...","adminCodes1":{"ISO3166_2":"OR"},"countryName":"United States","fcodeName":"park","adminName1":"Oregon","lat":"45.37752","fcode":"PRK"},{"adminCode1":"OR","lng":"-122.63454","geonameId":5740902,"toponymName":"Milwaukie Heights","countryId":"6252001","fcl":"P","population":0,"countryCode":"US","name":"Milwaukie Heights","fclName":"city, village,...","adminCodes1":{"ISO3166_2":"OR"},"countryName":"United States","fcodeName":"populated place","adminName1":"Oregon","lat":"45.43012","fcode":"PPL"},{"adminCode1":"OR","lng":"-121.97758","geonameId":5741128,"toponymName":"Mount Mitchell","countryId":"6252001","fcl":"T","population":0,"countryCode":"US","name":"Mount Mitchell","fclName":"mountain,hill,rock,... ","adminCodes1":{"ISO3166_2":"OR"},"countryName":"United States","fcodeName":"mountain","adminName1":"Oregon","lat":"45.10818","fcode":"MT"},{"adminCode1":"OR","lng":"-121.99064","geonameId":5741731,"toponymName":"Mountain Air Park","countryId":"6252001","fcl":"P","population":0,"countryCode":"US","name":"Mountain Air Park","fclName":"city, village,...","adminCodes1":{"ISO3166_2":"OR"},"countryName":"United States","fcodeName":"populated place","adminName1":"Oregon","lat":"45.35901","fcode":"PPL"},{"adminCode1":"OR","lng":"-122.58808","geonameId":5742091,"toponymName":"Mulino State Airport","countryId":"6252001","fcl":"S","population":0,"countryCode":"US","name":"Mulino State Airport","fclName":"spot, building, farm","adminCodes1":{"ISO3166_2":"OR"},"countryName":"United States","fcodeName":"airport","adminName1":"Oregon","lat":"45.21821","fcode":"AIRP"},{"adminCode1":"OR","lng":"-122.70259","geonameId":5742518,"toponymName":"Needy","countryId":"6252001","fcl":"P","population":0,"countryCode":"US","name":"Needy","fclName":"city, village,...","adminCodes1":{"ISO3166_2":"OR"},"countryName":"United States","fcodeName":"populated place","adminName1":"Oregon","lat":"45.17262","fcode":"PPL"},{"adminCode1":"OR","lng":"-122.73982","geonameId":5733519,"toponymName":"Jean","countryId":"6252001","fcl":"P","population":0,"countryCode":"US","name":"Jean","fclName":"city, village,...","adminCodes1":{"ISO3166_2":"OR"},"countryName":"United States","fcodeName":"populated place","adminName1":"Oregon","lat":"45.39817","fcode":"PPL"}]}
