{"totalResultsCount":414,"geonames":[{"adminCode1":"TN","lng":"-87.35945","geonameId":4613868,"toponymName":"Clarksville","countryId":"6252001","fcl":"P","population":149176,"countryCode":"US","name":"Clarksville","fclName":"city, village,...","adminCodes1":{"ISO3166_2":"TN"},"countryName":"United States","fcodeName":"seat of a second-order administrative division","adminName1":"Tennessee","lat":"36.52977","fcode":"PPLA2"},{"adminCode1":"IN","lng":"-85.75996","geonameId":4255836,"toponymName":"Clarksville","countryId":"6252001","fcl":"P","population":21866,"countryCode":"US","name":"Clarksville","fclName":"city, village,...","adminCodes1":{"ISO3166_2":"IN"},"countryName":"United States","fcodeName":"populated place","adminName1":"Indiana","lat":"38.29674","fcode":"PPL"},{"adminCode1":"TX","lng":"-95.06333","geonameId":6301633,"toponymName":"Clarksville, Clarksville/Red River County-J D Trissell Field Airport","countryId":"6252001","fcl":"S","population":0,"countryCode":"US","name":"Clarksville, Clarksville/Red River County-J D Trissell Field Airport","fclName":"spot, building, farm","adminCodes1":{"ISO3166_2":"TX"},"countryName":"United States","fcodeName":"airport","adminName1":"Texas","lat":"33.59306","fcode":"AIRP"},{"adminCode1":"AR","lng":"-93.46657","geonameId":4105879,"toponymName":"Clarksville","countryId":"6252001","fcl":"P","population":9433,"countryCode":"US","name":"Clarksville","fclName":"city, village,...","adminCodes1":{"ISO3166_2":"AR"},"countryName":"United States","fcodeName":"seat of a second-order administrative division","adminName1":"Arkansas","lat":"35.47147","fcode":"PPLA2"},{"adminCode1":"IA","lng":"-92.66769","geonameId":4851846,"toponymName":"Clarksville","countryId":"6252001","fcl":"P","population":1409,"countryCode":"US","name":"Clarksville","fclName":"city, village,...","adminCodes1":{"ISO3166_2":"IA"},"countryName":"United States","fcodeName":"populated place","adminName1":"Iowa","lat":"42.7847","fcode":"PPL"},{"adminCode1":"PA","lng":"-80.04394","geonameId":4557201,"toponymName":"Clarksville","countryId":"6252001","fcl":"P","population":231,"countryCode":"US","name":"Clarksville","fclName":"city, village,...","adminCodes1":{"ISO3166_2":"PA"},"countryName":"United States","fcodeName":"populated place","adminName1":"Pennsylvania","lat":"39.97285","fcode":"PPL"},{"adminCode1":"OH","lng":"-83.98132","geonameId":4508872,"toponymName":"Clarksville","countryId":"6252001","fcl":"P","population":547,"countryCode":"US","name":"Clarksville","fclName":"city, village,...","adminCodes1":{"ISO3166_2":"OH"},"countryName":"United States","fcodeName":"populated place","adminName1":"Ohio","lat":"39.40145","fcode":"PPL"},{"adminCode1":"MO","lng":"-90.90513","geonameId":4381424,"toponymName":"Clarksville","countryId":"6252001","fcl":"P","population":431,"countryCode":"US","name":"Clarksville","fclName":"city, village,...","adminCodes1":{"ISO3166_2":"MO"},"countryName":"United States","fcodeName":"populated place","adminName1":"Missouri","lat":"39.3706","fcode":"PPL"},{"adminCode1":"MD","lng":"-76.94303","geonameId":4351715,"toponymName":"Clarksville","countryId":"6252001","fcl":"P","population":0,"countryCode":"US","name":"Clarksville","fclName":"city, village,...","adminCodes1":{"ISO3166_2":"MD"},"countryName":"United States","fcodeName":"populated place","adminName1":"Maryland","lat":"39.2065","fcode":"PPL"},{"adminCode1":"TX","lng":"-95.06333","geonameId":6297630,"toponymName":"Clarksville, Clarksville-Red River County Airport","countryId":"6252001","fcl":"S","population":0,"countryCode":"US","name":"Clarksville, Clarksville-Red River County Airport","fclName":"spot, building, farm","adminCodes1":{"ISO3166_2":"TX"},"countryName":"United States","fcodeName":"airport","adminName1":"Texas","lat":"33.59306","fcode":"AIRP"},{"adminCode1":"VA","lng":"-78.55694","geonameId":4752994,"toponymName":"Clarksville","countryId":"6252001","fcl":"P","population":1204,"countryCode":"US","name":"Clarksville","fclName":"city, village,...","adminCodes1":{"ISO3166_2":"VA"},"countryName":"United States","fcodeName":"populated place","adminName1":"Virginia","lat":"36.62403","fcode":"PPL"},{"adminCode1":"NY","lng":"-78.24307","geonameId":5143750,"toponymName":"West Clarksville","countryId":"6252001","fcl":"P","population":0,"countryCode":"US","name":"West Clarksville","fclName":"city, village,...","adminCodes1":{"ISO3166_2":"NY"},"countryName":"United States","fcodeName":"populated place","adminName1":"New York","lat":"42.12812","fcode":"PPL"},{"adminCode1":"AR","lng":"-93.43309","geonameId":4105886,"toponymName":"Clarksville Municipal Airport","countryId":"6252001","fcl":"S","population":0,"countryCode":"US","name":"Clarksville Municipal Airport","fclName":"spot, building, farm","adminCodes1":{"ISO3166_2":"AR"},"countryName":"United States","fcodeName":"airport","adminName1":"Arkansas","lat":"35.4703","fcode":"AIRP"},{"adminCode1":"FL","lng":"-85.18603","geonameId":4151229,"toponymName":"Clarksville","countryId":"6252001","fcl":"P","population":0,"countryCode":"US","name":"Clarksville","fclName":"city, village,...","adminCodes1":{"ISO3166_2":"FL"},"countryName":"United States","fcodeName":"populated place","adminName1":"Florida","lat":"30.43686","fcode":"PPL"},{"adminCode1":"MI","lng":"-85.24251","geonameId":4988999,"toponymName":"Clarksville","countryId":"6252001","fcl":"P","population":399,"countryCode":"US","name":"Clarksville","fclName":"city, village,...","adminCodes1":{"ISO3166_2":"MI"},"countryName":"United States","fcodeName":"populated place","adminName1":"Michigan","lat":"42.84226","fcode":"PPL"},{"adminCode1":"MS","lng":"-90.57093","geonameId":4421935,"toponymName":"Clarksdale","countryId":"6252001","fcl":"P","population":16847,"countryCode":"US","name":"Clarksdale","fclName":"city, village,...","adminCodes1":{"ISO3166_2":"MS"},"countryName":"United States","fcodeName":"seat of a second-order administrative division","adminName1":"Mississippi","lat":"34.20011","fcode":"PPLA2"},{"adminCode1":"TN","lng":"-87.41473","geonameId":4647512,"toponymName":"Outlaw Field","countryId":"6252001","fcl":"S","population":0,"countryCode":"US","name":"Outlaw Field","fclName":"spot, building, farm","adminCodes1":{"ISO3166_2":"TN"},"countryName":"United States","fcodeName":"airport","adminName1":"Tennessee","lat":"36.62171","fcode":"AIRP"},{"adminCode1":"IL","lng":"-87.79781","geonameId":4235974,"toponymName":"Clarksville","countryId":"6252001","fcl":"P","population":0,"countryCode":"US","name":"Clarksville","fclName":"city, village,...","adminCodes1":{"ISO3166_2":"IL"},"countryName":"United States","fcodeName":"populated place","adminName1":"Illinois","lat":"39.4517","fcode":"PPL"},{"adminCode1":"ID","lng":"-116.73297","geonameId":5588949,"toponymName":"Clarksville","countryId":"6252001","fcl":"P","population":0,"countryCode":"US","name":"Clarksville","fclName":"city, village,...","adminCodes1":{"ISO3166_2":"ID"},"countryName":"United States","fcodeName":"populated place","adminName1":"Idaho","lat":"47.75379","fcode":"PPL"},{"adminCode1":"NE","lng":"-97.8485","geonameId":5065792,"toponymName":"Township of Clarksville","countryId":"6252001","fcl":"A","population":0,"countryCode":"US","name":"Clarksville Township","fclName":"country, state, region,...","adminCodes1":{"ISO3166_2":"NE"},"countryName":"United States","fcodeName":"third-order administrative division","adminName1":"Nebraska","lat":"41.25112","fcode":"ADM3"},{"adminCode1":"NE","lng":"-97.83589","geonameId":5065764,"toponymName":"Clarks","countryId":"6252001","fcl":"P","population":353,"countryCode":"US","name":"Clarks","fclName":"city, village,...","adminCodes1":{"ISO3166_2":"NE"},"countryName":"United States","fcodeName":"populated place","adminName1":"Nebraska","lat":"41.21529","fcode":"PPL"},{"adminCode1":"TX","lng":"-95.05272","geonameId":4681758,"toponymName":"Clarksville","countryId":"6252001","fcl":"P","population":3187,"countryCode":"US","name":"Clarksville","fclName":"city, village,...","adminCodes1":{"ISO3166_2":"TX"},"countryName":"United States","fcodeName":"seat of a second-order administrative division","adminName1":"Texas","lat":"33.61066","fcode":"PPLA2"},{"adminCode1":"TX","lng":"-94.90299","geonameId":4681760,"toponymName":"Clarksville City","countryId":"6252001","fcl":"P","population":879,"countryCode":"US","name":"Clarksville City","fclName":"city, village,...","adminCodes1":{"ISO3166_2":"TX"},"countryName":"United States","fcodeName":"populated place","adminName1":"Texas","lat":"32.52959","fcode":"PPL"},{"adminCode1":"DE","lng":"-75.14768","geonameId":4141971,"toponymName":"Clarksville","countryId":"6252001","fcl":"P","population":0,"countryCode":"US","name":"Clarksville","fclName":"city, village,...","adminCodes1":{"ISO3166_2":"DE"},"countryName":"United States","fcodeName":"populated place","adminName1":"Delaware","lat":"38.549","fcode":"PPL"},{"adminCode1":"OK","lng":"-95.51414","geonameId":4050168,"toponymName":"Clarksville","countryId":"6252001","fcl":"P","population":0,"countryCode":"US","name":"Clarksville","fclName":"city, village,...","adminCodes1":{"ISO3166_2":"OK"},"countryName":"United States","fcodeName":"populated place","adminName1":"Oklahoma","lat":"35.82566","fcode":"PPL"},{"adminCode1":"MD","lng":"-76.94294","geonameId":4353368,"toponymName":"District 5, Clarksville","countryId":"6252001","fcl":"A","population":0,"countryCode":"US","name":"District 5, Clarksville","fclName":"country, state, region,...","adminCodes1":{"ISO3166_2":"MD"},"countryName":"United States","fcodeName":"administrative division","adminName1":"Maryland","lat":"39.20335","fcode":"ADMD"},{"adminCode1":"TX","lng":"-94.89449","geonameId":11788914,"toponymName":"City of Clarksville City","countryId":"6252001","fcl":"A","population":0,"countryCode":"US","name":"City of Clarksville City","fclName":"country, state, region,...","adminCodes1":{"ISO3166_2":"TX"},"countryName":"United States","fcodeName":"third-order administrative division","adminName1":"Texas","lat":"32.53283","fcode":"ADM3"},{"adminCode1":"GA","lng":"-83.52489","geonameId":4188197,"toponymName":"Clarkesville","countryId":"6252001","fcl":"P","population":1746,"countryCode":"US","name":"Clarkesville","fclName":"city, village,...","adminCodes1":{"ISO3166_2":"GA"},"countryName":"United States","fcodeName":"seat of a second-order administrative division","adminName1":"Georgia","lat":"34.6126","fcode":"PPLA2"},{"adminCode1":"IN","lng":"-86.72501","geonameId":4919059,"toponymName":"Clarks Hill","countryId":"6252001","fcl":"P","population":677,"countryCode":"US","name":"Clarks Hill","fclName":"city, village,...","adminCodes1":{"ISO3166_2":"IN"},"countryName":"United States","fcodeName":"populated place","adminName1":"Indiana","lat":"40.24698","fcode":"PPL"},{"adminCode1":"VA","lng":"-78.56518","geonameId":7161578,"toponymName":"Town of Clarksville","countryId":"6252001","fcl":"A","population":1139,"countryCode":"US","name":"Town of Clarksville","fclName":"country, state, region,...","adminCodes1":{"ISO3166_2":"VA"},"countryName":"United States","fcodeName":"administrative division","adminName1":"Virginia","lat":"36.61999","fcode":"ADMD"},{"adminCode1":"MO","lng":"-90.90485","geonameId":7162973,"toponymName":"City of Clarksville","countryId":"6252001","fcl":"A","population":442,"countryCode":"US","name":"City of Clarksville","fclName":"country, state, region,...","adminCodes1":{"ISO3166_2":"MO"},"countryName":"United States","fcodeName":"administrative division","adminName1":"Missouri","lat":"39.36931","fcode":"ADMD"},{"adminCode1":"IN","lng":"-85.76747","geonameId":7164614,"toponymName":"Town of Clarksville","countryId":"6252001","fcl":"A","population":21724,"countryCode":"US","name":"Town of Clarksville","fclName":"country, state, region,...","adminCodes1":{"ISO3166_2":"IN"},"countryName":"United States","fcodeName":"administrative division","adminName1":"Indiana","lat":"38.32213","fcode":"ADMD"},{"adminCode1":"OH","lng":"-83.98283","geonameId":7165390,"toponymName":"Village of Clarksville","countryId":"6252001","fcl":"A","population":548,"countryCode":"US","name":"Village of Clarksville","fclName":"country, state, region,...","adminCodes1":{"ISO3166_2":"OH"},"countryName":"United States","fcodeName":"administrative division","adminName1":"Ohio","lat":"39.40165","fcode":"ADMD"},{"adminCode1":"MI","lng":"-85.24254","geonameId":7165391,"toponymName":"Village of Clarksville","countryId":"6252001","fcl":"A","population":394,"countryCode":"US","name":"Village of Clarksville","fclName":"country, state, region,...","adminCodes1":{"ISO3166_2":"MI"},"countryName":"United States","fcodeName":"administrative division","adminName1":"Michigan","lat":"42.84209","fcode":"ADMD"},{"adminCode1":"IA","lng":"-92.66801","geonameId":7316689,"toponymName":"City of Clarksville","countryId":"6252001","fcl":"A","population":1439,"countryCode":"US","name":"City of Clarksville","fclName":"country, state, region,...","adminCodes1":{"ISO3166_2":"IA"},"countryName":"United States","fcodeName":"administrative division","adminName1":"Iowa","lat":"42.77999","fcode":"ADMD"},{"adminCode1":"AR","lng":"-93.48081","geonameId":7317794,"toponymName":"City of Clarksville","countryId":"6252001","fcl":"A","population":9178,"countryCode":"US","name":"City of Clarksville","fclName":"country, state, region,...","adminCodes1":{"ISO3166_2":"AR"},"countryName":"United States","fcodeName":"administrative division","adminName1":"Arkansas","lat":"35.4567","fcode":"ADMD"},{"adminCode1":"TN","lng":"-87.34277","geonameId":7317795,"toponymName":"City of Clarksville","countryId":"6252001","fcl":"A","population":132929,"countryCode":"US","name":"City of Clarksville","fclName":"country, state, region,...","adminCodes1":{"ISO3166_2":"TN"},"countryName":"United States","fcodeName":"administrative division","adminName1":"Tennessee","lat":"36.5697","fcode":"ADMD"},{"adminCode1":"TN","lng":"-87.26806","geonameId":4613879,"toponymName":"Clarksville-Montgomery County Corporate Business Park","countryId":"6252001","fcl":"L","population":0,"countryCode":"US","name":"Clarksville-Montgomery County Corporate Business Park","fclName":"parks,area, ...","adminCodes1":{"ISO3166_2":"TN"},"countryName":"United States","fcodeName":"industrial area","adminName1":"Tennessee","lat":"36.58755","fcode":"INDS"},{"adminCode1":"MO","lng":"-90.9368","geonameId":4381425,"toponymName":"Clarksville State Game Refuge","countryId":"6252001","fcl":"L","population":0,"countryCode":"US","name":"Clarksville State Game Refuge","fclName":"parks,area, ...","adminCodes1":{"ISO3166_2":"MO"},"countryName":"United States","fcodeName":"park","adminName1":"Missouri","lat":"39.38338","fcode":"PRK"},{"adminCode1":"MD","lng":"-76.91775","geonameId":4351717,"toponymName":"Clarksville Environmental Area","countryId":"6252001","fcl":"L","population":0,"countryCode":"US","name":"Clarksville Environmental Area","fclName":"parks,area, ...","adminCodes1":{"ISO3166_2":"MD"},"countryName":"United States","fcodeName":"park","adminName1":"Maryland","lat":"39.224","fcode":"PRK"},{"adminCode1":"AR","lng":"-93.48241","geonameId":4105881,"toponymName":"Clarksville City Park","countryId":"6252001","fcl":"L","population":0,"countryCode":"US","name":"Clarksville City Park","fclName":"parks,area, ...","adminCodes1":{"ISO3166_2":"AR"},"countryName":"United States","fcodeName":"park","adminName1":"Arkansas","lat":"35.47092","fcode":"PRK"},{"adminCode1":"AR","lng":"-93.51852","geonameId":4105883,"toponymName":"Clarksville Gas Field","countryId":"6252001","fcl":"L","population":0,"countryCode":"US","name":"Clarksville Gas Field","fclName":"parks,area, ...","adminCodes1":{"ISO3166_2":"AR"},"countryName":"United States","fcodeName":"oilfield","adminName1":"Arkansas","lat":"35.52453","fcode":"OILF"},{"adminCode1":"NC","lng":"-80.63563","geonameId":4460909,"toponymName":"Township of Clarksville","countryId":"6252001","fcl":"A","population":0,"countryCode":"US","name":"Clarksville Township","fclName":"country, state, region,...","adminCodes1":{"ISO3166_2":"NC"},"countryName":"United States","fcodeName":"third-order administrative division","adminName1":"North Carolina","lat":"36.00088","fcode":"ADM3"},{"adminCode1":"NY","lng":"-73.96402","geonameId":5112846,"toponymName":"Clarksville","countryId":"6252001","fcl":"P","population":0,"countryCode":"US","name":"Clarksville","fclName":"city, village,...","adminCodes1":{"ISO3166_2":"NY"},"countryName":"United States","fcodeName":"populated place","adminName1":"New York","lat":"42.57591","fcode":"PPL"},{"adminCode1":"TX","lng":"-95.05612","geonameId":7172865,"toponymName":"City of Clarksville","countryId":"6252001","fcl":"A","population":3285,"countryCode":"US","name":"City of Clarksville","fclName":"country, state, region,...","adminCodes1":{"ISO3166_2":"TX"},"countryName":"United States","fcodeName":"third-order administrative division","adminName1":"Texas","lat":"33.61098","fcode":"ADM3"},{"adminCode1":"PA","lng":"-80.0439","geonameId":4557203,"toponymName":"Borough of Clarksville","countryId":"6252001","fcl":"A","population":230,"countryCode":"US","name":"Borough of Clarksville","fclName":"country, state, region,...","adminCodes1":{"ISO3166_2":"PA"},"countryName":"United States","fcodeName":"third-order administrative division","adminName1":"Pennsylvania","lat":"39.9744","fcode":"ADM3"},{"adminCode1":"NJ","lng":"-74.94072","geonameId":5098425,"toponymName":"Glen Gardner","countryId":"6252001","fcl":"P","population":1663,"countryCode":"US","name":"Glen Gardner","fclName":"city, village,...","adminCodes1":{"ISO3166_2":"NJ"},"countryName":"United States","fcodeName":"populated place","adminName1":"New Jersey","lat":"40.69677","fcode":"PPL"},{"adminCode1":"CA","lng":"-121.05244","geonameId":5337808,"toponymName":"Clarksville","countryId":"6252001","fcl":"P","population":0,"countryCode":"US","name":"Clarksville","fclName":"city, village,...","adminCodes1":{"ISO3166_2":"CA"},"countryName":"United States","fcodeName":"section of populated place","adminName1":"California","lat":"38.6549","fcode":"PPLX"},{"adminCode1":"OH","lng":"-84.76801","geonameId":5150453,"toponymName":"Clarksville (historical)","countryId":"6252001","fcl":"P","population":0,"countryCode":"US","name":"Clarksville (historical)","fclName":"city, village,...","adminCodes1":{"ISO3166_2":"OH"},"countryName":"United States","fcodeName":"abandoned populated place","adminName1":"Ohio","lat":"41.42227","fcode":"PPLQ"},{"adminCode1":"IL","lng":"-90.7518","geonameId":4910892,"toponymName":"Sciota","countryId":"6252001","fcl":"P","population":59,"countryCode":"US","name":"Sciota","fclName":"city, village,...","adminCodes1":{"ISO3166_2":"IL"},"countryName":"United States","fcodeName":"populated place","adminName1":"Illinois","lat":"40.56087","fcode":"PPL"},{"adminCode1":"NY","lng":"-73.97292","geonameId":5143946,"toponymName":"West Nyack","countryId":"6252001","fcl":"P","population":3439,"countryCode":"US","name":"West Nyack","fclName":"city, village,...","adminCodes1":{"ISO3166_2":"NY"},"countryName":"United States","fcodeName":"populated place","adminName1":"New York","lat":"41.09649","fcode":"PPL"},{"adminCode1":"NH","lng":"-71.3143","geonameId":5084675,"toponymName":"Town of Clarksville","countryId":"6252001","fcl":"A","population":249,"countryCode":"US","name":"Town of Clarksville","fclName":"country, state, region,...","adminCodes1":{"ISO3166_2":"NH"},"countryName":"United States","fcodeName":"third-order administrative division","adminName1":"New Hampshire","lat":"45.00976","fcode":"ADM3"},{"adminCode1":"NY","lng":"-78.24985","geonameId":5112848,"toponymName":"Town of Clarksville","countryId":"6252001","fcl":"A","population":0,"countryCode":"US","name":"Town of Clarksville","fclName":"country, state, region,...","adminCodes1":{"ISO3166_2":"NY"},"countryName":"United States","fcodeName":"third-order administrative division","adminName1":"New York","lat":"42.13001","fcode":"ADM3"},{"adminCode1":"AL","lng":"-87.89306","geonameId":4055639,"toponymName":"Clarksville","countryId":"6252001","fcl":"P","population":0,"countryCode":"US","name":"Clarksville","fclName":"city, village,...","adminCodes1":{"ISO3166_2":"AL"},"countryName":"United States","fcodeName":"populated place","adminName1":"Alabama","lat":"31.72905","fcode":"PPL"},{"adminCode1":"NH","lng":"-71.39393","geonameId":5084672,"toponymName":"Clarksville Pond","countryId":"6252001","fcl":"H","population":0,"countryCode":"US","name":"Clarksville Pond","fclName":"stream, lake, ...","adminCodes1":{"ISO3166_2":"NH"},"countryName":"United States","fcodeName":"lake","adminName1":"New Hampshire","lat":"45.00156","fcode":"LK"},{"adminCode1":"PA","lng":"-80.42757","geonameId":5184434,"toponymName":"Clark","countryId":"6252001","fcl":"P","population":630,"countryCode":"US","name":"Clark","fclName":"city, village,...","adminCodes1":{"ISO3166_2":"PA"},"countryName":"United States","fcodeName":"populated place","adminName1":"Pennsylvania","lat":"41.28617","fcode":"PPL"},{"adminCode1":"NH","lng":"-71.41314","geonameId":5084674,"toponymName":"Clarksville Town Hall","countryId":"6252001","fcl":"S","population":0,"countryCode":"US","name":"Clarksville Town Hall","fclName":"spot, building, farm","adminCodes1":{"ISO3166_2":"NH"},"countryName":"United States","fcodeName":"","adminName1":"New Hampshire","lat":"45.01782"},{"adminCode1":"TN","lng":"-87.36362","geonameId":4613869,"toponymName":"Clarksville Academy","countryId":"6252001","fcl":"S","population":0,"countryCode":"US","name":"Clarksville Academy","fclName":"spot, building, farm","adminCodes1":{"ISO3166_2":"TN"},"countryName":"United States","fcodeName":"school","adminName1":"Tennessee","lat":"36.53838","fcode":"SCH"},{"adminCode1":"TN","lng":"-87.27695","geonameId":4613876,"toponymName":"Clarksville High School","countryId":"6252001","fcl":"S","population":0,"countryCode":"US","name":"Clarksville High School","fclName":"spot, building, farm","adminCodes1":{"ISO3166_2":"TN"},"countryName":"United States","fcodeName":"school","adminName1":"Tennessee","lat":"36.51616","fcode":"SCH"},{"adminCode1":"MD","lng":"-76.92909","geonameId":4351716,"toponymName":"Clarksville Elementary School","countryId":"6252001","fcl":"S","population":0,"countryCode":"US","name":"Clarksville Elementary School","fclName":"spot, building, farm","adminCodes1":{"ISO3166_2":"MD"},"countryName":"United States","fcodeName":"school","adminName1":"Maryland","lat":"39.21865","fcode":"SCH"},{"adminCode1":"MD","lng":"-76.92413","geonameId":4351720,"toponymName":"Clarksville Middle School","countryId":"6252001","fcl":"S","population":0,"countryCode":"US","name":"Clarksville Middle School","fclName":"spot, building, farm","adminCodes1":{"ISO3166_2":"MD"},"countryName":"United States","fcodeName":"school","adminName1":"Maryland","lat":"39.19031","fcode":"SCH"},{"adminCode1":"AR","lng":"-93.48349","geonameId":4105884,"toponymName":"Clarksville High School","countryId":"6252001","fcl":"S","population":0,"countryCode":"US","name":"Clarksville High School","fclName":"spot, building, farm","adminCodes1":{"ISO3166_2":"AR"},"countryName":"United States","fcodeName":"school","adminName1":"Arkansas","lat":"35.46059","fcode":"SCH"},{"adminCode1":"IN","lng":"-85.76663","geonameId":4255839,"toponymName":"Clarksville Senior High School","countryId":"6252001","fcl":"S","population":0,"countryCode":"US","name":"Clarksville Senior High School","fclName":"spot, building, farm","adminCodes1":{"ISO3166_2":"IN"},"countryName":"United States","fcodeName":"school","adminName1":"Indiana","lat":"38.29868","fcode":"SCH"},{"adminCode1":"FL","lng":"-85.17855","geonameId":4151231,"toponymName":"Clarksville Airport","countryId":"6252001","fcl":"S","population":0,"countryCode":"US","name":"Clarksville Airport","fclName":"spot, building, farm","adminCodes1":{"ISO3166_2":"FL"},"countryName":"United States","fcodeName":"airport","adminName1":"Florida","lat":"30.46422","fcode":"AIRP"},{"adminCode1":"IL","lng":"-89.47092","geonameId":4233634,"toponymName":"Berry","countryId":"6252001","fcl":"P","population":0,"countryCode":"US","name":"Berry","fclName":"city, village,...","adminCodes1":{"ISO3166_2":"IL"},"countryName":"United States","fcodeName":"populated place","adminName1":"Illinois","lat":"39.7131","fcode":"PPL"},{"adminCode1":"NC","lng":"-75.47293","geonameId":4490028,"toponymName":"Salvo","countryId":"6252001","fcl":"P","population":229,"countryCode":"US","name":"Salvo","fclName":"city, village,...","adminCodes1":{"ISO3166_2":"NC"},"countryName":"United States","fcodeName":"populated place","adminName1":"North Carolina","lat":"35.54018","fcode":"PPL"},{"adminCode1":"SD","lng":"-98.40954","geonameId":5228523,"toponymName":"Hitchcock","countryId":"6252001","fcl":"P","population":95,"countryCode":"US","name":"Hitchcock","fclName":"city, village,...","adminCodes1":{"ISO3166_2":"SD"},"countryName":"United States","fcodeName":"populated place","adminName1":"South Dakota","lat":"44.6297","fcode":"PPL"},{"adminCode1":"IA","lng":"-92.66606","geonameId":4851854,"toponymName":"Clarksville Elementary School","countryId":"6252001","fcl":"S","population":0,"countryCode":"US","name":"Clarksville Elementary School","fclName":"spot, building, farm","adminCodes1":{"ISO3166_2":"IA"},"countryName":"United States","fcodeName":"school","adminName1":"Iowa","lat":"42.78703","fcode":"SCH"},{"adminCode1":"TX","lng":"-95.05717","geonameId":4681762,"toponymName":"Clarksville High School","countryId":"6252001","fcl":"S","population":0,"countryCode":"US","name":"Clarksville High School","fclName":"spot, building, farm","adminCodes1":{"ISO3166_2":"TX"},"countryName":"United States","fcodeName":"school","adminName1":"Texas","lat":"33.60955","fcode":"SCH"},{"adminCode1":"AL","lng":"-86.50888","geonameId":4055642,"toponymName":"Clarksville Mountain","countryId":"6252001","fcl":"T","population":0,"countryCode":"US","name":"Clarksville Mountain","fclName":"mountain,hill,rock,... ","adminCodes1":{"ISO3166_2":"AL"},"countryName":"United States","fcodeName":"mountain","adminName1":"Alabama","lat":"34.47731","fcode":"MT"},{"adminCode1":"TN","lng":"-87.40501","geonameId":4659056,"toponymName":"Southaven","countryId":"6252001","fcl":"P","population":0,"countryCode":"US","name":"Southaven","fclName":"city, village,...","adminCodes1":{"ISO3166_2":"TN"},"countryName":"United States","fcodeName":"section of populated place","adminName1":"Tennessee","lat":"36.56505","fcode":"PPLX"},{"adminCode1":"SD","lng":"-97.78285","geonameId":5225919,"toponymName":"Alexandria","countryId":"6252001","fcl":"P","population":623,"countryCode":"US","name":"Alexandria","fclName":"city, village,...","adminCodes1":{"ISO3166_2":"SD"},"countryName":"United States","fcodeName":"seat of a second-order administrative division","adminName1":"South Dakota","lat":"43.65359","fcode":"PPLA2"},{"adminCode1":"NY","lng":"-74.83987","geonameId":5126833,"toponymName":"Middlefield","countryId":"6252001","fcl":"P","population":0,"countryCode":"US","name":"Middlefield","fclName":"city, village,...","adminCodes1":{"ISO3166_2":"NY"},"countryName":"United States","fcodeName":"populated place","adminName1":"New York","lat":"42.6873","fcode":"PPL"},{"adminCode1":"MD","lng":"-76.93933","geonameId":6341703,"toponymName":"Howard County Fire and Rescue Station 5 - Clarksville","countryId":"6252001","fcl":"S","population":0,"countryCode":"US","name":"Howard County Fire and Rescue Station 5 - Clarksville","fclName":"spot, building, farm","adminCodes1":{"ISO3166_2":"MD"},"countryName":"United States","fcodeName":"building(s)","adminName1":"Maryland","lat":"39.2078","fcode":"BLDG"},{"adminCode1":"OR","lng":"-117.67993","geonameId":5719384,"toponymName":"Clarksville","countryId":"6252001","fcl":"P","population":0,"countryCode":"US","name":"Clarksville","fclName":"city, village,...","adminCodes1":{"ISO3166_2":"OR"},"countryName":"United States","fcodeName":"populated place","adminName1":"Oregon","lat":"44.49127","fcode":"PPL"},{"adminCode1":"OH","lng":"-82.29126","geonameId":4508849,"toponymName":"Clarksville","countryId":"6252001","fcl":"P","population":499,"countryCode":"US","name":"Clarksville","fclName":"city, village,...","adminCodes1":{"ISO3166_2":"OH"},"countryName":"United States","fcodeName":"populated place","adminName1":"Ohio","lat":"39.70535","fcode":"PPL"},{"adminCode1":"VA","lng":"-81.76512","geonameId":4752995,"toponymName":"Clarksville","countryId":"6252001","fcl":"P","population":0,"countryCode":"US","name":"Clarksville","fclName":"city, village,...","adminCodes1":{"ISO3166_2":"VA"},"countryName":"United States","fcodeName":"populated place","adminName1":"Virginia","lat":"36.79873","fcode":"PPL"},{"adminCode1":"MD","lng":"-76.90998","geonameId":4351719,"toponymName":"Clarksville Meadows","countryId":"6252001","fcl":"P","population":0,"countryCode":"US","name":"Clarksville Meadows","fclName":"city, village,...","adminCodes1":{"ISO3166_2":"MD"},"countryName":"United States","fcodeName":"populated place","adminName1":"Maryland","lat":"39.189","fcode":"PPL"},{"adminCode1":"MD","lng":"-76.9122","geonameId":4351722,"toponymName":"Clarksville Ridge","countryId":"6252001","fcl":"P","population":0,"countryCode":"US","name":"Clarksville Ridge","fclName":"city, village,...","adminCodes1":{"ISO3166_2":"MD"},"countryName":"United States","fcodeName":"populated place","adminName1":"Maryland","lat":"39.18455","fcode":"PPL"},{"adminCode1":"IL","lng":"-90.88263","geonameId":4235976,"toponymName":"Clarksville Island","countryId":"6252001","fcl":"T","population":0,"countryCode":"US","name":"Clarksville Island","fclName":"mountain,hill,rock,... ","adminCodes1":{"ISO3166_2":"IL"},"countryName":"United States","fcodeName":"island","adminName1":"Illinois","lat":"39.36949","fcode":"ISL"},{"adminCode1":"FL","lng":"-81.48425","geonameId":4151230,"toponymName":"Clarksville","countryId":"6252001","fcl":"P","population":0,"countryCode":"US","name":"Clarksville","fclName":"city, village,...","adminCodes1":{"ISO3166_2":"FL"},"countryName":"United States","fcodeName":"populated place","adminName1":"Florida","lat":"30.12108","fcode":"PPL"},{"adminCode1":"IL","lng":"-88.8484","geonameId":4888125,"toponymName":"Clarksville","countryId":"6252001","fcl":"P","population":0,"countryCode":"US","name":"Clarksville","fclName":"city, village,...","adminCodes1":{"ISO3166_2":"IL"},"countryName":"United States","fcodeName":"populated place","adminName1":"Illinois","lat":"40.65059","fcode":"PPL"},{"adminCode1":"IN","lng":"-85.91248","geonameId":4919063,"toponymName":"Clarksville","countryId":"6252001","fcl":"P","population":0,"countryCode":"US","name":"Clarksville","fclName":"city, village,...","adminCodes1":{"ISO3166_2":"IN"},"countryName":"United States","fcodeName":"populated place","adminName1":"Indiana","lat":"40.03226","fcode":"PPL"},{"adminCode1":"NY","lng":"-73.9548","geonameId":7186784,"toponymName":"Clarksville Elementary School","countryId":"6252001","fcl":"S","population":0,"countryCode":"US","name":"Clarksville Elementary School","fclName":"spot, building, farm","adminCodes1":{"ISO3166_2":"NY"},"countryName":"United States","fcodeName":"school","adminName1":"New York","lat":"42.5769","fcode":"SCH"},{"adminCode1":"CT","lng":"-71.84451","geonameId":5284186,"toponymName":"Clarks Village","countryId":"6252001","fcl":"P","population":0,"countryCode":"US","name":"Clarks Village","fclName":"city, village,...","adminCodes1":{"ISO3166_2":"CT"},"countryName":"United States","fcodeName":"populated place","adminName1":"Connecticut","lat":"41.36038","fcode":"PPL"},{"adminCode1":"NE","lng":"-97.84172","geonameId":5065768,"toponymName":"Clarks Public Schools","countryId":"6252001","fcl":"S","population":0,"countryCode":"US","name":"Clarks Public Schools","fclName":"spot, building, farm","adminCodes1":{"ISO3166_2":"NE"},"countryName":"United States","fcodeName":"school","adminName1":"Nebraska","lat":"41.2189","fcode":"SCH"},{"adminCode1":"PA","lng":"-80.03894","geonameId":4557202,"toponymName":"Clarksville Hill","countryId":"6252001","fcl":"P","population":0,"countryCode":"US","name":"Clarksville Hill","fclName":"city, village,...","adminCodes1":{"ISO3166_2":"PA"},"countryName":"United States","fcodeName":"populated place","adminName1":"Pennsylvania","lat":"39.9823","fcode":"PPL"},{"adminCode1":"NJ","lng":"-74.94322","geonameId":5096664,"toponymName":"Clarksville","countryId":"6252001","fcl":"P","population":0,"countryCode":"US","name":"Clarksville","fclName":"city, village,...","adminCodes1":{"ISO3166_2":"NJ"},"countryName":"United States","fcodeName":"populated place","adminName1":"New Jersey","lat":"40.70149","fcode":"PPL"},{"adminCode1":"NJ","lng":"-74.68016","geonameId":5096665,"toponymName":"Clarksville","countryId":"6252001","fcl":"P","population":0,"countryCode":"US","name":"Clarksville","fclName":"city, village,...","adminCodes1":{"ISO3166_2":"NJ"},"countryName":"United States","fcodeName":"populated place","adminName1":"New Jersey","lat":"40.2965","fcode":"PPL"},{"adminCode1":"VT","lng":"-72.84871","geonameId":5239210,"toponymName":"North Landgrove","countryId":"6252001","fcl":"P","population":0,"countryCode":"US","name":"North Landgrove","fclName":"city, village,...","adminCodes1":{"ISO3166_2":"VT"},"countryName":"United States","fcodeName":"populated place","adminName1":"Vermont","lat":"43.2598","fcode":"PPL"},{"adminCode1":"VT","lng":"-72.81343","geonameId":5242199,"toponymName":"Utley Brook","countryId":"6252001","fcl":"H","population":0,"countryCode":"US","name":"Utley Brook","fclName":"stream, lake, ...","adminCodes1":{"ISO3166_2":"VT"},"countryName":"United States","fcodeName":"stream","adminName1":"Vermont","lat":"43.22785","fcode":"STM"},{"adminCode1":"MI","lng":"-85.23473","geonameId":4991340,"toponymName":"Dunkard Cemetery","countryId":"6252001","fcl":"S","population":0,"countryCode":"US","name":"Dunkard Cemetery","fclName":"spot, building, farm","adminCodes1":{"ISO3166_2":"MI"},"countryName":"United States","fcodeName":"cemetery","adminName1":"Michigan","lat":"42.77003","fcode":"CMTY"},{"adminCode1":"NH","lng":"-71.40675","geonameId":5091250,"toponymName":"Pittsburg-Clarksville Bridge","countryId":"6252001","fcl":"S","population":0,"countryCode":"US","name":"Pittsburg-Clarksville Bridge","fclName":"spot, building, farm","adminCodes1":{"ISO3166_2":"NH"},"countryName":"United States","fcodeName":"bridge","adminName1":"New Hampshire","lat":"45.05449","fcode":"BDG"},{"adminCode1":"PA","lng":"-80.04357","geonameId":8092719,"toponymName":"Clarksville Community Volunteer Fire Department","countryId":"6252001","fcl":"S","population":0,"countryCode":"US","name":"Clarksville Community Volunteer Fire Department","fclName":"spot, building, farm","adminCodes1":{"ISO3166_2":"PA"},"countryName":"United States","fcodeName":"building(s)","adminName1":"Pennsylvania","lat":"39.97401","fcode":"BLDG"},{"adminCode1":"NY","lng":"-78.2039","geonameId":5112847,"toponymName":"Clarksville Notch","countryId":"6252001","fcl":"T","population":0,"countryCode":"US","name":"Clarksville Notch","fclName":"mountain,hill,rock,... ","adminCodes1":{"ISO3166_2":"NY"},"countryName":"United States","fcodeName":"gap","adminName1":"New York","lat":"42.16368","fcode":"GAP"},{"adminCode1":"DE","lng":"-75.1029","geonameId":7160815,"toponymName":"Ocean View-Millville-Clarksville Post Office","countryId":"6252001","fcl":"S","population":0,"countryCode":"US","name":"Ocean View-Millville-Clarksville Post Office","fclName":"spot, building, farm","adminCodes1":{"ISO3166_2":"DE"},"countryName":"United States","fcodeName":"post office","adminName1":"Delaware","lat":"38.5458","fcode":"PO"},{"adminCode1":"AR","lng":"-93.46827","geonameId":7127910,"toponymName":"Clarksville Volunteer Fire Department","countryId":"6252001","fcl":"S","population":0,"countryCode":"US","name":"Clarksville Volunteer Fire Department","fclName":"spot, building, farm","adminCodes1":{"ISO3166_2":"AR"},"countryName":"United States","fcodeName":"building(s)","adminName1":"Arkansas","lat":"35.47064","fcode":"BLDG"},{"adminCode1":"VA","lng":"-76.75885","geonameId":4752998,"toponymName":"Clarksville Church","countryId":"6252001","fcl":"S","population":0,"countryCode":"US","name":"Clarksville Church","fclName":"spot, building, farm","adminCodes1":{"ISO3166_2":"VA"},"countryName":"United States","fcodeName":"church","adminName1":"Virginia","lat":"37.9693","fcode":"CH"},{"adminCode1":"RI","lng":"-71.79118","geonameId":5221485,"toponymName":"Clarkville","countryId":"6252001","fcl":"P","population":0,"countryCode":"US","name":"Clarkville","fclName":"city, village,...","adminCodes1":{"ISO3166_2":"RI"},"countryName":"United States","fcodeName":"populated place","adminName1":"Rhode Island","lat":"41.92232","fcode":"PPL"},{"adminCode1":"TN","lng":"-87.36223","geonameId":4613875,"toponymName":"Clarksville Foundry","countryId":"6252001","fcl":"S","population":0,"countryCode":"US","name":"Clarksville Foundry","fclName":"spot, building, farm","adminCodes1":{"ISO3166_2":"TN"},"countryName":"United States","fcodeName":"","adminName1":"Tennessee","lat":"36.52505"}]}
