{"totalResultsCount":56,"geonames":[{"adminCode1":"045","lng":"-66.22183","geonameId":4563921,"toponymName":"Comerío Municipio","countryId":"4566966","fcl":"A","population":20778,"countryCode":"PR","name":"Comerío","fclName":"country, state, region,...","adminCodes1":{},"countryName":"Puerto Rico","fcodeName":"first-order administrative division","adminName1":"Comerío","lat":"18.22718","fcode":"ADM1"},{"adminCode1":"045","lng":"-66.22442","geonameId":7268100,"toponymName":"Comerío Barrio-Pueblo","countryId":"4566966","fcl":"A","population":0,"countryCode":"PR","name":"Comerío Barrio-Pueblo","fclName":"country, state, region,...","adminCodes1":{},"countryName":"Puerto Rico","fcodeName":"second-order administrative division","adminName1":"Comerío","lat":"18.22027","fcode":"ADM2"},{"adminCode1":"045","lng":"-66.226","geonameId":4563919,"toponymName":"Comerío","countryId":"4566966","fcl":"P","population":4649,"countryCode":"PR","name":"Comerío","fclName":"city, village,...","adminCodes1":{},"countryName":"Puerto Rico","fcodeName":"seat of a first-order administrative division","adminName1":"Comerío","lat":"18.21801","fcode":"PPLA"},{"adminCode1":"045","lng":"-66.18949","geonameId":7268057,"toponymName":"Cejas Barrio","countryId":"4566966","fcl":"A","population":0,"countryCode":"PR","name":"Cejas Barrio","fclName":"country, state, region,...","adminCodes1":{},"countryName":"Puerto Rico","fcodeName":"second-order administrative division","adminName1":"Comerío","lat":"18.20879","fcode":"ADM2"},{"adminCode1":"045","lng":"-66.22289","geonameId":7268153,"toponymName":"Doña Elena Barrio","countryId":"4566966","fcl":"A","population":0,"countryCode":"PR","name":"Doña Elena Barrio","fclName":"country, state, region,...","adminCodes1":{},"countryName":"Puerto Rico","fcodeName":"second-order administrative division","adminName1":"Comerío","lat":"18.25251","fcode":"ADM2"},{"adminCode1":"045","lng":"-66.19635","geonameId":7268360,"toponymName":"Cedrito Barrio","countryId":"4566966","fcl":"A","population":0,"countryCode":"PR","name":"Cedrito Barrio","fclName":"country, state, region,...","adminCodes1":{},"countryName":"Puerto Rico","fcodeName":"second-order administrative division","adminName1":"Comerío","lat":"18.25425","fcode":"ADM2"},{"adminCode1":"045","lng":"-66.19207","geonameId":7268696,"toponymName":"Naranjo Barrio","countryId":"4566966","fcl":"A","population":0,"countryCode":"PR","name":"Naranjo Barrio","fclName":"country, state, region,...","adminCodes1":{},"countryName":"Puerto Rico","fcodeName":"second-order administrative division","adminName1":"Comerío","lat":"18.22884","fcode":"ADM2"},{"adminCode1":"045","lng":"-66.24293","geonameId":7268729,"toponymName":"Palomas Barrio","countryId":"4566966","fcl":"A","population":0,"countryCode":"PR","name":"Palomas Barrio","fclName":"country, state, region,...","adminCodes1":{},"countryName":"Puerto Rico","fcodeName":"second-order administrative division","adminName1":"Comerío","lat":"18.23307","fcode":"ADM2"},{"adminCode1":"045","lng":"-66.22627","geonameId":7268760,"toponymName":"Piñas Barrio","countryId":"4566966","fcl":"A","population":0,"countryCode":"PR","name":"Piñas Barrio","fclName":"country, state, region,...","adminCodes1":{},"countryName":"Puerto Rico","fcodeName":"second-order administrative division","adminName1":"Comerío","lat":"18.19509","fcode":"ADM2"},{"adminCode1":"045","lng":"-66.2514","geonameId":7268910,"toponymName":"Río Hondo Barrio","countryId":"4566966","fcl":"A","population":0,"countryCode":"PR","name":"Río Hondo Barrio","fclName":"country, state, region,...","adminCodes1":{},"countryName":"Puerto Rico","fcodeName":"second-order administrative division","adminName1":"Comerío","lat":"18.20819","fcode":"ADM2"},{"adminCode1":"045","lng":"-66.20951","geonameId":7269069,"toponymName":"Vega Redonda Barrio","countryId":"4566966","fcl":"A","population":0,"countryCode":"PR","name":"Vega Redonda Barrio","fclName":"country, state, region,...","adminCodes1":{},"countryName":"Puerto Rico","fcodeName":"second-order administrative division","adminName1":"Comerío","lat":"18.20638","fcode":"ADM2"},{"adminCode1":"045","lng":"-66.22822","geonameId":4563106,"toponymName":"Cancha Bajo Techo","countryId":"4566966","fcl":"L","population":0,"countryCode":"PR","name":"Cancha Bajo Techo","fclName":"parks,area, ...","adminCodes1":{},"countryName":"Puerto Rico","fcodeName":"park","adminName1":"Comerío","lat":"18.21579","fcode":"PRK"},{"adminCode1":"045","lng":"-66.25628","geonameId":4566497,"toponymName":"Palomas","countryId":"4566966","fcl":"P","population":1742,"countryCode":"PR","name":"Palomas","fclName":"city, village,...","adminCodes1":{},"countryName":"Puerto Rico","fcodeName":"populated place","adminName1":"Comerío","lat":"18.23246","fcode":"PPL"},{"adminCode1":"045","lng":"-66.20795","geonameId":4567138,"toponymName":"Quebrada Doña Elena","countryId":"4566966","fcl":"T","population":0,"countryCode":"PR","name":"Quebrada Doña Elena","fclName":"mountain,hill,rock,... ","adminCodes1":{},"countryName":"Puerto Rico","fcodeName":"valley","adminName1":"Comerío","lat":"18.2519","fcode":"VAL"},{"adminCode1":"045","lng":"-66.21517","geonameId":4567209,"toponymName":"Quebrada Higüera","countryId":"4566966","fcl":"T","population":0,"countryCode":"PR","name":"Quebrada Higüera","fclName":"mountain,hill,rock,... ","adminCodes1":{},"countryName":"Puerto Rico","fcodeName":"valley","adminName1":"Comerío","lat":"18.23551","fcode":"VAL"},{"adminCode1":"045","lng":"-66.22683","geonameId":4567405,"toponymName":"Quebrada Piña","countryId":"4566966","fcl":"T","population":0,"countryCode":"PR","name":"Quebrada Piña","fclName":"mountain,hill,rock,... ","adminCodes1":{},"countryName":"Puerto Rico","fcodeName":"valley","adminName1":"Comerío","lat":"18.21523","fcode":"VAL"},{"adminCode1":"045","lng":"-66.23961","geonameId":4567849,"toponymName":"Río Hondo","countryId":"4566966","fcl":"H","population":0,"countryCode":"PR","name":"Río Hondo","fclName":"stream, lake, ...","adminCodes1":{},"countryName":"Puerto Rico","fcodeName":"stream","adminName1":"Comerío","lat":"18.20357","fcode":"STM"},{"adminCode1":"045","lng":"-66.22456","geonameId":7276422,"toponymName":"Comerío Zona Urbana","countryId":"4566966","fcl":"P","population":0,"countryCode":"PR","name":"Comerío Zona Urbana","fclName":"city, village,...","adminCodes1":{},"countryName":"Puerto Rico","fcodeName":"populated place","adminName1":"Comerío","lat":"18.22007","fcode":"PPL"},{"adminCode1":"045","lng":"-66.22267","geonameId":4563947,"toponymName":"Comunidad Las Casitas","countryId":"4566966","fcl":"P","population":0,"countryCode":"PR","name":"Comunidad Las Casitas","fclName":"city, village,...","adminCodes1":{},"countryName":"Puerto Rico","fcodeName":"populated place","adminName1":"Comerío","lat":"18.22023","fcode":"PPL"},{"adminCode1":"045","lng":"-66.231","geonameId":4565771,"toponymName":"La Hacienda","countryId":"4566966","fcl":"P","population":0,"countryCode":"PR","name":"La Hacienda","fclName":"city, village,...","adminCodes1":{},"countryName":"Puerto Rico","fcodeName":"populated place","adminName1":"Comerío","lat":"18.21523","fcode":"PPL"},{"adminCode1":"045","lng":"-66.22906","geonameId":4566256,"toponymName":"Minima La Plata","countryId":"4566966","fcl":"P","population":0,"countryCode":"PR","name":"Minima La Plata","fclName":"city, village,...","adminCodes1":{},"countryName":"Puerto Rico","fcodeName":"populated place","adminName1":"Comerío","lat":"18.21551","fcode":"PPL"},{"adminCode1":"045","lng":"-66.22239","geonameId":4567694,"toponymName":"Residencial Manuel Martorell","countryId":"4566966","fcl":"P","population":0,"countryCode":"PR","name":"Residencial Manuel Martorell","fclName":"city, village,...","adminCodes1":{},"countryName":"Puerto Rico","fcodeName":"populated place","adminName1":"Comerío","lat":"18.22134","fcode":"PPL"},{"adminCode1":"045","lng":"-66.20406","geonameId":4567047,"toponymName":"Quebrada Blanca","countryId":"4566966","fcl":"T","population":0,"countryCode":"PR","name":"Quebrada Blanca","fclName":"mountain,hill,rock,... ","adminCodes1":{},"countryName":"Puerto Rico","fcodeName":"valley","adminName1":"Comerío","lat":"18.25134","fcode":"VAL"},{"adminCode1":"045","lng":"-66.20517","geonameId":4567081,"toponymName":"Quebrada Cedrito","countryId":"4566966","fcl":"T","population":0,"countryCode":"PR","name":"Quebrada Cedrito","fclName":"mountain,hill,rock,... ","adminCodes1":{},"countryName":"Puerto Rico","fcodeName":"valley","adminName1":"Comerío","lat":"18.26607","fcode":"VAL"},{"adminCode1":"045","lng":"-66.20183","geonameId":4567086,"toponymName":"Quebrada Cejas","countryId":"4566966","fcl":"T","population":0,"countryCode":"PR","name":"Quebrada Cejas","fclName":"mountain,hill,rock,... ","adminCodes1":{},"countryName":"Puerto Rico","fcodeName":"valley","adminName1":"Comerío","lat":"18.21412","fcode":"VAL"},{"adminCode1":"045","lng":"-66.22572","geonameId":4567121,"toponymName":"Quebrada Convento","countryId":"4566966","fcl":"T","population":0,"countryCode":"PR","name":"Quebrada Convento","fclName":"mountain,hill,rock,... ","adminCodes1":{},"countryName":"Puerto Rico","fcodeName":"valley","adminName1":"Comerío","lat":"18.22246","fcode":"VAL"},{"adminCode1":"045","lng":"-66.20128","geonameId":4567372,"toponymName":"Quebrada Naranjo","countryId":"4566966","fcl":"T","population":0,"countryCode":"PR","name":"Quebrada Naranjo","fclName":"mountain,hill,rock,... ","adminCodes1":{},"countryName":"Puerto Rico","fcodeName":"valley","adminName1":"Comerío","lat":"18.22996","fcode":"VAL"},{"adminCode1":"045","lng":"-66.24045","geonameId":4567412,"toponymName":"Quebrada Prieta","countryId":"4566966","fcl":"T","population":0,"countryCode":"PR","name":"Quebrada Prieta","fclName":"mountain,hill,rock,... ","adminCodes1":{},"countryName":"Puerto Rico","fcodeName":"valley","adminName1":"Comerío","lat":"18.20385","fcode":"VAL"},{"adminCode1":"045","lng":"-66.24211","geonameId":4567465,"toponymName":"Quebrada Tigre","countryId":"4566966","fcl":"T","population":0,"countryCode":"PR","name":"Quebrada Tigre","fclName":"mountain,hill,rock,... ","adminCodes1":{},"countryName":"Puerto Rico","fcodeName":"valley","adminName1":"Comerío","lat":"18.19246","fcode":"VAL"},{"adminCode1":"045","lng":"-66.17017","geonameId":4562842,"toponymName":"Bayamoncito","countryId":"4566966","fcl":"P","population":0,"countryCode":"PR","name":"Bayamoncito","fclName":"city, village,...","adminCodes1":{},"countryName":"Puerto Rico","fcodeName":"populated place","adminName1":"Comerío","lat":"18.23662","fcode":"PPL"},{"adminCode1":"045","lng":"-66.25344","geonameId":7274968,"toponymName":"Palomas Comunidad","countryId":"4566966","fcl":"P","population":0,"countryCode":"PR","name":"Palomas Comunidad","fclName":"city, village,...","adminCodes1":{},"countryName":"Puerto Rico","fcodeName":"populated place","adminName1":"Comerío","lat":"18.23527","fcode":"PPL"},{"adminCode1":"045","lng":"-66.18406","geonameId":4563622,"toponymName":"Cerro La Tiza","countryId":"4566966","fcl":"T","population":0,"countryCode":"PR","name":"Cerro La Tiza","fclName":"mountain,hill,rock,... ","adminCodes1":{},"countryName":"Puerto Rico","fcodeName":"mountain","adminName1":"Comerío","lat":"18.24134","fcode":"MT"},{"adminCode1":"045","lng":"-66.21545","geonameId":4563630,"toponymName":"Cerro Lazo","countryId":"4566966","fcl":"T","population":0,"countryCode":"PR","name":"Cerro Lazo","fclName":"mountain,hill,rock,... ","adminCodes1":{},"countryName":"Puerto Rico","fcodeName":"mountain","adminName1":"Comerío","lat":"18.2144","fcode":"MT"},{"adminCode1":"045","lng":"-66.22628","geonameId":4563640,"toponymName":"Cerro Magueyes","countryId":"4566966","fcl":"T","population":0,"countryCode":"PR","name":"Cerro Magueyes","fclName":"mountain,hill,rock,... ","adminCodes1":{},"countryName":"Puerto Rico","fcodeName":"mountain","adminName1":"Comerío","lat":"18.23134","fcode":"MT"},{"adminCode1":"045","lng":"-66.19517","geonameId":4564522,"toponymName":"Escuela La Prieta","countryId":"4566966","fcl":"P","population":0,"countryCode":"PR","name":"Escuela La Prieta","fclName":"city, village,...","adminCodes1":{},"countryName":"Puerto Rico","fcodeName":"populated place","adminName1":"Comerío","lat":"18.24912","fcode":"PPL"},{"adminCode1":"045","lng":"-66.25517","geonameId":4565770,"toponymName":"La Guitarra","countryId":"4566966","fcl":"P","population":0,"countryCode":"PR","name":"La Guitarra","fclName":"city, village,...","adminCodes1":{},"countryName":"Puerto Rico","fcodeName":"populated place","adminName1":"Comerío","lat":"18.20329","fcode":"PPL"},{"adminCode1":"045","lng":"-66.22767","geonameId":4566734,"toponymName":"Piñas","countryId":"4566966","fcl":"P","population":0,"countryCode":"PR","name":"Piñas","fclName":"city, village,...","adminCodes1":{},"countryName":"Puerto Rico","fcodeName":"populated place","adminName1":"Comerío","lat":"18.1844","fcode":"PPL"},{"adminCode1":"045","lng":"-66.24961","geonameId":4567847,"toponymName":"Río Hondo","countryId":"4566966","fcl":"P","population":0,"countryCode":"PR","name":"Río Hondo","fclName":"city, village,...","adminCodes1":{},"countryName":"Puerto Rico","fcodeName":"populated place","adminName1":"Comerío","lat":"18.21273","fcode":"PPL"},{"adminCode1":"045","lng":"-66.22267","geonameId":4568282,"toponymName":"Sector Laso","countryId":"4566966","fcl":"P","population":0,"countryCode":"PR","name":"Sector Laso","fclName":"city, village,...","adminCodes1":{},"countryName":"Puerto Rico","fcodeName":"populated place","adminName1":"Comerío","lat":"18.21885","fcode":"PPL"},{"adminCode1":"045","lng":"-66.22906","geonameId":4568301,"toponymName":"Sector Villa Brava","countryId":"4566966","fcl":"P","population":0,"countryCode":"PR","name":"Sector Villa Brava","fclName":"city, village,...","adminCodes1":{},"countryName":"Puerto Rico","fcodeName":"populated place","adminName1":"Comerío","lat":"18.21023","fcode":"PPL"},{"adminCode1":"045","lng":"-66.19406","geonameId":4565521,"toponymName":"Iglesia Virgen de la Providencia","countryId":"4566966","fcl":"P","population":0,"countryCode":"PR","name":"Iglesia Virgen de la Providencia","fclName":"city, village,...","adminCodes1":{},"countryName":"Puerto Rico","fcodeName":"populated place","adminName1":"Comerío","lat":"18.24829","fcode":"PPL"},{"adminCode1":"045","lng":"-66.2068","geonameId":4567630,"toponymName":"Represa de Comerío","countryId":"4566966","fcl":"H","population":0,"countryCode":"PR","name":"Represa de Comerío","fclName":"stream, lake, ...","adminCodes1":{},"countryName":"Puerto Rico","fcodeName":"reservoir(s)","adminName1":"Comerío","lat":"18.25146","fcode":"RSV"},{"adminCode1":"045","lng":"-66.20628","geonameId":4563920,"toponymName":"Comerio Dam","countryId":"4566966","fcl":"S","population":0,"countryCode":"PR","name":"Comerio Dam","fclName":"spot, building, farm","adminCodes1":{},"countryName":"Puerto Rico","fcodeName":"dam","adminName1":"Comerío","lat":"18.26162","fcode":"DAM"},{"adminCode1":"045","lng":"-66.21878","geonameId":4564810,"toponymName":"Escuela Superior de Comerío","countryId":"4566966","fcl":"S","population":0,"countryCode":"PR","name":"Escuela Superior de Comerío","fclName":"spot, building, farm","adminCodes1":{},"countryName":"Puerto Rico","fcodeName":"school","adminName1":"Comerío","lat":"18.22329","fcode":"SCH"},{"adminCode1":"045","lng":"-66.22656","geonameId":4563922,"toponymName":"Comerio Post Office","countryId":"4566966","fcl":"S","population":0,"countryCode":"PR","name":"Comerio Post Office","fclName":"spot, building, farm","adminCodes1":{},"countryName":"Puerto Rico","fcodeName":"post office","adminName1":"Comerío","lat":"18.21801","fcode":"PO"},{"adminCode1":"045","lng":"-66.20795","geonameId":4566750,"toponymName":"Planta Hidroeléctrica Comerío Número 1","countryId":"4566966","fcl":"S","population":0,"countryCode":"PR","name":"Planta Hidroeléctrica Comerío Número 1","fclName":"spot, building, farm","adminCodes1":{},"countryName":"Puerto Rico","fcodeName":"building(s)","adminName1":"Comerío","lat":"18.26301","fcode":"BLDG"},{"adminCode1":"045","lng":"-66.20628","geonameId":4566751,"toponymName":"Planta Hidroeléctrica Comerío Número 2","countryId":"4566966","fcl":"S","population":0,"countryCode":"PR","name":"Planta Hidroeléctrica Comerío Número 2","fclName":"spot, building, farm","adminCodes1":{},"countryName":"Puerto Rico","fcodeName":"building(s)","adminName1":"Comerío","lat":"18.2744","fcode":"BLDG"},{"adminCode1":"045","lng":"-66.1585","geonameId":4564123,"toponymName":"Doctoro Luis Arambrie Maldonado Hospital","countryId":"4566966","fcl":"S","population":0,"countryCode":"PR","name":"Doctoro Luis Arambrie Maldonado Hospital","fclName":"spot, building, farm","adminCodes1":{},"countryName":"Puerto Rico","fcodeName":"hospital","adminName1":"Comerío","lat":"18.18635","fcode":"HSP"},{"adminCode1":"045","lng":"-66.21767","geonameId":4564304,"toponymName":"Escuela Alto Doña Elena","countryId":"4566966","fcl":"S","population":0,"countryCode":"PR","name":"Escuela Alto Doña Elena","fclName":"spot, building, farm","adminCodes1":{},"countryName":"Puerto Rico","fcodeName":"school","adminName1":"Comerío","lat":"18.25829","fcode":"SCH"},{"adminCode1":"045","lng":"-66.20822","geonameId":4564697,"toponymName":"Escuela Salto","countryId":"4566966","fcl":"S","population":0,"countryCode":"PR","name":"Escuela Salto","fclName":"spot, building, farm","adminCodes1":{},"countryName":"Puerto Rico","fcodeName":"school","adminName1":"Comerío","lat":"18.26412","fcode":"SCH"},{"adminCode1":"045","lng":"-66.24211","geonameId":4564778,"toponymName":"Escuela Segunda Unidad de Paloma","countryId":"4566966","fcl":"S","population":0,"countryCode":"PR","name":"Escuela Segunda Unidad de Paloma","fclName":"spot, building, farm","adminCodes1":{},"countryName":"Puerto Rico","fcodeName":"school","adminName1":"Comerío","lat":"18.23079","fcode":"SCH"},{"adminCode1":"045","lng":"-66.24906","geonameId":4564783,"toponymName":"Escuela Segunda Unidad de Río Hondo","countryId":"4566966","fcl":"S","population":0,"countryCode":"PR","name":"Escuela Segunda Unidad de Río Hondo","fclName":"spot, building, farm","adminCodes1":{},"countryName":"Puerto Rico","fcodeName":"school","adminName1":"Comerío","lat":"18.21357","fcode":"SCH"},{"adminCode1":"045","lng":"-66.24267","geonameId":4564838,"toponymName":"Escuela Zamora","countryId":"4566966","fcl":"S","population":0,"countryCode":"PR","name":"Escuela Zamora","fclName":"spot, building, farm","adminCodes1":{},"countryName":"Puerto Rico","fcodeName":"school","adminName1":"Comerío","lat":"18.25134","fcode":"SCH"},{"adminCode1":"045","lng":"-66.20628","geonameId":4565461,"toponymName":"Iglesia Apóstoles de Cristo","countryId":"4566966","fcl":"S","population":0,"countryCode":"PR","name":"Iglesia Apóstoles de Cristo","fclName":"spot, building, farm","adminCodes1":{},"countryName":"Puerto Rico","fcodeName":"church","adminName1":"Comerío","lat":"18.25551","fcode":"CH"},{"adminCode1":"045","lng":"-66.20795","geonameId":4565466,"toponymName":"Iglesia Corazón de Jesus","countryId":"4566966","fcl":"S","population":0,"countryCode":"PR","name":"Iglesia Corazón de Jesus","fclName":"spot, building, farm","adminCodes1":{},"countryName":"Puerto Rico","fcodeName":"church","adminName1":"Comerío","lat":"18.26607","fcode":"CH"},{"adminCode1":"045","lng":"-66.22406","geonameId":4565502,"toponymName":"Iglesia San Martín Porres","countryId":"4566966","fcl":"S","population":0,"countryCode":"PR","name":"Iglesia San Martín Porres","fclName":"spot, building, farm","adminCodes1":{},"countryName":"Puerto Rico","fcodeName":"church","adminName1":"Comerío","lat":"18.25523","fcode":"CH"}]}
