{"totalResultsCount":6,"geonames":[{"adminCode1":"UT","lng":"-111.06267","geonameId":5537244,"toponymName":"Consumers","countryId":"6252001","fcl":"P","population":0,"countryCode":"US","name":"Consumers","fclName":"city, village,...","adminCodes1":{"ISO3166_2":"UT"},"countryName":"United States","fcodeName":"populated place","adminName1":"Utah","lat":"39.70052","fcode":"PPL"},{"adminCode1":"UT","lng":"-110.85933","geonameId":5537245,"toponymName":"Consumers Wash","countryId":"6252001","fcl":"T","population":0,"countryCode":"US","name":"Consumers Wash","fclName":"mountain,hill,rock,... ","adminCodes1":{"ISO3166_2":"UT"},"countryName":"United States","fcodeName":"valley","adminName1":"Utah","lat":"39.65246","fcode":"VAL"},{"adminCode1":"MA","lng":"-70.92421","geonameId":4951523,"toponymName":"South Shore Consumers Mall","countryId":"6252001","fcl":"S","population":0,"countryCode":"US","name":"South Shore Consumers Mall","fclName":"spot, building, farm","adminCodes1":{"ISO3166_2":"MA"},"countryName":"United States","fcodeName":"mall","adminName1":"Massachusetts","lat":"42.24732","fcode":"MALL"},{"adminCode1":"MI","lng":"-83.84998","geonameId":4989488,"toponymName":"Consumers Power Company","countryId":"6252001","fcl":"S","population":0,"countryCode":"US","name":"Consumers Power Company","fclName":"spot, building, farm","adminCodes1":{"ISO3166_2":"MI"},"countryName":"United States","fcodeName":"","adminName1":"Michigan","lat":"43.64113"},{"adminCode1":"PA","lng":"-75.5763","geonameId":5185277,"toponymName":"Consumers Powder Companys Mill","countryId":"6252001","fcl":"S","population":0,"countryCode":"US","name":"Consumers Powder Companys Mill","fclName":"spot, building, farm","adminCodes1":{"ISO3166_2":"PA"},"countryName":"United States","fcodeName":"building(s)","adminName1":"Pennsylvania","lat":"41.45814","fcode":"BLDG"},{"adminCode1":"MI","lng":"-86.30475","geonameId":4989489,"toponymName":"Consumers Power Company Heliport","countryId":"6252001","fcl":"S","population":0,"countryCode":"US","name":"Consumers Power Company Heliport","fclName":"spot, building, farm","adminCodes1":{"ISO3166_2":"MI"},"countryName":"United States","fcodeName":"heliport","adminName1":"Michigan","lat":"42.32726","fcode":"AIRH"}]}
