{"totalResultsCount":184,"geonames":[{"adminCode1":"CA","lng":"-117.56644","geonameId":5339631,"toponymName":"Corona","countryId":"6252001","fcl":"P","population":164226,"countryCode":"US","name":"Corona","fclName":"city, village,...","adminCodes1":{"ISO3166_2":"CA"},"countryName":"United States","fcodeName":"populated place","adminName1":"California","lat":"33.87529","fcode":"PPL"},{"adminCode1":"NY","lng":"-73.86014","geonameId":5113779,"toponymName":"Corona","countryId":"6252001","fcl":"P","population":109698,"countryCode":"US","name":"Corona","fclName":"city, village,...","adminCodes1":{"ISO3166_2":"NY"},"countryName":"United States","fcodeName":"populated place","adminName1":"New York","lat":"40.74705","fcode":"PPL"},{"adminCode1":"CA","lng":"-117.87506","geonameId":5339637,"toponymName":"Corona del Mar State Beach","countryId":"6252001","fcl":"L","population":0,"countryCode":"US","name":"Corona del Mar State Beach","fclName":"parks,area, ...","adminCodes1":{"ISO3166_2":"CA"},"countryName":"United States","fcodeName":"park","adminName1":"California","lat":"33.59363","fcode":"PRK"},{"adminCode1":"CA","lng":"-122.43914","geonameId":5339643,"toponymName":"Corona Heights Playground","countryId":"6252001","fcl":"L","population":0,"countryCode":"US","name":"Corona Heights Playground","fclName":"parks,area, ...","adminCodes1":{"ISO3166_2":"CA"},"countryName":"United States","fcodeName":"park","adminName1":"California","lat":"37.76465","fcode":"PRK"},{"adminCode1":"CA","lng":"-117.60189","geonameId":5339649,"toponymName":"Corona Municipal Airport","countryId":"6252001","fcl":"S","population":0,"countryCode":"US","name":"Corona Municipal Airport","fclName":"spot, building, farm","adminCodes1":{"ISO3166_2":"CA"},"countryName":"United States","fcodeName":"airport","adminName1":"California","lat":"33.8968","fcode":"AIRP"},{"adminCode1":"AZ","lng":"-110.77564","geonameId":5290925,"toponymName":"Corona de Tucson","countryId":"6252001","fcl":"P","population":5675,"countryCode":"US","name":"Corona de Tucson","fclName":"city, village,...","adminCodes1":{"ISO3166_2":"AZ"},"countryName":"United States","fcodeName":"populated place","adminName1":"Arizona","lat":"31.96536","fcode":"PPL"},{"adminCode1":"SD","lng":"-96.76312","geonameId":5227043,"toponymName":"Corona","countryId":"6252001","fcl":"P","population":110,"countryCode":"US","name":"Corona","fclName":"city, village,...","adminCodes1":{"ISO3166_2":"SD"},"countryName":"United States","fcodeName":"populated place","adminName1":"South Dakota","lat":"45.33385","fcode":"PPL"},{"adminCode1":"NY","lng":"-73.84069","geonameId":5117480,"toponymName":"Flushing Meadows - Corona Park","countryId":"6252001","fcl":"L","population":0,"countryCode":"US","name":"Flushing Meadow Park","fclName":"parks,area, ...","adminCodes1":{"ISO3166_2":"NY"},"countryName":"United States","fcodeName":"park","adminName1":"New York","lat":"40.7401","fcode":"PRK"},{"adminCode1":"CA","lng":"-117.52283","geonameId":5345624,"toponymName":"El Cerrito Corona","countryId":"6252001","fcl":"P","population":5100,"countryCode":"US","name":"El Cerrito Corona","fclName":"city, village,...","adminCodes1":{"ISO3166_2":"CA"},"countryName":"United States","fcodeName":"populated place","adminName1":"California","lat":"33.84057","fcode":"PPL"},{"adminCode1":"TN","lng":"-90.08259","geonameId":4615528,"toponymName":"Corona","countryId":"6252001","fcl":"P","population":0,"countryCode":"US","name":"Corona","fclName":"city, village,...","adminCodes1":{"ISO3166_2":"TN"},"countryName":"United States","fcodeName":"populated place","adminName1":"Tennessee","lat":"35.44536","fcode":"PPL"},{"adminCode1":"MO","lng":"-91.4118","geonameId":4382444,"toponymName":"Corona","countryId":"6252001","fcl":"P","population":0,"countryCode":"US","name":"Corona","fclName":"city, village,...","adminCodes1":{"ISO3166_2":"MO"},"countryName":"United States","fcodeName":"populated place","adminName1":"Missouri","lat":"36.55117","fcode":"PPL"},{"adminCode1":"AL","lng":"-87.46945","geonameId":4057034,"toponymName":"Corona","countryId":"6252001","fcl":"P","population":0,"countryCode":"US","name":"Corona","fclName":"city, village,...","adminCodes1":{"ISO3166_2":"AL"},"countryName":"United States","fcodeName":"populated place","adminName1":"Alabama","lat":"33.70844","fcode":"PPL"},{"adminCode1":"MN","lng":"-92.76631","geonameId":5022095,"toponymName":"Corona","countryId":"6252001","fcl":"P","population":0,"countryCode":"US","name":"Corona","fclName":"city, village,...","adminCodes1":{"ISO3166_2":"MN"},"countryName":"United States","fcodeName":"populated place","adminName1":"Minnesota","lat":"46.6705","fcode":"PPL"},{"adminCode1":"CA","lng":"-117.87311","geonameId":5339657,"toponymName":"Corona del Mar","countryId":"6252001","fcl":"P","population":0,"countryCode":"US","name":"Corona del Mar","fclName":"city, village,...","adminCodes1":{"ISO3166_2":"CA"},"countryName":"United States","fcodeName":"section of populated place","adminName1":"California","lat":"33.59808","fcode":"PPLX"},{"adminCode1":"NM","lng":"-105.59788","geonameId":5463166,"toponymName":"Corona","countryId":"6252001","fcl":"P","population":162,"countryCode":"US","name":"Corona","fclName":"city, village,...","adminCodes1":{"ISO3166_2":"NM"},"countryName":"United States","fcodeName":"populated place","adminName1":"New Mexico","lat":"34.25119","fcode":"PPL"},{"adminCode1":"FL","lng":"-82.50417","geonameId":7306320,"toponymName":"Corona Park","countryId":"6252001","fcl":"L","population":0,"countryCode":"US","name":"Corona Park","fclName":"parks,area, ...","adminCodes1":{"ISO3166_2":"FL"},"countryName":"United States","fcodeName":"park","adminName1":"Florida","lat":"27.91389","fcode":"PRK"},{"adminCode1":"MT","lng":"-114.85074","geonameId":5646411,"toponymName":"Corona Lake","countryId":"6252001","fcl":"H","population":0,"countryCode":"US","name":"Corona Lake","fclName":"stream, lake, ...","adminCodes1":{"ISO3166_2":"MT"},"countryName":"United States","fcodeName":"lake","adminName1":"Montana","lat":"47.64057","fcode":"LK"},{"adminCode1":"TN","lng":"-90.08504","geonameId":4615531,"toponymName":"Corona Lake","countryId":"6252001","fcl":"H","population":0,"countryCode":"US","name":"Corona Lake","fclName":"stream, lake, ...","adminCodes1":{"ISO3166_2":"TN"},"countryName":"United States","fcodeName":"lake","adminName1":"Tennessee","lat":"35.42139","fcode":"LK"},{"adminCode1":"CO","lng":"-105.69511","geonameId":5418051,"toponymName":"Corona Lake","countryId":"6252001","fcl":"H","population":0,"countryCode":"US","name":"Corona Lake","fclName":"stream, lake, ...","adminCodes1":{"ISO3166_2":"CO"},"countryName":"United States","fcodeName":"lake","adminName1":"Colorado","lat":"39.93484","fcode":"LK"},{"adminCode1":"MN","lng":"-92.70393","geonameId":5022097,"toponymName":"Corona Lake","countryId":"6252001","fcl":"H","population":0,"countryCode":"US","name":"Corona Lake","fclName":"stream, lake, ...","adminCodes1":{"ISO3166_2":"MN"},"countryName":"United States","fcodeName":"lake","adminName1":"Minnesota","lat":"46.66231","fcode":"LK"},{"adminCode1":"CO","lng":"-104.07273","geonameId":5583400,"toponymName":"Wiggins","countryId":"6252001","fcl":"P","population":893,"countryCode":"US","name":"Wiggins","fclName":"city, village,...","adminCodes1":{"ISO3166_2":"CO"},"countryName":"United States","fcodeName":"populated place","adminName1":"Colorado","lat":"40.23054","fcode":"PPL"},{"adminCode1":"SD","lng":"-96.76458","geonameId":5227045,"toponymName":"Town of Corona","countryId":"6252001","fcl":"A","population":109,"countryCode":"US","name":"Town of Corona","fclName":"country, state, region,...","adminCodes1":{"ISO3166_2":"SD"},"countryName":"United States","fcodeName":"third-order administrative division","adminName1":"South Dakota","lat":"45.33523","fcode":"ADM3"},{"adminCode1":"CA","lng":"-117.56422","geonameId":7173233,"toponymName":"City of Corona","countryId":"6252001","fcl":"A","population":152374,"countryCode":"US","name":"City of Corona","fclName":"country, state, region,...","adminCodes1":{"ISO3166_2":"CA"},"countryName":"United States","fcodeName":"administrative division","adminName1":"California","lat":"33.86236","fcode":"ADMD"},{"adminCode1":"NM","lng":"-105.59608","geonameId":7175938,"toponymName":"Village of Corona","countryId":"6252001","fcl":"A","population":172,"countryCode":"US","name":"Village of Corona","fclName":"country, state, region,...","adminCodes1":{"ISO3166_2":"NM"},"countryName":"United States","fcodeName":"administrative division","adminName1":"New Mexico","lat":"34.25864","fcode":"ADMD"},{"adminCode1":"NY","lng":"-73.85917","geonameId":7176300,"toponymName":"Corona Mac Park","countryId":"6252001","fcl":"L","population":0,"countryCode":"US","name":"Corona Mac Park","fclName":"parks,area, ...","adminCodes1":{"ISO3166_2":"NY"},"countryName":"United States","fcodeName":"park","adminName1":"New York","lat":"40.74028","fcode":"PRK"},{"adminCode1":"NY","lng":"-73.855","geonameId":7176338,"toponymName":"Corona Golf Playground","countryId":"6252001","fcl":"L","population":0,"countryCode":"US","name":"Corona Golf Playground","fclName":"parks,area, ...","adminCodes1":{"ISO3166_2":"NY"},"countryName":"United States","fcodeName":"park","adminName1":"New York","lat":"40.7475","fcode":"PRK"},{"adminCode1":"CA","lng":"-118.19507","geonameId":5339650,"toponymName":"Corona Park","countryId":"6252001","fcl":"L","population":0,"countryCode":"US","name":"Corona Park","fclName":"parks,area, ...","adminCodes1":{"ISO3166_2":"CA"},"countryName":"United States","fcodeName":"park","adminName1":"California","lat":"33.98501","fcode":"PRK"},{"adminCode1":"CA","lng":"-117.95617","geonameId":5339651,"toponymName":"Corona Park","countryId":"6252001","fcl":"L","population":0,"countryCode":"US","name":"Corona Park","fclName":"parks,area, ...","adminCodes1":{"ISO3166_2":"CA"},"countryName":"United States","fcodeName":"park","adminName1":"California","lat":"33.92918","fcode":"PRK"},{"adminCode1":"NY","lng":"-73.86167","geonameId":7176302,"toponymName":"Josephine Caminiti Playground","countryId":"6252001","fcl":"L","population":0,"countryCode":"US","name":"Josephine Caminiti Playground","fclName":"parks,area, ...","adminCodes1":{"ISO3166_2":"NY"},"countryName":"United States","fcodeName":"park","adminName1":"New York","lat":"40.74417","fcode":"PRK"},{"adminCode1":"KS","lng":"-94.86857","geonameId":4269108,"toponymName":"Carona","countryId":"6252001","fcl":"P","population":0,"countryCode":"US","name":"Carona","fclName":"city, village,...","adminCodes1":{"ISO3166_2":"KS"},"countryName":"United States","fcodeName":"populated place","adminName1":"Kansas","lat":"37.28034","fcode":"PPL"},{"adminCode1":"CO","lng":"-103.65856","geonameId":5418055,"toponymName":"The Corona","countryId":"6252001","fcl":"T","population":0,"countryCode":"US","name":"The Corona","fclName":"mountain,hill,rock,... ","adminCodes1":{"ISO3166_2":"CO"},"countryName":"United States","fcodeName":"mountain","adminName1":"Colorado","lat":"37.11891","fcode":"MT"},{"adminCode1":"AZ","lng":"-111.92718","geonameId":5290926,"toponymName":"Corona del Sol High School","countryId":"6252001","fcl":"S","population":0,"countryCode":"US","name":"Corona del Sol High School","fclName":"spot, building, farm","adminCodes1":{"ISO3166_2":"AZ"},"countryName":"United States","fcodeName":"school","adminName1":"Arizona","lat":"33.32634","fcode":"SCH"},{"adminCode1":"UT","lng":"-109.61989","geonameId":5542227,"toponymName":"Corona Arch","countryId":"6252001","fcl":"S","population":0,"countryCode":"US","name":"Corona Arch","fclName":"spot, building, farm","adminCodes1":{"ISO3166_2":"UT"},"countryName":"United States","fcodeName":"arch","adminName1":"Utah","lat":"38.57994","fcode":"ARCH"},{"adminCode1":"CA","lng":"-117.58616","geonameId":5339644,"toponymName":"Corona High School","countryId":"6252001","fcl":"S","population":0,"countryCode":"US","name":"Corona High School","fclName":"spot, building, farm","adminCodes1":{"ISO3166_2":"CA"},"countryName":"United States","fcodeName":"school","adminName1":"California","lat":"33.87279","fcode":"SCH"},{"adminCode1":"CA","lng":"-117.86922","geonameId":5339658,"toponymName":"Corona del Mar Branch Newport Beach Public Library","countryId":"6252001","fcl":"S","population":0,"countryCode":"US","name":"Corona del Mar Branch Newport Beach Public Library","fclName":"spot, building, farm","adminCodes1":{"ISO3166_2":"CA"},"countryName":"United States","fcodeName":"library","adminName1":"California","lat":"33.59613","fcode":"LIBR"},{"adminCode1":"CA","lng":"-117.87617","geonameId":5339659,"toponymName":"Corona del Mar High School","countryId":"6252001","fcl":"S","population":0,"countryCode":"US","name":"Corona del Mar High School","fclName":"spot, building, farm","adminCodes1":{"ISO3166_2":"CA"},"countryName":"United States","fcodeName":"school","adminName1":"California","lat":"33.63308","fcode":"SCH"},{"adminCode1":"CA","lng":"-117.54338","geonameId":5362343,"toponymName":"KWRM-AM (Corona)","countryId":"6252001","fcl":"S","population":0,"countryCode":"US","name":"KWRM-AM (Corona)","fclName":"spot, building, farm","adminCodes1":{"ISO3166_2":"CA"},"countryName":"United States","fcodeName":"tower","adminName1":"California","lat":"33.88113","fcode":"TOWR"},{"adminCode1":"CA","lng":"-117.5683","geonameId":9670667,"toponymName":"Corona Regional Medical Center","countryId":"6252001","fcl":"S","population":0,"countryCode":"US","name":"Corona Regional Medical Center","fclName":"spot, building, farm","adminCodes1":{"ISO3166_2":"CA"},"countryName":"United States","fcodeName":"hospital","adminName1":"California","lat":"33.87297","fcode":"HSP"},{"adminCode1":"FL","lng":"-82.4487","geonameId":7217427,"toponymName":"Corona","countryId":"6252001","fcl":"P","population":0,"countryCode":"US","name":"Corona","fclName":"city, village,...","adminCodes1":{"ISO3166_2":"FL"},"countryName":"United States","fcodeName":"populated place","adminName1":"Florida","lat":"27.9795","fcode":"PPL"},{"adminCode1":"NY","lng":"-73.85556","geonameId":7176337,"toponymName":"William F Moore Park","countryId":"6252001","fcl":"L","population":0,"countryCode":"US","name":"William F Moore Park","fclName":"parks,area, ...","adminCodes1":{"ISO3166_2":"NY"},"countryName":"United States","fcodeName":"park","adminName1":"New York","lat":"40.74389","fcode":"PRK"},{"adminCode1":"NY","lng":"-73.8625","geonameId":7176340,"toponymName":"National Plaza","countryId":"6252001","fcl":"L","population":0,"countryCode":"US","name":"National Plaza","fclName":"parks,area, ...","adminCodes1":{"ISO3166_2":"NY"},"countryName":"United States","fcodeName":"park","adminName1":"New York","lat":"40.74972","fcode":"PRK"},{"adminCode1":"NM","lng":"-108.98926","geonameId":5456880,"toponymName":"Beautiful Mountain","countryId":"6252001","fcl":"T","population":0,"countryCode":"US","name":"Beautiful Mountain","fclName":"mountain,hill,rock,... ","adminCodes1":{"ISO3166_2":"NM"},"countryName":"United States","fcodeName":"mountain","adminName1":"New Mexico","lat":"36.48889","fcode":"MT"},{"adminCode1":"MS","lng":"-88.76728","geonameId":4422774,"toponymName":"Corrona","countryId":"6252001","fcl":"P","population":0,"countryCode":"US","name":"Corrona","fclName":"city, village,...","adminCodes1":{"ISO3166_2":"MS"},"countryName":"United States","fcodeName":"populated place","adminName1":"Mississippi","lat":"34.4701","fcode":"PPL"},{"adminCode1":"CO","lng":"-106.77423","geonameId":5414196,"toponymName":"Blackhead Peak","countryId":"6252001","fcl":"T","population":0,"countryCode":"US","name":"Blackhead Peak","fclName":"mountain,hill,rock,... ","adminCodes1":{"ISO3166_2":"CO"},"countryName":"United States","fcodeName":"mountain","adminName1":"Colorado","lat":"37.28889","fcode":"MT"},{"adminCode1":"NM","lng":"-105.67334","geonameId":5463168,"toponymName":"Corona Airport","countryId":"6252001","fcl":"S","population":0,"countryCode":"US","name":"Corona Airport","fclName":"spot, building, farm","adminCodes1":{"ISO3166_2":"NM"},"countryName":"United States","fcodeName":"airport","adminName1":"New Mexico","lat":"34.36896","fcode":"AIRP"},{"adminCode1":"CA","lng":"-118.0634","geonameId":5362300,"toponymName":"KVEA-TV (Corona)","countryId":"6252001","fcl":"S","population":0,"countryCode":"US","name":"KVEA-TV (Corona)","fclName":"spot, building, farm","adminCodes1":{"ISO3166_2":"CA"},"countryName":"United States","fcodeName":"tower","adminName1":"California","lat":"34.22417","fcode":"TOWR"},{"adminCode1":"AL","lng":"-87.49834","geonameId":4096979,"toponymName":"West Corona","countryId":"6252001","fcl":"P","population":0,"countryCode":"US","name":"West Corona","fclName":"city, village,...","adminCodes1":{"ISO3166_2":"AL"},"countryName":"United States","fcodeName":"populated place","adminName1":"Alabama","lat":"33.70872","fcode":"PPL"},{"adminCode1":"AL","lng":"-87.48612","geonameId":4057036,"toponymName":"Corona Mine","countryId":"6252001","fcl":"S","population":0,"countryCode":"US","name":"Corona Mine","fclName":"spot, building, farm","adminCodes1":{"ISO3166_2":"AL"},"countryName":"United States","fcodeName":"mine(s)","adminName1":"Alabama","lat":"33.71122","fcode":"MN"},{"adminCode1":"AL","lng":"-87.44167","geonameId":4057039,"toponymName":"Corona Number 13 Mine","countryId":"6252001","fcl":"S","population":0,"countryCode":"US","name":"Corona Number 13 Mine","fclName":"spot, building, farm","adminCodes1":{"ISO3166_2":"AL"},"countryName":"United States","fcodeName":"mine(s)","adminName1":"Alabama","lat":"33.73344","fcode":"MN"},{"adminCode1":"MT","lng":"-113.59481","geonameId":5646408,"toponymName":"Corona Gulch","countryId":"6252001","fcl":"T","population":0,"countryCode":"US","name":"Corona Gulch","fclName":"mountain,hill,rock,... ","adminCodes1":{"ISO3166_2":"MT"},"countryName":"United States","fcodeName":"valley","adminName1":"Montana","lat":"46.65854","fcode":"VAL"},{"adminCode1":"MT","lng":"-114.88264","geonameId":5646409,"toponymName":"Corona Divide","countryId":"6252001","fcl":"T","population":0,"countryCode":"US","name":"Corona Divide","fclName":"mountain,hill,rock,... ","adminCodes1":{"ISO3166_2":"MT"},"countryName":"United States","fcodeName":"ridge(s)","adminName1":"Montana","lat":"47.66855","fcode":"RDGE"},{"adminCode1":"TN","lng":"-90.0887","geonameId":4615529,"toponymName":"Corona Bar","countryId":"6252001","fcl":"T","population":0,"countryCode":"US","name":"Corona Bar","fclName":"mountain,hill,rock,... ","adminCodes1":{"ISO3166_2":"TN"},"countryName":"United States","fcodeName":"bar","adminName1":"Tennessee","lat":"35.39981","fcode":"BAR"},{"adminCode1":"TN","lng":"-90.07565","geonameId":4615530,"toponymName":"Corona Bar Dikes","countryId":"6252001","fcl":"T","population":0,"countryCode":"US","name":"Corona Bar Dikes","fclName":"mountain,hill,rock,... ","adminCodes1":{"ISO3166_2":"TN"},"countryName":"United States","fcodeName":"levee","adminName1":"Tennessee","lat":"35.3962","fcode":"LEV"},{"adminCode1":"AZ","lng":"-111.92514","geonameId":5290922,"toponymName":"Corona Village","countryId":"6252001","fcl":"P","population":0,"countryCode":"US","name":"Corona Village","fclName":"city, village,...","adminCodes1":{"ISO3166_2":"AZ"},"countryName":"United States","fcodeName":"populated place","adminName1":"Arizona","lat":"33.3181","fcode":"PPL"},{"adminCode1":"MI","lng":"-86.96124","geonameId":4989675,"toponymName":"Corona Shoal","countryId":"6252001","fcl":"T","population":0,"countryCode":"US","name":"Corona Shoal","fclName":"mountain,hill,rock,... ","adminCodes1":{"ISO3166_2":"MI"},"countryName":"United States","fcodeName":"bar","adminName1":"Michigan","lat":"45.61914","fcode":"BAR"},{"adminCode1":"MI","lng":"-86.94874","geonameId":4989676,"toponymName":"Corona Shoal","countryId":"6252001","fcl":"T","population":0,"countryCode":"US","name":"Corona Shoal","fclName":"mountain,hill,rock,... ","adminCodes1":{"ISO3166_2":"MI"},"countryName":"United States","fcodeName":"bar","adminName1":"Michigan","lat":"45.62081","fcode":"BAR"},{"adminCode1":"CA","lng":"-117.56588","geonameId":5339656,"toponymName":"Corona United Methodist Church","countryId":"6252001","fcl":"S","population":0,"countryCode":"US","name":"Corona United Methodist Church","fclName":"spot, building, farm","adminCodes1":{"ISO3166_2":"CA"},"countryName":"United States","fcodeName":"church","adminName1":"California","lat":"33.87113","fcode":"CH"},{"adminCode1":"CA","lng":"-121.99691","geonameId":5339662,"toponymName":"La Corona","countryId":"6252001","fcl":"T","population":0,"countryCode":"US","name":"La Corona","fclName":"mountain,hill,rock,... ","adminCodes1":{"ISO3166_2":"CA"},"countryName":"United States","fcodeName":"mountain","adminName1":"California","lat":"37.00662","fcode":"MT"},{"adminCode1":"CA","lng":"-117.8695","geonameId":5366852,"toponymName":"Little Corona Del Mar Beach","countryId":"6252001","fcl":"T","population":0,"countryCode":"US","name":"Little Corona Del Mar Beach","fclName":"mountain,hill,rock,... ","adminCodes1":{"ISO3166_2":"CA"},"countryName":"United States","fcodeName":"beach","adminName1":"California","lat":"33.5903","fcode":"BCH"},{"adminCode1":"CA","lng":"-121.86968","geonameId":5380779,"toponymName":"Palo Corona","countryId":"6252001","fcl":"T","population":0,"countryCode":"US","name":"Palo Corona","fclName":"mountain,hill,rock,... ","adminCodes1":{"ISO3166_2":"CA"},"countryName":"United States","fcodeName":"mountain","adminName1":"California","lat":"36.4508","fcode":"MT"},{"adminCode1":"LA","lng":"-91.16974","geonameId":11873868,"toponymName":"Olinde Building","countryId":"6252001","fcl":"S","population":0,"countryCode":"US","name":"Olinde's Furniture & Appliances","fclName":"spot, building, farm","adminCodes1":{"ISO3166_2":"LA"},"countryName":"United States","fcodeName":"building(s)","adminName1":"Louisiana","lat":"30.45279","fcode":"BLDG"},{"adminCode1":"NM","lng":"-104.89942","geonameId":5463171,"toponymName":"Corona Hill","countryId":"6252001","fcl":"T","population":0,"countryCode":"US","name":"Corona Hill","fclName":"mountain,hill,rock,... ","adminCodes1":{"ISO3166_2":"NM"},"countryName":"United States","fcodeName":"mountain","adminName1":"New Mexico","lat":"32.47344","fcode":"MT"},{"adminCode1":"MS","lng":"-88.52838","geonameId":4422780,"toponymName":"Corona Female College (historical)","countryId":"6252001","fcl":"S","population":0,"countryCode":"US","name":"Corona Female College (historical)","fclName":"spot, building, farm","adminCodes1":{"ISO3166_2":"MS"},"countryName":"United States","fcodeName":"school","adminName1":"Mississippi","lat":"34.92231","fcode":"SCH"},{"adminCode1":"AZ","lng":"-110.77102","geonameId":7722912,"toponymName":"Corona de Tucson Fire Department","countryId":"6252001","fcl":"S","population":0,"countryCode":"US","name":"Corona de Tucson Fire Department","fclName":"spot, building, farm","adminCodes1":{"ISO3166_2":"AZ"},"countryName":"United States","fcodeName":"building(s)","adminName1":"Arizona","lat":"31.9603","fcode":"BLDG"},{"adminCode1":"CA","lng":"-117.55387","geonameId":7195432,"toponymName":"Corona Regional Rehabilitation Hospital","countryId":"6252001","fcl":"S","population":0,"countryCode":"US","name":"Corona Regional Rehabilitation Hospital","fclName":"spot, building, farm","adminCodes1":{"ISO3166_2":"CA"},"countryName":"United States","fcodeName":"hospital","adminName1":"California","lat":"33.85801","fcode":"HSP"},{"adminCode1":"CA","lng":"-117.61476","geonameId":5339639,"toponymName":"Corona Elementary School","countryId":"6252001","fcl":"S","population":0,"countryCode":"US","name":"Corona Elementary School","fclName":"spot, building, farm","adminCodes1":{"ISO3166_2":"CA"},"countryName":"United States","fcodeName":"school","adminName1":"California","lat":"34.07886","fcode":"SCH"},{"adminCode1":"CA","lng":"-117.56833","geonameId":5339641,"toponymName":"Corona Fundamental Intermediate School","countryId":"6252001","fcl":"S","population":0,"countryCode":"US","name":"Corona Fundamental Intermediate School","fclName":"spot, building, farm","adminCodes1":{"ISO3166_2":"CA"},"countryName":"United States","fcodeName":"school","adminName1":"California","lat":"33.86867","fcode":"SCH"},{"adminCode1":"CA","lng":"-117.56838","geonameId":5339654,"toponymName":"Corona Regional Medical Center","countryId":"6252001","fcl":"S","population":0,"countryCode":"US","name":"Corona Regional Medical Center","fclName":"spot, building, farm","adminCodes1":{"ISO3166_2":"CA"},"countryName":"United States","fcodeName":"","adminName1":"California","lat":"33.87335"},{"adminCode1":"CA","lng":"-121.88023","geonameId":5380775,"toponymName":"Palo Corona Ranch","countryId":"6252001","fcl":"S","population":0,"countryCode":"US","name":"Palo Corona Ranch","fclName":"spot, building, farm","adminCodes1":{"ISO3166_2":"CA"},"countryName":"United States","fcodeName":"","adminName1":"California","lat":"36.4858"},{"adminCode1":"CO","lng":"-105.68528","geonameId":5418050,"toponymName":"Corona (historical)","countryId":"6252001","fcl":"P","population":0,"countryCode":"US","name":"Corona (historical)","fclName":"city, village,...","adminCodes1":{"ISO3166_2":"CO"},"countryName":"United States","fcodeName":"abandoned populated place","adminName1":"Colorado","lat":"39.93443","fcode":"PPLQ"},{"adminCode1":"CA","lng":"-122.65943","geonameId":5339632,"toponymName":"Corona (historical)","countryId":"6252001","fcl":"P","population":0,"countryCode":"US","name":"Corona (historical)","fclName":"city, village,...","adminCodes1":{"ISO3166_2":"CA"},"countryName":"United States","fcodeName":"abandoned populated place","adminName1":"California","lat":"38.26353","fcode":"PPLQ"},{"adminCode1":"CA","lng":"-118.19785","geonameId":5339638,"toponymName":"Corona Elementary School","countryId":"6252001","fcl":"S","population":0,"countryCode":"US","name":"Corona Elementary School","fclName":"spot, building, farm","adminCodes1":{"ISO3166_2":"CA"},"countryName":"United States","fcodeName":"school","adminName1":"California","lat":"33.97613","fcode":"SCH"},{"adminCode1":"CA","lng":"-118.68203","geonameId":5385948,"toponymName":"Rancho Corona Del Valle","countryId":"6252001","fcl":"S","population":0,"countryCode":"US","name":"Rancho Corona Del Valle","fclName":"spot, building, farm","adminCodes1":{"ISO3166_2":"CA"},"countryName":"United States","fcodeName":"","adminName1":"California","lat":"34.74637"},{"adminCode1":"NY","lng":"-73.86255","geonameId":11839049,"toponymName":"North Corona","countryId":"6252001","fcl":"P","population":0,"countryCode":"US","name":"North Corona","fclName":"city, village,...","adminCodes1":{"ISO3166_2":"NY"},"countryName":"United States","fcodeName":"section of populated place","adminName1":"New York","lat":"40.74992","fcode":"PPLX"},{"adminCode1":"SD","lng":"-96.76365","geonameId":8259277,"toponymName":"Corona Post Office","countryId":"6252001","fcl":"S","population":0,"countryCode":"US","name":"Corona Post Office","fclName":"spot, building, farm","adminCodes1":{"ISO3166_2":"SD"},"countryName":"United States","fcodeName":"post office","adminName1":"South Dakota","lat":"45.33338","fcode":"PO"},{"adminCode1":"SC","lng":"-80.82398","geonameId":4575669,"toponymName":"Corona Park","countryId":"6252001","fcl":"P","population":0,"countryCode":"US","name":"Corona Park","fclName":"city, village,...","adminCodes1":{"ISO3166_2":"SC"},"countryName":"United States","fcodeName":"section of populated place","adminName1":"South Carolina","lat":"33.49793","fcode":"PPLX"},{"adminCode1":"CA","lng":"-116.96503","geonameId":5400067,"toponymName":"Sunnyslope Cemetery","countryId":"6252001","fcl":"S","population":0,"countryCode":"US","name":"Sunnyslope Cemetery","fclName":"spot, building, farm","adminCodes1":{"ISO3166_2":"CA"},"countryName":"United States","fcodeName":"cemetery","adminName1":"California","lat":"33.91946","fcode":"CMTY"},{"adminCode1":"NM","lng":"-106.0328","geonameId":5482739,"toponymName":"Oracio Tank","countryId":"6252001","fcl":"H","population":0,"countryCode":"US","name":"Oracio Tank","fclName":"stream, lake, ...","adminCodes1":{"ISO3166_2":"NM"},"countryName":"United States","fcodeName":"water tank","adminName1":"New Mexico","lat":"33.85506","fcode":"RSVT"},{"adminCode1":"CO","lng":"-105.58389","geonameId":6298017,"toponymName":"Nederland Mountain, Corona Pass","countryId":"6252001","fcl":"S","population":0,"countryCode":"US","name":"Nederland Mountain, Corona Pass","fclName":"spot, building, farm","adminCodes1":{"ISO3166_2":"CO"},"countryName":"United States","fcodeName":"meteorological station","adminName1":"Colorado","lat":"40.05028","fcode":"STNM"},{"adminCode1":"CO","lng":"-104.97254","geonameId":7124584,"toponymName":"Corona Presbyterian Church","countryId":"6252001","fcl":"S","population":0,"countryCode":"US","name":"Corona Presbyterian Church","fclName":"spot, building, farm","adminCodes1":{"ISO3166_2":"CO"},"countryName":"United States","fcodeName":"church","adminName1":"Colorado","lat":"39.72936","fcode":"CH"},{"adminCode1":"NY","lng":"-73.68917","geonameId":5113780,"toponymName":"James A Denver Elementary School","countryId":"6252001","fcl":"S","population":0,"countryCode":"US","name":"James A Denver Elementary School","fclName":"spot, building, farm","adminCodes1":{"ISO3166_2":"NY"},"countryName":"United States","fcodeName":"school","adminName1":"New York","lat":"40.68028","fcode":"SCH"},{"adminCode1":"MT","lng":"-114.87514","geonameId":5646406,"toponymName":"Corona Creek","countryId":"6252001","fcl":"H","population":0,"countryCode":"US","name":"Corona Creek","fclName":"stream, lake, ...","adminCodes1":{"ISO3166_2":"MT"},"countryName":"United States","fcodeName":"stream","adminName1":"Montana","lat":"47.67744","fcode":"STM"},{"adminCode1":"MN","lng":"-92.76611","geonameId":6352305,"toponymName":"Corona","countryId":"6252001","fcl":"S","population":0,"countryCode":"US","name":"Corona","fclName":"spot, building, farm","adminCodes1":{"ISO3166_2":"MN"},"countryName":"United States","fcodeName":"","adminName1":"Minnesota","lat":"46.67056"},{"adminCode1":"MN","lng":"-92.76611","geonameId":6349963,"toponymName":"Corona Post Office (historical)","countryId":"6252001","fcl":"S","population":0,"countryCode":"US","name":"Corona Post Office (historical)","fclName":"spot, building, farm","adminCodes1":{"ISO3166_2":"MN"},"countryName":"United States","fcodeName":"post office","adminName1":"Minnesota","lat":"46.67056","fcode":"PO"},{"adminCode1":"AZ","lng":"-110.77015","geonameId":7241312,"toponymName":"Corona Foothills Middle School","countryId":"6252001","fcl":"S","population":0,"countryCode":"US","name":"Corona Foothills Middle School","fclName":"spot, building, farm","adminCodes1":{"ISO3166_2":"AZ"},"countryName":"United States","fcodeName":"school","adminName1":"Arizona","lat":"31.9534","fcode":"SCH"},{"adminCode1":"TX","lng":"-98.57528","geonameId":7206815,"toponymName":"Corona de Vida Assembly of God","countryId":"6252001","fcl":"S","population":0,"countryCode":"US","name":"Corona de Vida Assembly of God","fclName":"spot, building, farm","adminCodes1":{"ISO3166_2":"TX"},"countryName":"United States","fcodeName":"church","adminName1":"Texas","lat":"29.415","fcode":"CH"},{"adminCode1":"OH","lng":"-84.3905","geonameId":4523450,"toponymName":"Saint Margaret of Corona Catholic Church","countryId":"6252001","fcl":"S","population":0,"countryCode":"US","name":"Saint Margaret of Corona Catholic Church","fclName":"spot, building, farm","adminCodes1":{"ISO3166_2":"OH"},"countryName":"United States","fcodeName":"church","adminName1":"Ohio","lat":"39.14923","fcode":"CH"},{"adminCode1":"OH","lng":"-84.39077","geonameId":4523451,"toponymName":"Saint Margaret of Corona School","countryId":"6252001","fcl":"S","population":0,"countryCode":"US","name":"Saint Margaret of Corona School","fclName":"spot, building, farm","adminCodes1":{"ISO3166_2":"OH"},"countryName":"United States","fcodeName":"school","adminName1":"Ohio","lat":"39.152","fcode":"SCH"},{"adminCode1":"AL","lng":"-87.27167","geonameId":4061952,"toponymName":"First Baptist Corona Avenue Church","countryId":"6252001","fcl":"S","population":0,"countryCode":"US","name":"First Baptist Corona Avenue Church","fclName":"spot, building, farm","adminCodes1":{"ISO3166_2":"AL"},"countryName":"United States","fcodeName":"church","adminName1":"Alabama","lat":"33.82427","fcode":"CH"},{"adminCode1":"AL","lng":"-87.49584","geonameId":4096980,"toponymName":"West Corona Mine","countryId":"6252001","fcl":"S","population":0,"countryCode":"US","name":"West Corona Mine","fclName":"spot, building, farm","adminCodes1":{"ISO3166_2":"AL"},"countryName":"United States","fcodeName":"mine(s)","adminName1":"Alabama","lat":"33.70844","fcode":"MN"},{"adminCode1":"AL","lng":"-87.47028","geonameId":4057035,"toponymName":"Corona Church","countryId":"6252001","fcl":"S","population":0,"countryCode":"US","name":"Corona Church","fclName":"spot, building, farm","adminCodes1":{"ISO3166_2":"AL"},"countryName":"United States","fcodeName":"church","adminName1":"Alabama","lat":"33.71039","fcode":"CH"},{"adminCode1":"AL","lng":"-87.41806","geonameId":4057037,"toponymName":"Corona Mine","countryId":"6252001","fcl":"S","population":0,"countryCode":"US","name":"Corona Mine","fclName":"spot, building, farm","adminCodes1":{"ISO3166_2":"AL"},"countryName":"United States","fcodeName":"mine(s)","adminName1":"Alabama","lat":"33.75983","fcode":"MN"},{"adminCode1":"AL","lng":"-87.47639","geonameId":4057038,"toponymName":"Corona Number 12 Mine","countryId":"6252001","fcl":"S","population":0,"countryCode":"US","name":"Corona Number 12 Mine","fclName":"spot, building, farm","adminCodes1":{"ISO3166_2":"AL"},"countryName":"United States","fcodeName":"mine(s)","adminName1":"Alabama","lat":"33.70567","fcode":"MN"},{"adminCode1":"AL","lng":"-87.45139","geonameId":4057040,"toponymName":"Corona Number 15 Mine","countryId":"6252001","fcl":"S","population":0,"countryCode":"US","name":"Corona Number 15 Mine","fclName":"spot, building, farm","adminCodes1":{"ISO3166_2":"AL"},"countryName":"United States","fcodeName":"mine(s)","adminName1":"Alabama","lat":"33.70567","fcode":"MN"},{"adminCode1":"AL","lng":"-87.50417","geonameId":4057041,"toponymName":"Corona Number 20 Mine","countryId":"6252001","fcl":"S","population":0,"countryCode":"US","name":"Corona Number 20 Mine","fclName":"spot, building, farm","adminCodes1":{"ISO3166_2":"AL"},"countryName":"United States","fcodeName":"mine(s)","adminName1":"Alabama","lat":"33.70844","fcode":"MN"},{"adminCode1":"CO","lng":"-105.68361","geonameId":5418052,"toponymName":"Corona Mine","countryId":"6252001","fcl":"S","population":0,"countryCode":"US","name":"Corona Mine","fclName":"spot, building, farm","adminCodes1":{"ISO3166_2":"CO"},"countryName":"United States","fcodeName":"mine(s)","adminName1":"Colorado","lat":"39.76138","fcode":"MN"},{"adminCode1":"CO","lng":"-105.69889","geonameId":5418053,"toponymName":"Corona Range Study Plot","countryId":"6252001","fcl":"S","population":0,"countryCode":"US","name":"Corona Range Study Plot","fclName":"spot, building, farm","adminCodes1":{"ISO3166_2":"CO"},"countryName":"United States","fcodeName":"","adminName1":"Colorado","lat":"39.90693"},{"adminCode1":"CO","lng":"-105.68306","geonameId":5418054,"toponymName":"Corona Trailhead","countryId":"6252001","fcl":"S","population":0,"countryCode":"US","name":"Corona Trailhead","fclName":"spot, building, farm","adminCodes1":{"ISO3166_2":"CO"},"countryName":"United States","fcodeName":"","adminName1":"Colorado","lat":"39.93471"},{"adminCode1":"AZ","lng":"-110.78731","geonameId":5290921,"toponymName":"Corona Speedway","countryId":"6252001","fcl":"S","population":0,"countryCode":"US","name":"Corona Speedway","fclName":"spot, building, farm","adminCodes1":{"ISO3166_2":"AZ"},"countryName":"United States","fcodeName":"","adminName1":"Arizona","lat":"32.0373"},{"adminCode1":"AZ","lng":"-111.39399","geonameId":5290923,"toponymName":"Corona Wash","countryId":"6252001","fcl":"H","population":0,"countryCode":"US","name":"Corona Wash","fclName":"stream, lake, ...","adminCodes1":{"ISO3166_2":"AZ"},"countryName":"United States","fcodeName":"stream","adminName1":"Arizona","lat":"31.54148","fcode":"STM"}]}
