{"totalResultsCount":26,"geonames":[{"adminCode1":"VT","lng":"-72.38205","geonameId":5235222,"toponymName":"Craftsbury Common","countryId":"6252001","fcl":"P","population":0,"countryCode":"US","name":"Craftsbury Common","fclName":"city, village,...","adminCodes1":{"ISO3166_2":"VT"},"countryName":"United States","fcodeName":"populated place","adminName1":"Vermont","lat":"44.65422","fcode":"PPL"},{"adminCode1":"VT","lng":"-72.37261","geonameId":5235219,"toponymName":"Craftsbury","countryId":"6252001","fcl":"P","population":0,"countryCode":"US","name":"Craftsbury","fclName":"city, village,...","adminCodes1":{"ISO3166_2":"VT"},"countryName":"United States","fcodeName":"populated place","adminName1":"Vermont","lat":"44.63672","fcode":"PPL"},{"adminCode1":"VT","lng":"-72.39611","geonameId":5235231,"toponymName":"Town of Craftsbury","countryId":"6252001","fcl":"A","population":1168,"countryCode":"US","name":"Town of Craftsbury","fclName":"country, state, region,...","adminCodes1":{"ISO3166_2":"VT"},"countryName":"United States","fcodeName":"third-order administrative division","adminName1":"Vermont","lat":"44.65358","fcode":"ADM3"},{"adminCode1":"VT","lng":"-72.36445","geonameId":6954884,"toponymName":"Craftsbury Outdoor Center","countryId":"6252001","fcl":"L","population":0,"countryCode":"US","name":"Craftsbury Outdoor Center","fclName":"parks,area, ...","adminCodes1":{"ISO3166_2":"VT"},"countryName":"United States","fcodeName":"park","adminName1":"Vermont","lat":"44.68176","fcode":"PRK"},{"adminCode1":"VT","lng":"-72.38316","geonameId":5235221,"toponymName":"Craftsbury Common","countryId":"6252001","fcl":"L","population":0,"countryCode":"US","name":"Craftsbury Common","fclName":"parks,area, ...","adminCodes1":{"ISO3166_2":"VT"},"countryName":"United States","fcodeName":"park","adminName1":"Vermont","lat":"44.65366","fcode":"PRK"},{"adminCode1":"VT","lng":"-72.34316","geonameId":5235686,"toponymName":"East Craftsbury","countryId":"6252001","fcl":"P","population":0,"countryCode":"US","name":"East Craftsbury","fclName":"city, village,...","adminCodes1":{"ISO3166_2":"VT"},"countryName":"United States","fcodeName":"populated place","adminName1":"Vermont","lat":"44.64255","fcode":"PPL"},{"adminCode1":"VT","lng":"-72.38216","geonameId":7181264,"toponymName":"Sterling College","countryId":"6252001","fcl":"S","population":0,"countryCode":"US","name":"Sterling College","fclName":"spot, building, farm","adminCodes1":{"ISO3166_2":"VT"},"countryName":"United States","fcodeName":"school","adminName1":"Vermont","lat":"44.65222","fcode":"SCH"},{"adminCode1":"VT","lng":"-72.38177","geonameId":5235225,"toponymName":"Craftsbury Common Post Office","countryId":"6252001","fcl":"S","population":0,"countryCode":"US","name":"Craftsbury Common Post Office","fclName":"spot, building, farm","adminCodes1":{"ISO3166_2":"VT"},"countryName":"United States","fcodeName":"post office","adminName1":"Vermont","lat":"44.65338","fcode":"PO"},{"adminCode1":"VT","lng":"-72.38197","geonameId":5235226,"toponymName":"Craftsbury Schools","countryId":"6252001","fcl":"S","population":0,"countryCode":"US","name":"Craftsbury Schools","fclName":"spot, building, farm","adminCodes1":{"ISO3166_2":"VT"},"countryName":"United States","fcodeName":"school","adminName1":"Vermont","lat":"44.65422","fcode":"SCH"},{"adminCode1":"VT","lng":"-72.38094","geonameId":5235223,"toponymName":"Craftsbury Common Cemetery","countryId":"6252001","fcl":"S","population":0,"countryCode":"US","name":"Craftsbury Common Cemetery","fclName":"spot, building, farm","adminCodes1":{"ISO3166_2":"VT"},"countryName":"United States","fcodeName":"cemetery","adminName1":"Vermont","lat":"44.65116","fcode":"CMTY"},{"adminCode1":"VT","lng":"-72.37538","geonameId":5238585,"toponymName":"Mill Village","countryId":"6252001","fcl":"P","population":0,"countryCode":"US","name":"Mill Village","fclName":"city, village,...","adminCodes1":{"ISO3166_2":"VT"},"countryName":"United States","fcodeName":"populated place","adminName1":"Vermont","lat":"44.66616","fcode":"PPL"},{"adminCode1":"VT","lng":"-72.40289","geonameId":5242714,"toponymName":"West Hill","countryId":"6252001","fcl":"T","population":0,"countryCode":"US","name":"West Hill","fclName":"mountain,hill,rock,... ","adminCodes1":{"ISO3166_2":"VT"},"countryName":"United States","fcodeName":"mountain","adminName1":"Vermont","lat":"44.61505","fcode":"MT"},{"adminCode1":"VT","lng":"-72.37152","geonameId":7131734,"toponymName":"Craftsbury Fire Department","countryId":"6252001","fcl":"S","population":0,"countryCode":"US","name":"Craftsbury Fire Department","fclName":"spot, building, farm","adminCodes1":{"ISO3166_2":"VT"},"countryName":"United States","fcodeName":"building(s)","adminName1":"Vermont","lat":"44.63695","fcode":"BLDG"},{"adminCode1":"VT","lng":"-72.38198","geonameId":5235220,"toponymName":"Craftsbury Academy","countryId":"6252001","fcl":"S","population":0,"countryCode":"US","name":"Craftsbury Academy","fclName":"spot, building, farm","adminCodes1":{"ISO3166_2":"VT"},"countryName":"United States","fcodeName":"school","adminName1":"Vermont","lat":"44.65421","fcode":"SCH"},{"adminCode1":"VT","lng":"-72.384","geonameId":5235224,"toponymName":"Craftsbury Common Congregational Church","countryId":"6252001","fcl":"S","population":0,"countryCode":"US","name":"Craftsbury Common Congregational Church","fclName":"spot, building, farm","adminCodes1":{"ISO3166_2":"VT"},"countryName":"United States","fcodeName":"church","adminName1":"Vermont","lat":"44.6545","fcode":"CH"},{"adminCode1":"VT","lng":"-72.36761","geonameId":5235227,"toponymName":"Craftsbury Nordic Center","countryId":"6252001","fcl":"S","population":0,"countryCode":"US","name":"Craftsbury Nordic Center","fclName":"spot, building, farm","adminCodes1":{"ISO3166_2":"VT"},"countryName":"United States","fcodeName":"","adminName1":"Vermont","lat":"44.67894"},{"adminCode1":"VT","lng":"-72.37177","geonameId":5235228,"toponymName":"Craftsbury Post Office","countryId":"6252001","fcl":"S","population":0,"countryCode":"US","name":"Craftsbury Post Office","fclName":"spot, building, farm","adminCodes1":{"ISO3166_2":"VT"},"countryName":"United States","fcodeName":"post office","adminName1":"Vermont","lat":"44.6345","fcode":"PO"},{"adminCode1":"VT","lng":"-72.36316","geonameId":5235229,"toponymName":"Craftsbury School (historical)","countryId":"6252001","fcl":"S","population":0,"countryCode":"US","name":"Craftsbury School (historical)","fclName":"spot, building, farm","adminCodes1":{"ISO3166_2":"VT"},"countryName":"United States","fcodeName":"school","adminName1":"Vermont","lat":"44.68033","fcode":"SCH"},{"adminCode1":"VT","lng":"-72.38261","geonameId":5235230,"toponymName":"Craftsbury Village Cemetery","countryId":"6252001","fcl":"S","population":0,"countryCode":"US","name":"Craftsbury Village Cemetery","fclName":"spot, building, farm","adminCodes1":{"ISO3166_2":"VT"},"countryName":"United States","fcodeName":"cemetery","adminName1":"Vermont","lat":"44.6295","fcode":"CMTY"},{"adminCode1":"VT","lng":"-72.33844","geonameId":5235687,"toponymName":"East Craftsbury Cemetery","countryId":"6252001","fcl":"S","population":0,"countryCode":"US","name":"East Craftsbury Cemetery","fclName":"spot, building, farm","adminCodes1":{"ISO3166_2":"VT"},"countryName":"United States","fcodeName":"cemetery","adminName1":"Vermont","lat":"44.637","fcode":"CMTY"},{"adminCode1":"VT","lng":"-72.34149","geonameId":5235688,"toponymName":"East Craftsbury Presbyterian Church","countryId":"6252001","fcl":"S","population":0,"countryCode":"US","name":"East Craftsbury Presbyterian Church","fclName":"spot, building, farm","adminCodes1":{"ISO3166_2":"VT"},"countryName":"United States","fcodeName":"church","adminName1":"Vermont","lat":"44.64144","fcode":"CH"},{"adminCode1":"VT","lng":"-72.34149","geonameId":5239429,"toponymName":"Old Covenanter Church (historical)","countryId":"6252001","fcl":"S","population":0,"countryCode":"US","name":"Old Covenanter Church (historical)","fclName":"spot, building, farm","adminCodes1":{"ISO3166_2":"VT"},"countryName":"United States","fcodeName":"church","adminName1":"Vermont","lat":"44.64144","fcode":"CH"},{"adminCode1":"VT","lng":"-72.38177","geonameId":5239430,"toponymName":"Old Covenater Church (historical)","countryId":"6252001","fcl":"S","population":0,"countryCode":"US","name":"Old Covenater Church (historical)","fclName":"spot, building, farm","adminCodes1":{"ISO3166_2":"VT"},"countryName":"United States","fcodeName":"church","adminName1":"Vermont","lat":"44.6545","fcode":"CH"},{"adminCode1":"VT","lng":"-72.42594","geonameId":5234094,"toponymName":"Branch School","countryId":"6252001","fcl":"S","population":0,"countryCode":"US","name":"Branch School","fclName":"spot, building, farm","adminCodes1":{"ISO3166_2":"VT"},"countryName":"United States","fcodeName":"school","adminName1":"Vermont","lat":"44.63172","fcode":"SCH"},{"adminCode1":"VT","lng":"-72.36094","geonameId":5237532,"toponymName":"John Woodruff Simpson Memorial Library","countryId":"6252001","fcl":"S","population":0,"countryCode":"US","name":"John Woodruff Simpson Memorial Library","fclName":"spot, building, farm","adminCodes1":{"ISO3166_2":"VT"},"countryName":"United States","fcodeName":"library","adminName1":"Vermont","lat":"44.63644","fcode":"LIBR"},{"adminCode1":"VT","lng":"-72.37582","geonameId":5238008,"toponymName":"Little Hosmer Pond Dam","countryId":"6252001","fcl":"S","population":0,"countryCode":"US","name":"Little Hosmer Pond Dam","fclName":"spot, building, farm","adminCodes1":{"ISO3166_2":"VT"},"countryName":"United States","fcodeName":"dam","adminName1":"Vermont","lat":"44.6665","fcode":"DAM"}]}
