{"totalResultsCount":11,"geonames":[{"adminCode1":"IN","lng":"-85.0908","geonameId":4919369,"toponymName":"Craigville","countryId":"6252001","fcl":"P","population":0,"countryCode":"US","name":"Craigville","fclName":"city, village,...","adminCodes1":{"ISO3166_2":"IN"},"countryName":"United States","fcodeName":"populated place","adminName1":"Indiana","lat":"40.77838","fcode":"PPL"},{"adminCode1":"MN","lng":"-93.61296","geonameId":5023310,"toponymName":"Craigville","countryId":"6252001","fcl":"P","population":0,"countryCode":"US","name":"Craigville","fclName":"city, village,...","adminCodes1":{"ISO3166_2":"MN"},"countryName":"United States","fcodeName":"populated place","adminName1":"Minnesota","lat":"47.903","fcode":"PPL"},{"adminCode1":"MA","lng":"-70.33502","geonameId":4934080,"toponymName":"Craigville","countryId":"6252001","fcl":"P","population":0,"countryCode":"US","name":"Craigville","fclName":"city, village,...","adminCodes1":{"ISO3166_2":"MA"},"countryName":"United States","fcodeName":"populated place","adminName1":"Massachusetts","lat":"41.63956","fcode":"PPL"},{"adminCode1":"MA","lng":"-70.35641","geonameId":4934082,"toponymName":"Craigville Beach","countryId":"6252001","fcl":"T","population":0,"countryCode":"US","name":"Craigville Beach","fclName":"mountain,hill,rock,... ","adminCodes1":{"ISO3166_2":"MA"},"countryName":"United States","fcodeName":"beach","adminName1":"Massachusetts","lat":"41.63206","fcode":"BCH"},{"adminCode1":"WV","lng":"-80.65315","geonameId":4803183,"toponymName":"Craigsville","countryId":"6252001","fcl":"P","population":2213,"countryCode":"US","name":"Craigsville","fclName":"city, village,...","adminCodes1":{"ISO3166_2":"WV"},"countryName":"United States","fcodeName":"populated place","adminName1":"West Virginia","lat":"38.33067","fcode":"PPL"},{"adminCode1":"NY","lng":"-74.23876","geonameId":5113976,"toponymName":"Craigville","countryId":"6252001","fcl":"P","population":0,"countryCode":"US","name":"Craigville","fclName":"city, village,...","adminCodes1":{"ISO3166_2":"NY"},"countryName":"United States","fcodeName":"populated place","adminName1":"New York","lat":"41.38593","fcode":"PPL"},{"adminCode1":"MA","lng":"-70.3453","geonameId":4934081,"toponymName":"Craigville Beach","countryId":"6252001","fcl":"P","population":0,"countryCode":"US","name":"Craigville Beach","fclName":"city, village,...","adminCodes1":{"ISO3166_2":"MA"},"countryName":"United States","fcodeName":"populated place","adminName1":"Massachusetts","lat":"41.63678","fcode":"PPL"},{"adminCode1":"MN","lng":"-93.61278","geonameId":7121171,"toponymName":"Craigville Post Office (historical)","countryId":"6252001","fcl":"S","population":0,"countryCode":"US","name":"Craigville Post Office (historical)","fclName":"spot, building, farm","adminCodes1":{"ISO3166_2":"MN"},"countryName":"United States","fcodeName":"post office","adminName1":"Minnesota","lat":"47.90306","fcode":"PO"},{"adminCode1":"MA","lng":"-70.33836","geonameId":4934083,"toponymName":"Craigville Marshes","countryId":"6252001","fcl":"H","population":0,"countryCode":"US","name":"Craigville Marshes","fclName":"stream, lake, ...","adminCodes1":{"ISO3166_2":"MA"},"countryName":"United States","fcodeName":"swamp","adminName1":"Massachusetts","lat":"41.64039","fcode":"SWMP"},{"adminCode1":"PA","lng":"-79.64283","geonameId":5185738,"toponymName":"Craigville Brach Junction Station","countryId":"6252001","fcl":"S","population":0,"countryCode":"US","name":"Craigville Brach Junction Station","fclName":"spot, building, farm","adminCodes1":{"ISO3166_2":"PA"},"countryName":"United States","fcodeName":"","adminName1":"Pennsylvania","lat":"40.84895"},{"adminCode1":"NY","lng":"-74.23861","geonameId":7188211,"toponymName":"Craigville Bible Church","countryId":"6252001","fcl":"S","population":0,"countryCode":"US","name":"Craigville Bible Church","fclName":"spot, building, farm","adminCodes1":{"ISO3166_2":"NY"},"countryName":"United States","fcodeName":"church","adminName1":"New York","lat":"41.38472","fcode":"CH"}]}
