{"totalResultsCount":961,"geonames":[{"adminCode1":"VA","lng":"-80.21234","geonameId":4754544,"toponymName":"Craig County","countryId":"6252001","fcl":"A","population":5190,"countryCode":"US","name":"Craig","fclName":"country, state, region,...","adminCodes1":{"ISO3166_2":"VA"},"countryName":"United States","fcodeName":"second-order administrative division","adminName1":"Virginia","lat":"37.48125","fcode":"ADM2"},{"adminCode1":"OK","lng":"-95.2085","geonameId":4534416,"toponymName":"Craig County","countryId":"6252001","fcl":"A","population":15029,"countryCode":"US","name":"Craig","fclName":"country, state, region,...","adminCodes1":{"ISO3166_2":"OK"},"countryName":"United States","fcodeName":"second-order administrative division","adminName1":"Oklahoma","lat":"36.76176","fcode":"ADM2"},{"adminCode1":"AK","lng":"-133.14833","geonameId":5845544,"toponymName":"Craig","countryId":"6252001","fcl":"P","population":1248,"countryCode":"US","name":"Craig","fclName":"city, village,...","adminCodes1":{"ISO3166_2":"AK"},"countryName":"United States","fcodeName":"populated place","adminName1":"Alaska","lat":"55.47639","fcode":"PPL"},{"adminCode1":"VA","lng":"-80.20026","geonameId":4785173,"toponymName":"Shawvers Run Wilderness","countryId":"6252001","fcl":"L","population":0,"countryCode":"US","name":"Shawvers Run Wilderness","fclName":"parks,area, ...","adminCodes1":{"ISO3166_2":"VA"},"countryName":"United States","fcodeName":"reserve","adminName1":"Virginia","lat":"37.5868","fcode":"RES"},{"adminCode1":"OK","lng":"-95.15413","geonameId":4554496,"toponymName":"Vinita","countryId":"6252001","fcl":"P","population":5643,"countryCode":"US","name":"Vinita","fclName":"city, village,...","adminCodes1":{"ISO3166_2":"OK"},"countryName":"United States","fcodeName":"seat of a second-order administrative division","adminName1":"Oklahoma","lat":"36.63869","fcode":"PPLA2"},{"adminCode1":"OK","lng":"-95.01531","geonameId":4534417,"toponymName":"South Grand Lake Regional Airport","countryId":"6252001","fcl":"S","population":0,"countryCode":"US","name":"South Grand Lake Regional Airport","fclName":"spot, building, farm","adminCodes1":{"ISO3166_2":"OK"},"countryName":"United States","fcodeName":"airport","adminName1":"Oklahoma","lat":"36.54278","fcode":"AIRP"},{"adminCode1":"OK","lng":"-95.22136","geonameId":4530519,"toponymName":"Big Cabin","countryId":"6252001","fcl":"P","population":262,"countryCode":"US","name":"Big Cabin","fclName":"city, village,...","adminCodes1":{"ISO3166_2":"OK"},"countryName":"United States","fcodeName":"populated place","adminName1":"Oklahoma","lat":"36.53787","fcode":"PPL"},{"adminCode1":"OK","lng":"-95.07108","geonameId":4530952,"toponymName":"Bluejacket","countryId":"6252001","fcl":"P","population":335,"countryCode":"US","name":"Bluejacket","fclName":"city, village,...","adminCodes1":{"ISO3166_2":"OK"},"countryName":"United States","fcodeName":"populated place","adminName1":"Oklahoma","lat":"36.7998","fcode":"PPL"},{"adminCode1":"OK","lng":"-95.02385","geonameId":4540176,"toponymName":"Ketchum","countryId":"6252001","fcl":"P","population":438,"countryCode":"US","name":"Ketchum","fclName":"city, village,...","adminCodes1":{"ISO3166_2":"OK"},"countryName":"United States","fcodeName":"populated place","adminName1":"Oklahoma","lat":"36.52453","fcode":"PPL"},{"adminCode1":"OK","lng":"-95.0958","geonameId":4554897,"toponymName":"Welch","countryId":"6252001","fcl":"P","population":611,"countryCode":"US","name":"Welch","fclName":"city, village,...","adminCodes1":{"ISO3166_2":"OK"},"countryName":"United States","fcodeName":"populated place","adminName1":"Oklahoma","lat":"36.87369","fcode":"PPL"},{"adminCode1":"FL","lng":"-81.51426","geonameId":4152236,"toponymName":"Craig Municipal Airport","countryId":"6252001","fcl":"S","population":0,"countryCode":"US","name":"Craig Municipal Airport","fclName":"spot, building, farm","adminCodes1":{"ISO3166_2":"FL"},"countryName":"United States","fcodeName":"airport","adminName1":"Florida","lat":"30.33635","fcode":"AIRP"},{"adminCode1":"CO","lng":"-107.52201","geonameId":5576076,"toponymName":"Craig-Moffat Airport","countryId":"6252001","fcl":"S","population":0,"countryCode":"US","name":"Craig-Moffat Airport","fclName":"spot, building, farm","adminCodes1":{"ISO3166_2":"CO"},"countryName":"United States","fcodeName":"airport","adminName1":"Colorado","lat":"40.49497","fcode":"AIRP"},{"adminCode1":"AL","lng":"-86.98777","geonameId":4057424,"toponymName":"Craig Field Airport","countryId":"6252001","fcl":"S","population":0,"countryCode":"US","name":"Craig Field Airport","fclName":"spot, building, farm","adminCodes1":{"ISO3166_2":"AL"},"countryName":"United States","fcodeName":"airport","adminName1":"Alabama","lat":"32.34375","fcode":"AIRP"},{"adminCode1":"AK","lng":"-133.14778","geonameId":5845548,"toponymName":"Craig Seaplane Base","countryId":"6252001","fcl":"S","population":0,"countryCode":"US","name":"Craig SPB","fclName":"spot, building, farm","adminCodes1":{"ISO3166_2":"AK"},"countryName":"United States","fcodeName":"airport","adminName1":"Alaska","lat":"55.47861","fcode":"AIRP"},{"adminCode1":"VA","lng":"-80.262","geonameId":4777775,"toponymName":"Paint Bank","countryId":"6252001","fcl":"P","population":0,"countryCode":"US","name":"Paint Bank","fclName":"city, village,...","adminCodes1":{"ISO3166_2":"VA"},"countryName":"United States","fcodeName":"populated place","adminName1":"Virginia","lat":"37.56901","fcode":"PPL"},{"adminCode1":"VA","lng":"-80.40172","geonameId":4765196,"toponymName":"Huffman","countryId":"6252001","fcl":"P","population":0,"countryCode":"US","name":"Huffman","fclName":"city, village,...","adminCodes1":{"ISO3166_2":"VA"},"countryName":"United States","fcodeName":"populated place","adminName1":"Virginia","lat":"37.34791","fcode":"PPL"},{"adminCode1":"VA","lng":"-80.382","geonameId":4771283,"toponymName":"Maggie","countryId":"6252001","fcl":"P","population":0,"countryCode":"US","name":"Maggie","fclName":"city, village,...","adminCodes1":{"ISO3166_2":"VA"},"countryName":"United States","fcodeName":"populated place","adminName1":"Virginia","lat":"37.42346","fcode":"PPL"},{"adminCode1":"VA","lng":"-80.05977","geonameId":4771746,"toponymName":"Marshalltown","countryId":"6252001","fcl":"P","population":0,"countryCode":"US","name":"Marshalltown","fclName":"city, village,...","adminCodes1":{"ISO3166_2":"VA"},"countryName":"United States","fcodeName":"populated place","adminName1":"Virginia","lat":"37.53818","fcode":"PPL"},{"adminCode1":"VA","lng":"-80.45478","geonameId":4750931,"toponymName":"Captain","countryId":"6252001","fcl":"P","population":0,"countryCode":"US","name":"Captain","fclName":"city, village,...","adminCodes1":{"ISO3166_2":"VA"},"countryName":"United States","fcodeName":"populated place","adminName1":"Virginia","lat":"37.39235","fcode":"PPL"},{"adminCode1":"VA","lng":"-80.13949","geonameId":4743789,"toponymName":"Abbott","countryId":"6252001","fcl":"P","population":0,"countryCode":"US","name":"Abbott","fclName":"city, village,...","adminCodes1":{"ISO3166_2":"VA"},"countryName":"United States","fcodeName":"populated place","adminName1":"Virginia","lat":"37.4293","fcode":"PPL"},{"adminCode1":"VA","lng":"-80.36172","geonameId":4785752,"toponymName":"Simmonsville","countryId":"6252001","fcl":"P","population":0,"countryCode":"US","name":"Simmonsville","fclName":"city, village,...","adminCodes1":{"ISO3166_2":"VA"},"countryName":"United States","fcodeName":"populated place","adminName1":"Virginia","lat":"37.38429","fcode":"PPL"},{"adminCode1":"VA","lng":"-80.32311","geonameId":4778654,"toponymName":"Peters Mountain","countryId":"6252001","fcl":"T","population":0,"countryCode":"US","name":"Peters Mountain","fclName":"mountain,hill,rock,... ","adminCodes1":{"ISO3166_2":"VA"},"countryName":"United States","fcodeName":"mountains","adminName1":"Virginia","lat":"37.56651","fcode":"MTS"},{"adminCode1":"VA","lng":"-80.292","geonameId":4754558,"toponymName":"Craig Springs","countryId":"6252001","fcl":"P","population":0,"countryCode":"US","name":"Craig Springs","fclName":"city, village,...","adminCodes1":{"ISO3166_2":"VA"},"countryName":"United States","fcodeName":"populated place","adminName1":"Virginia","lat":"37.48485","fcode":"PPL"},{"adminCode1":"CO","lng":"-107.54645","geonameId":5576064,"toponymName":"Craig","countryId":"6252001","fcl":"P","population":8844,"countryCode":"US","name":"Craig","fclName":"city, village,...","adminCodes1":{"ISO3166_2":"CO"},"countryName":"United States","fcodeName":"seat of a second-order administrative division","adminName1":"Colorado","lat":"40.51525","fcode":"PPLA2"},{"adminCode1":"OK","lng":"-95.35331","geonameId":4532818,"toponymName":"Centralia","countryId":"6252001","fcl":"P","population":0,"countryCode":"US","name":"Centralia","fclName":"city, village,...","adminCodes1":{"ISO3166_2":"OK"},"countryName":"United States","fcodeName":"populated place","adminName1":"Oklahoma","lat":"36.79675","fcode":"PPL"},{"adminCode1":"OK","lng":"-95.26414","geonameId":4555281,"toponymName":"White Oak","countryId":"6252001","fcl":"P","population":263,"countryCode":"US","name":"White Oak","fclName":"city, village,...","adminCodes1":{"ISO3166_2":"OK"},"countryName":"United States","fcodeName":"populated place","adminName1":"Oklahoma","lat":"36.62036","fcode":"PPL"},{"adminCode1":"VA","lng":"-80.11088","geonameId":4775705,"toponymName":"New Castle","countryId":"6252001","fcl":"P","population":152,"countryCode":"US","name":"New Castle","fclName":"city, village,...","adminCodes1":{"ISO3166_2":"VA"},"countryName":"United States","fcodeName":"seat of a second-order administrative division","adminName1":"Virginia","lat":"37.50013","fcode":"PPLA2"},{"adminCode1":"NE","lng":"-96.36391","geonameId":5066380,"toponymName":"Craig","countryId":"6252001","fcl":"P","population":191,"countryCode":"US","name":"Craig","fclName":"city, village,...","adminCodes1":{"ISO3166_2":"NE"},"countryName":"United States","fcodeName":"populated place","adminName1":"Nebraska","lat":"41.78555","fcode":"PPL"},{"adminCode1":"VA","lng":"-80.11185","geonameId":7162048,"toponymName":"Town of New Castle","countryId":"6252001","fcl":"A","population":153,"countryCode":"US","name":"Town of New Castle","fclName":"country, state, region,...","adminCodes1":{"ISO3166_2":"VA"},"countryName":"United States","fcodeName":"administrative division","adminName1":"Virginia","lat":"37.50125","fcode":"ADMD"},{"adminCode1":"VA","lng":"-80.11005","geonameId":4775706,"toponymName":"New Castle Historic District","countryId":"6252001","fcl":"L","population":0,"countryCode":"US","name":"New Castle Historic District","fclName":"parks,area, ...","adminCodes1":{"ISO3166_2":"VA"},"countryName":"United States","fcodeName":"park","adminName1":"Virginia","lat":"37.50291","fcode":"PRK"},{"adminCode1":"VA","lng":"-80.12616","geonameId":4776664,"toponymName":"Nutters Mountain","countryId":"6252001","fcl":"T","population":0,"countryCode":"US","name":"Nutters Mountain","fclName":"mountain,hill,rock,... ","adminCodes1":{"ISO3166_2":"VA"},"countryName":"United States","fcodeName":"mountain","adminName1":"Virginia","lat":"37.53096","fcode":"MT"},{"adminCode1":"VA","lng":"-80.03644","geonameId":4745371,"toponymName":"Bald Mountain","countryId":"6252001","fcl":"T","population":0,"countryCode":"US","name":"Bald Mountain","fclName":"mountain,hill,rock,... ","adminCodes1":{"ISO3166_2":"VA"},"countryName":"United States","fcodeName":"mountain","adminName1":"Virginia","lat":"37.61513","fcode":"MT"},{"adminCode1":"VA","lng":"-80.10363","geonameId":4745554,"toponymName":"Barbours Creek Wilderness","countryId":"6252001","fcl":"L","population":0,"countryCode":"US","name":"Barbours Creek Wilderness","fclName":"parks,area, ...","adminCodes1":{"ISO3166_2":"VA"},"countryName":"United States","fcodeName":"reserve","adminName1":"Virginia","lat":"37.60547","fcode":"RES"},{"adminCode1":"VA","lng":"-80.44061","geonameId":4767466,"toponymName":"Kelly Knob","countryId":"6252001","fcl":"T","population":0,"countryCode":"US","name":"Kelly Knob","fclName":"mountain,hill,rock,... ","adminCodes1":{"ISO3166_2":"VA"},"countryName":"United States","fcodeName":"mountain","adminName1":"Virginia","lat":"37.35596","fcode":"MT"},{"adminCode1":"VA","lng":"-80.33867","geonameId":4784940,"toponymName":"Sevenmile Mountain","countryId":"6252001","fcl":"T","population":0,"countryCode":"US","name":"Sevenmile Mountain","fclName":"mountain,hill,rock,... ","adminCodes1":{"ISO3166_2":"VA"},"countryName":"United States","fcodeName":"mountain","adminName1":"Virginia","lat":"37.4604","fcode":"MT"},{"adminCode1":"VA","lng":"-80.30591","geonameId":4785750,"toponymName":"Simmonsville District","countryId":"6252001","fcl":"A","population":0,"countryCode":"US","name":"Simmonsville District","fclName":"country, state, region,...","adminCodes1":{"ISO3166_2":"VA"},"countryName":"United States","fcodeName":"administrative division","adminName1":"Virginia","lat":"37.40518","fcode":"ADMD"},{"adminCode1":"VA","lng":"-80.40811","geonameId":4779232,"toponymName":"Piney Ridge","countryId":"6252001","fcl":"T","population":0,"countryCode":"US","name":"Piney Ridge","fclName":"mountain,hill,rock,... ","adminCodes1":{"ISO3166_2":"VA"},"countryName":"United States","fcodeName":"ridge(s)","adminName1":"Virginia","lat":"37.41679","fcode":"RDGE"},{"adminCode1":"VA","lng":"-80.38108","geonameId":11383702,"toponymName":"Appalachian National Scenic Trail","countryId":"6252001","fcl":"L","population":0,"countryCode":"US","name":"Appalachian National Scenic Trail","fclName":"parks,area, ...","adminCodes1":{"ISO3166_2":"VA"},"countryName":"United States","fcodeName":"park","adminName1":"Virginia","lat":"37.35175","fcode":"PRK"},{"adminCode1":"VA","lng":"-80.23918","geonameId":11384881,"toponymName":"Brush Mountain East Wilderness","countryId":"6252001","fcl":"L","population":0,"countryCode":"US","name":"Brush Mountain East Wilderness","fclName":"parks,area, ...","adminCodes1":{"ISO3166_2":"VA"},"countryName":"United States","fcodeName":"reserve","adminName1":"Virginia","lat":"37.36728","fcode":"RES"},{"adminCode1":"OK","lng":"-95.22212","geonameId":7174291,"toponymName":"Town of Big Cabin","countryId":"6252001","fcl":"A","population":265,"countryCode":"US","name":"Town of Big Cabin","fclName":"country, state, region,...","adminCodes1":{"ISO3166_2":"OK"},"countryName":"United States","fcodeName":"administrative division","adminName1":"Oklahoma","lat":"36.54019","fcode":"ADMD"},{"adminCode1":"OK","lng":"-95.07407","geonameId":7174306,"toponymName":"Town of Bluejacket","countryId":"6252001","fcl":"A","population":339,"countryCode":"US","name":"Town of Bluejacket","fclName":"country, state, region,...","adminCodes1":{"ISO3166_2":"OK"},"countryName":"United States","fcodeName":"administrative division","adminName1":"Oklahoma","lat":"36.8008","fcode":"ADMD"},{"adminCode1":"OK","lng":"-95.16161","geonameId":7174633,"toponymName":"City of Vinita","countryId":"6252001","fcl":"A","population":5743,"countryCode":"US","name":"City of Vinita","fclName":"country, state, region,...","adminCodes1":{"ISO3166_2":"OK"},"countryName":"United States","fcodeName":"administrative division","adminName1":"Oklahoma","lat":"36.64021","fcode":"ADMD"},{"adminCode1":"OK","lng":"-95.04183","geonameId":7175242,"toponymName":"Town of Ketchum","countryId":"6252001","fcl":"A","population":442,"countryCode":"US","name":"Town of Ketchum","fclName":"country, state, region,...","adminCodes1":{"ISO3166_2":"OK"},"countryName":"United States","fcodeName":"administrative division","adminName1":"Oklahoma","lat":"36.51061","fcode":"ADMD"},{"adminCode1":"OK","lng":"-95.0947","geonameId":7175861,"toponymName":"Town of Welch","countryId":"6252001","fcl":"A","population":619,"countryCode":"US","name":"Town of Welch","fclName":"country, state, region,...","adminCodes1":{"ISO3166_2":"OK"},"countryName":"United States","fcodeName":"administrative division","adminName1":"Oklahoma","lat":"36.87387","fcode":"ADMD"},{"adminCode1":"OK","lng":"-95.15802","geonameId":4551729,"toponymName":"South Park","countryId":"6252001","fcl":"L","population":0,"countryCode":"US","name":"South Park","fclName":"parks,area, ...","adminCodes1":{"ISO3166_2":"OK"},"countryName":"United States","fcodeName":"park","adminName1":"Oklahoma","lat":"36.63703","fcode":"PRK"},{"adminCode1":"OK","lng":"-95.06607","geonameId":4553224,"toponymName":"Township 1","countryId":"6252001","fcl":"A","population":0,"countryCode":"US","name":"Township 1","fclName":"country, state, region,...","adminCodes1":{"ISO3166_2":"OK"},"countryName":"United States","fcodeName":"administrative division","adminName1":"Oklahoma","lat":"36.92646","fcode":"ADMD"},{"adminCode1":"OK","lng":"-95.36803","geonameId":4553226,"toponymName":"Township 10","countryId":"6252001","fcl":"A","population":0,"countryCode":"US","name":"Township 10","fclName":"country, state, region,...","adminCodes1":{"ISO3166_2":"OK"},"countryName":"United States","fcodeName":"administrative division","adminName1":"Oklahoma","lat":"36.92369","fcode":"ADMD"},{"adminCode1":"OK","lng":"-95.26136","geonameId":4553227,"toponymName":"Township 2","countryId":"6252001","fcl":"A","population":0,"countryCode":"US","name":"Township 2","fclName":"country, state, region,...","adminCodes1":{"ISO3166_2":"OK"},"countryName":"United States","fcodeName":"administrative division","adminName1":"Oklahoma","lat":"36.92452","fcode":"ADMD"},{"adminCode1":"OK","lng":"-95.31692","geonameId":4553229,"toponymName":"Township 3","countryId":"6252001","fcl":"A","population":0,"countryCode":"US","name":"Township 3","fclName":"country, state, region,...","adminCodes1":{"ISO3166_2":"OK"},"countryName":"United States","fcodeName":"administrative division","adminName1":"Oklahoma","lat":"36.81814","fcode":"ADMD"},{"adminCode1":"OK","lng":"-95.06941","geonameId":4553231,"toponymName":"Township 4","countryId":"6252001","fcl":"A","population":0,"countryCode":"US","name":"Township 4","fclName":"country, state, region,...","adminCodes1":{"ISO3166_2":"OK"},"countryName":"United States","fcodeName":"administrative division","adminName1":"Oklahoma","lat":"36.81813","fcode":"ADMD"},{"adminCode1":"OK","lng":"-95.31775","geonameId":4553233,"toponymName":"Township 5","countryId":"6252001","fcl":"A","population":0,"countryCode":"US","name":"Township 5","fclName":"country, state, region,...","adminCodes1":{"ISO3166_2":"OK"},"countryName":"United States","fcodeName":"administrative division","adminName1":"Oklahoma","lat":"36.69175","fcode":"ADMD"},{"adminCode1":"OK","lng":"-95.0683","geonameId":4553236,"toponymName":"Township 7","countryId":"6252001","fcl":"A","population":0,"countryCode":"US","name":"Township 7","fclName":"country, state, region,...","adminCodes1":{"ISO3166_2":"OK"},"countryName":"United States","fcodeName":"administrative division","adminName1":"Oklahoma","lat":"36.65008","fcode":"ADMD"},{"adminCode1":"OK","lng":"-95.19191","geonameId":4553237,"toponymName":"Township 8","countryId":"6252001","fcl":"A","population":0,"countryCode":"US","name":"Township 8","fclName":"country, state, region,...","adminCodes1":{"ISO3166_2":"OK"},"countryName":"United States","fcodeName":"administrative division","adminName1":"Oklahoma","lat":"36.55703","fcode":"ADMD"},{"adminCode1":"OK","lng":"-95.0683","geonameId":4553238,"toponymName":"Township 9","countryId":"6252001","fcl":"A","population":0,"countryCode":"US","name":"Township 9","fclName":"country, state, region,...","adminCodes1":{"ISO3166_2":"OK"},"countryName":"United States","fcodeName":"administrative division","adminName1":"Oklahoma","lat":"36.72508","fcode":"ADMD"},{"adminCode1":"OK","lng":"-95.32581","geonameId":4532472,"toponymName":"Catale Oil Field","countryId":"6252001","fcl":"L","population":0,"countryCode":"US","name":"Catale Oil Field","fclName":"parks,area, ...","adminCodes1":{"ISO3166_2":"OK"},"countryName":"United States","fcodeName":"oilfield","adminName1":"Oklahoma","lat":"36.58342","fcode":"OILF"},{"adminCode1":"OK","lng":"-95.15441","geonameId":4543896,"toponymName":"North Park","countryId":"6252001","fcl":"L","population":0,"countryCode":"US","name":"North Park","fclName":"parks,area, ...","adminCodes1":{"ISO3166_2":"OK"},"countryName":"United States","fcodeName":"park","adminName1":"Oklahoma","lat":"36.64397","fcode":"PRK"},{"adminCode1":"MI","lng":"-88.1875","geonameId":7119554,"toponymName":"Craig Lake State Park","countryId":"6252001","fcl":"L","population":0,"countryCode":"US","name":"Craig Lake State Park","fclName":"parks,area, ...","adminCodes1":{"ISO3166_2":"MI"},"countryName":"United States","fcodeName":"park","adminName1":"Michigan","lat":"46.6","fcode":"PRK"},{"adminCode1":"VA","lng":"-80.10509","geonameId":7315914,"toponymName":"Craig City District","countryId":"6252001","fcl":"A","population":0,"countryCode":"US","name":"Craig City District","fclName":"country, state, region,...","adminCodes1":{"ISO3166_2":"VA"},"countryName":"United States","fcodeName":"administrative division","adminName1":"Virginia","lat":"37.53002","fcode":"ADMD"},{"adminCode1":"VA","lng":"-80.13997","geonameId":7315915,"toponymName":"Craig Creek District","countryId":"6252001","fcl":"A","population":0,"countryCode":"US","name":"Craig Creek District","fclName":"country, state, region,...","adminCodes1":{"ISO3166_2":"VA"},"countryName":"United States","fcodeName":"administrative division","adminName1":"Virginia","lat":"37.439","fcode":"ADMD"},{"adminCode1":"VA","lng":"-80.22951","geonameId":7315951,"toponymName":"Potts Mountain District","countryId":"6252001","fcl":"A","population":0,"countryCode":"US","name":"Potts Mountain District","fclName":"country, state, region,...","adminCodes1":{"ISO3166_2":"VA"},"countryName":"United States","fcodeName":"administrative division","adminName1":"Virginia","lat":"37.52216","fcode":"ADMD"},{"adminCode1":"VA","lng":"-80.13741","geonameId":4775708,"toponymName":"New Castle District","countryId":"6252001","fcl":"A","population":0,"countryCode":"US","name":"New Castle District","fclName":"country, state, region,...","adminCodes1":{"ISO3166_2":"VA"},"countryName":"United States","fcodeName":"administrative division","adminName1":"Virginia","lat":"37.49769","fcode":"ADMD"},{"adminCode1":"MO","lng":"-95.37109","geonameId":5054627,"toponymName":"Craig","countryId":"6252001","fcl":"P","population":248,"countryCode":"US","name":"Craig","fclName":"city, village,...","adminCodes1":{"ISO3166_2":"MO"},"countryName":"United States","fcodeName":"populated place","adminName1":"Missouri","lat":"40.19472","fcode":"PPL"},{"adminCode1":"OH","lng":"-80.98342","geonameId":5151317,"toponymName":"Craig Beach","countryId":"6252001","fcl":"P","population":1143,"countryCode":"US","name":"Craig Beach","fclName":"city, village,...","adminCodes1":{"ISO3166_2":"OH"},"countryName":"United States","fcodeName":"populated place","adminName1":"Ohio","lat":"41.117","fcode":"PPL"},{"adminCode1":"FL","lng":"-80.75861","geonameId":4152224,"toponymName":"Craig Key","countryId":"6252001","fcl":"T","population":0,"countryCode":"US","name":"Craig Key","fclName":"mountain,hill,rock,... ","adminCodes1":{"ISO3166_2":"FL"},"countryName":"United States","fcodeName":"island","adminName1":"Florida","lat":"24.83847","fcode":"ISL"},{"adminCode1":"VA","lng":"-80.10229","geonameId":4775707,"toponymName":"New Castle International Airport","countryId":"6252001","fcl":"S","population":0,"countryCode":"US","name":"New Castle International Airport","fclName":"spot, building, farm","adminCodes1":{"ISO3166_2":"VA"},"countryName":"United States","fcodeName":"airport","adminName1":"Virginia","lat":"37.48147","fcode":"AIRP"},{"adminCode1":"VA","lng":"-80.27839","geonameId":4761731,"toponymName":"Grannys Creek","countryId":"6252001","fcl":"H","population":0,"countryCode":"US","name":"Grannys Creek","fclName":"stream, lake, ...","adminCodes1":{"ISO3166_2":"VA"},"countryName":"United States","fcodeName":"stream","adminName1":"Virginia","lat":"37.47263","fcode":"STM"},{"adminCode1":"VA","lng":"-80.20838","geonameId":4792596,"toponymName":"Webbs Mill","countryId":"6252001","fcl":"P","population":0,"countryCode":"US","name":"Webbs Mill","fclName":"city, village,...","adminCodes1":{"ISO3166_2":"VA"},"countryName":"United States","fcodeName":"populated place","adminName1":"Virginia","lat":"37.39985","fcode":"PPL"},{"adminCode1":"VA","lng":"-80.33005","geonameId":4793608,"toponymName":"Wide Hollow","countryId":"6252001","fcl":"T","population":0,"countryCode":"US","name":"Wide Hollow","fclName":"mountain,hill,rock,... ","adminCodes1":{"ISO3166_2":"VA"},"countryName":"United States","fcodeName":"valley","adminName1":"Virginia","lat":"37.47263","fcode":"VAL"},{"adminCode1":"OK","lng":"-95.14835","geonameId":4554500,"toponymName":"Vinita Municipal Airport","countryId":"6252001","fcl":"S","population":0,"countryCode":"US","name":"Vinita Municipal Airport","fclName":"spot, building, farm","adminCodes1":{"ISO3166_2":"OK"},"countryName":"United States","fcodeName":"airport","adminName1":"Oklahoma","lat":"36.62087","fcode":"AIRP"},{"adminCode1":"OK","lng":"-95.14913","geonameId":4538377,"toponymName":"Harrison Airport","countryId":"6252001","fcl":"S","population":0,"countryCode":"US","name":"Harrison Airport","fclName":"spot, building, farm","adminCodes1":{"ISO3166_2":"OK"},"countryName":"United States","fcodeName":"airport","adminName1":"Oklahoma","lat":"36.87785","fcode":"AIRP"},{"adminCode1":"OK","lng":"-95.01468","geonameId":4540177,"toponymName":"Ketchum Airport","countryId":"6252001","fcl":"S","population":0,"countryCode":"US","name":"Ketchum Airport","fclName":"spot, building, farm","adminCodes1":{"ISO3166_2":"OK"},"countryName":"United States","fcodeName":"airport","adminName1":"Oklahoma","lat":"36.54397","fcode":"AIRP"},{"adminCode1":"OK","lng":"-95.41284","geonameId":11387446,"toponymName":"Double R Ranch Airport","countryId":"6252001","fcl":"S","population":0,"countryCode":"US","name":"Double R Ranch Airport","fclName":"spot, building, farm","adminCodes1":{"ISO3166_2":"OK"},"countryName":"United States","fcodeName":"airport","adminName1":"Oklahoma","lat":"36.78249","fcode":"AIRP"},{"adminCode1":"AK","lng":"-132.73222","geonameId":5845547,"toponymName":"Craig Point","countryId":"6252001","fcl":"T","population":0,"countryCode":"US","name":"Craig Point","fclName":"mountain,hill,rock,... ","adminCodes1":{"ISO3166_2":"AK"},"countryName":"United States","fcodeName":"cape","adminName1":"Alaska","lat":"56.45667","fcode":"CAPE"},{"adminCode1":"MI","lng":"-85.02858","geonameId":4989818,"toponymName":"Craig Lake","countryId":"6252001","fcl":"H","population":0,"countryCode":"US","name":"Craig Lake","fclName":"stream, lake, ...","adminCodes1":{"ISO3166_2":"MI"},"countryName":"United States","fcodeName":"lake","adminName1":"Michigan","lat":"42.00421","fcode":"LK"},{"adminCode1":"IN","lng":"-85.1532","geonameId":4256244,"toponymName":"Township of Craig","countryId":"6252001","fcl":"A","population":0,"countryCode":"US","name":"Craig Township","fclName":"country, state, region,...","adminCodes1":{"ISO3166_2":"IN"},"countryName":"United States","fcodeName":"third-order administrative division","adminName1":"Indiana","lat":"38.74994","fcode":"ADM3"},{"adminCode1":"NE","lng":"-96.40198","geonameId":5066386,"toponymName":"Township of Craig","countryId":"6252001","fcl":"A","population":0,"countryCode":"US","name":"Craig Township","fclName":"country, state, region,...","adminCodes1":{"ISO3166_2":"NE"},"countryName":"United States","fcodeName":"third-order administrative division","adminName1":"Nebraska","lat":"41.75927","fcode":"ADM3"},{"adminCode1":"WY","lng":"-110.71965","geonameId":5822231,"toponymName":"Craig Pass","countryId":"6252001","fcl":"T","population":0,"countryCode":"US","name":"Craig Pass","fclName":"mountain,hill,rock,... ","adminCodes1":{"ISO3166_2":"WY"},"countryName":"United States","fcodeName":"gap","adminName1":"Wyoming","lat":"44.4416","fcode":"GAP"},{"adminCode1":"IN","lng":"-85.51942","geonameId":4256241,"toponymName":"Craig","countryId":"6252001","fcl":"P","population":0,"countryCode":"US","name":"Craig","fclName":"city, village,...","adminCodes1":{"ISO3166_2":"IN"},"countryName":"United States","fcodeName":"populated place","adminName1":"Indiana","lat":"39.33227","fcode":"PPL"},{"adminCode1":"IA","lng":"-96.30975","geonameId":4852975,"toponymName":"Craig","countryId":"6252001","fcl":"P","population":87,"countryCode":"US","name":"Craig","fclName":"city, village,...","adminCodes1":{"ISO3166_2":"IA"},"countryName":"United States","fcodeName":"populated place","adminName1":"Iowa","lat":"42.89582","fcode":"PPL"},{"adminCode1":"OH","lng":"-81.51734","geonameId":5151316,"toponymName":"Craig","countryId":"6252001","fcl":"P","population":0,"countryCode":"US","name":"Craig","fclName":"city, village,...","adminCodes1":{"ISO3166_2":"OH"},"countryName":"United States","fcodeName":"populated place","adminName1":"Ohio","lat":"40.02368","fcode":"PPL"},{"adminCode1":"AR","lng":"-92.61183","geonameId":4130349,"toponymName":"Scotland","countryId":"6252001","fcl":"P","population":0,"countryCode":"US","name":"Scotland","fclName":"city, village,...","adminCodes1":{"ISO3166_2":"AR"},"countryName":"United States","fcodeName":"populated place","adminName1":"Arkansas","lat":"35.52758","fcode":"PPL"},{"adminCode1":"CA","lng":"-121.56414","geonameId":5340472,"toponymName":"Craig","countryId":"6252001","fcl":"P","population":0,"countryCode":"US","name":"Craig","fclName":"city, village,...","adminCodes1":{"ISO3166_2":"CA"},"countryName":"United States","fcodeName":"populated place","adminName1":"California","lat":"39.33739","fcode":"PPL"},{"adminCode1":"ID","lng":"-116.85154","geonameId":5590060,"toponymName":"Craig Mountain","countryId":"6252001","fcl":"T","population":0,"countryCode":"US","name":"Craig Mountain","fclName":"mountain,hill,rock,... ","adminCodes1":{"ISO3166_2":"ID"},"countryName":"United States","fcodeName":"mountain","adminName1":"Idaho","lat":"46.07599","fcode":"MT"},{"adminCode1":"IN","lng":"-87.12639","geonameId":8115622,"toponymName":"Craig Bar","countryId":"6252001","fcl":"T","population":0,"countryCode":"US","name":"Craig Bar","fclName":"mountain,hill,rock,... ","adminCodes1":{"ISO3166_2":"IN"},"countryName":"United States","fcodeName":"bar","adminName1":"Indiana","lat":"38.70417","fcode":"BAR"},{"adminCode1":"AK","lng":"-133.11867","geonameId":7117631,"toponymName":"City of Craig","countryId":"6252001","fcl":"A","population":1201,"countryCode":"US","name":"City of Craig","fclName":"country, state, region,...","adminCodes1":{"ISO3166_2":"AK"},"countryName":"United States","fcodeName":"administrative division","adminName1":"Alaska","lat":"55.48965","fcode":"ADMD"},{"adminCode1":"VA","lng":"-80.01116","geonameId":4754551,"toponymName":"Craig Creek Valley","countryId":"6252001","fcl":"T","population":0,"countryCode":"US","name":"Craig Creek Valley","fclName":"mountain,hill,rock,... ","adminCodes1":{"ISO3166_2":"VA"},"countryName":"United States","fcodeName":"valley","adminName1":"Virginia","lat":"37.54874","fcode":"VAL"},{"adminCode1":"IN","lng":"-85.15856","geonameId":4254883,"toponymName":"Braytown","countryId":"6252001","fcl":"P","population":0,"countryCode":"US","name":"Braytown","fclName":"city, village,...","adminCodes1":{"ISO3166_2":"IN"},"countryName":"United States","fcodeName":"populated place","adminName1":"Indiana","lat":"38.73062","fcode":"PPL"},{"adminCode1":"IN","lng":"-85.18801","geonameId":4260131,"toponymName":"Lamb","countryId":"6252001","fcl":"P","population":0,"countryCode":"US","name":"Lamb","fclName":"city, village,...","adminCodes1":{"ISO3166_2":"IN"},"countryName":"United States","fcodeName":"populated place","adminName1":"Indiana","lat":"38.69201","fcode":"PPL"},{"adminCode1":"IN","lng":"-85.11773","geonameId":4260705,"toponymName":"Long Run","countryId":"6252001","fcl":"P","population":0,"countryCode":"US","name":"Long Run","fclName":"city, village,...","adminCodes1":{"ISO3166_2":"IN"},"countryName":"United States","fcodeName":"populated place","adminName1":"Indiana","lat":"38.75312","fcode":"PPL"},{"adminCode1":"AR","lng":"-92.59512","geonameId":4106978,"toponymName":"Township of Craig","countryId":"6252001","fcl":"A","population":0,"countryCode":"US","name":"Craig Township","fclName":"country, state, region,...","adminCodes1":{"ISO3166_2":"AR"},"countryName":"United States","fcodeName":"third-order administrative division","adminName1":"Arkansas","lat":"35.53254","fcode":"ADM3"},{"adminCode1":"TN","lng":"-84.43104","geonameId":4616033,"toponymName":"Craighead Caverns","countryId":"6252001","fcl":"L","population":0,"countryCode":"US","name":"Craighead Caverns","fclName":"parks,area, ...","adminCodes1":{"ISO3166_2":"TN"},"countryName":"United States","fcodeName":"park","adminName1":"Tennessee","lat":"35.53563","fcode":"PRK"},{"adminCode1":"TX","lng":"-94.78077","geonameId":4684046,"toponymName":"Craig","countryId":"6252001","fcl":"P","population":0,"countryCode":"US","name":"Craig","fclName":"city, village,...","adminCodes1":{"ISO3166_2":"TX"},"countryName":"United States","fcodeName":"populated place","adminName1":"Texas","lat":"32.26266","fcode":"PPL"},{"adminCode1":"KY","lng":"-85.12467","geonameId":4288936,"toponymName":"Craig Bar","countryId":"6252001","fcl":"T","population":0,"countryCode":"US","name":"Craig Bar","fclName":"mountain,hill,rock,... ","adminCodes1":{"ISO3166_2":"KY"},"countryName":"United States","fcodeName":"bar","adminName1":"Kentucky","lat":"38.70423","fcode":"BAR"},{"adminCode1":"MT","lng":"-111.96333","geonameId":5646909,"toponymName":"Craig","countryId":"6252001","fcl":"P","population":43,"countryCode":"US","name":"Craig","fclName":"city, village,...","adminCodes1":{"ISO3166_2":"MT"},"countryName":"United States","fcodeName":"populated place","adminName1":"Montana","lat":"47.07439","fcode":"PPL"},{"adminCode1":"ND","lng":"-97.31987","geonameId":5058769,"toponymName":"Craig Private Airport","countryId":"6252001","fcl":"S","population":0,"countryCode":"US","name":"Craig Private Airport","fclName":"spot, building, farm","adminCodes1":{"ISO3166_2":"ND"},"countryName":"United States","fcodeName":"airport","adminName1":"North Dakota","lat":"48.85866","fcode":"AIRP"},{"adminCode1":"VA","lng":"-80.18143","geonameId":4773319,"toponymName":"Millers Cove","countryId":"6252001","fcl":"T","population":0,"countryCode":"US","name":"Millers Cove","fclName":"mountain,hill,rock,... ","adminCodes1":{"ISO3166_2":"VA"},"countryName":"United States","fcodeName":"valley","adminName1":"Virginia","lat":"37.3793","fcode":"VAL"},{"adminCode1":"VA","lng":"-80.07949","geonameId":4776422,"toponymName":"North Mountain","countryId":"6252001","fcl":"T","population":0,"countryCode":"US","name":"North Mountain","fclName":"mountain,hill,rock,... ","adminCodes1":{"ISO3166_2":"VA"},"countryName":"United States","fcodeName":"mountain","adminName1":"Virginia","lat":"37.41958","fcode":"MT"},{"adminCode1":"VA","lng":"-80.03644","geonameId":4745552,"toponymName":"Barbours Creek","countryId":"6252001","fcl":"H","population":0,"countryCode":"US","name":"Barbours Creek","fclName":"stream, lake, ...","adminCodes1":{"ISO3166_2":"VA"},"countryName":"United States","fcodeName":"stream","adminName1":"Virginia","lat":"37.53041","fcode":"STM"},{"adminCode1":"VA","lng":"-80.05283","geonameId":4745553,"toponymName":"Barbours Creek","countryId":"6252001","fcl":"P","population":0,"countryCode":"US","name":"Barbours Creek","fclName":"city, village,...","adminCodes1":{"ISO3166_2":"VA"},"countryName":"United States","fcodeName":"populated place","adminName1":"Virginia","lat":"37.55541","fcode":"PPL"},{"adminCode1":"VA","lng":"-80.2706","geonameId":4746018,"toponymName":"Bear Pen Hollow","countryId":"6252001","fcl":"T","population":0,"countryCode":"US","name":"Bear Pen Hollow","fclName":"mountain,hill,rock,... ","adminCodes1":{"ISO3166_2":"VA"},"countryName":"United States","fcodeName":"valley","adminName1":"Virginia","lat":"37.36235","fcode":"VAL"}]}
