{"totalResultsCount":584,"geonames":[{"adminCode1":"TX","lng":"-99.32339","geonameId":4684668,"toponymName":"Brady Curtis Field","countryId":"6252001","fcl":"S","population":0,"countryCode":"US","name":"Brady Curtis Field","fclName":"spot, building, farm","adminCodes1":{"ISO3166_2":"TX"},"countryName":"United States","fcodeName":"airport","adminName1":"Texas","lat":"31.17878","fcode":"AIRP"},{"adminCode1":"AK","lng":"-161.03018","geonameId":5872796,"toponymName":"Robert (Bob) Curtis Memorial Airport","countryId":"6252001","fcl":"S","population":0,"countryCode":"US","name":"Robert (Bob) Curtis Memorial Airport","fclName":"spot, building, farm","adminCodes1":{"ISO3166_2":"AK"},"countryName":"United States","fcodeName":"airport","adminName1":"Alaska","lat":"66.81794","fcode":"AIRP"},{"adminCode1":"MD","lng":"-76.58802","geonameId":4352671,"toponymName":"Curtis Bay","countryId":"6252001","fcl":"P","population":0,"countryCode":"US","name":"Curtis Bay","fclName":"city, village,...","adminCodes1":{"ISO3166_2":"MD"},"countryName":"United States","fcodeName":"populated place","adminName1":"Maryland","lat":"39.22677","fcode":"PPL"},{"adminCode1":"NE","lng":"-100.5157","geonameId":5694650,"toponymName":"Curtis","countryId":"6252001","fcl":"P","population":897,"countryCode":"US","name":"Curtis","fclName":"city, village,...","adminCodes1":{"ISO3166_2":"NE"},"countryName":"United States","fcodeName":"populated place","adminName1":"Nebraska","lat":"40.63001","fcode":"PPL"},{"adminCode1":"WA","lng":"-122.73871","geonameId":5791634,"toponymName":"Curtis Lake","countryId":"6252001","fcl":"H","population":0,"countryCode":"US","name":"Curtis Lake","fclName":"stream, lake, ...","adminCodes1":{"ISO3166_2":"WA"},"countryName":"United States","fcodeName":"lake","adminName1":"Washington","lat":"45.72928","fcode":"LK"},{"adminCode1":"CA","lng":"-121.47912","geonameId":5341180,"toponymName":"Curtis Park","countryId":"6252001","fcl":"L","population":0,"countryCode":"US","name":"Curtis Park","fclName":"parks,area, ...","adminCodes1":{"ISO3166_2":"CA"},"countryName":"United States","fcodeName":"park","adminName1":"California","lat":"38.54352","fcode":"PRK"},{"adminCode1":"PA","lng":"-75.14768","geonameId":5186162,"toponymName":"Curtis Arboretum","countryId":"6252001","fcl":"L","population":0,"countryCode":"US","name":"Curtis Arboretum","fclName":"parks,area, ...","adminCodes1":{"ISO3166_2":"PA"},"countryName":"United States","fcodeName":"park","adminName1":"Pennsylvania","lat":"40.08456","fcode":"PRK"},{"adminCode1":"AR","lng":"-93.10573","geonameId":4107421,"toponymName":"Curtis","countryId":"6252001","fcl":"P","population":0,"countryCode":"US","name":"Curtis","fclName":"city, village,...","adminCodes1":{"ISO3166_2":"AR"},"countryName":"United States","fcodeName":"populated place","adminName1":"Arkansas","lat":"33.99788","fcode":"PPL"},{"adminCode1":"MS","lng":"-90.13926","geonameId":4423293,"toponymName":"Curtis Station","countryId":"6252001","fcl":"P","population":0,"countryCode":"US","name":"Curtis Station","fclName":"city, village,...","adminCodes1":{"ISO3166_2":"MS"},"countryName":"United States","fcodeName":"populated place","adminName1":"Mississippi","lat":"34.34011","fcode":"PPL"},{"adminCode1":"ME","lng":"-69.04976","geonameId":4961971,"toponymName":"Curtis Island","countryId":"6252001","fcl":"T","population":0,"countryCode":"US","name":"Curtis Island","fclName":"mountain,hill,rock,... ","adminCodes1":{"ISO3166_2":"ME"},"countryName":"United States","fcodeName":"island","adminName1":"Maine","lat":"44.20202","fcode":"ISL"},{"adminCode1":"MI","lng":"-83.71925","geonameId":4990216,"toponymName":"Curtis Lake","countryId":"6252001","fcl":"H","population":0,"countryCode":"US","name":"Curtis Lake","fclName":"stream, lake, ...","adminCodes1":{"ISO3166_2":"MI"},"countryName":"United States","fcodeName":"lake","adminName1":"Michigan","lat":"44.58165","fcode":"LK"},{"adminCode1":"NC","lng":"-78.58177","geonameId":4466291,"toponymName":"Curtis L. Brown Jr. Field","countryId":"6252001","fcl":"S","population":0,"countryCode":"US","name":"Fisher Field","fclName":"spot, building, farm","adminCodes1":{"ISO3166_2":"NC"},"countryName":"United States","fcodeName":"airport","adminName1":"North Carolina","lat":"34.60464","fcode":"AIRP"},{"adminCode1":"MI","lng":"-83.76638","geonameId":4990207,"toponymName":"Township of Curtis","countryId":"6252001","fcl":"A","population":0,"countryCode":"US","name":"Curtis Township","fclName":"country, state, region,...","adminCodes1":{"ISO3166_2":"MI"},"countryName":"United States","fcodeName":"third-order administrative division","adminName1":"Michigan","lat":"44.55292","fcode":"ADM3"},{"adminCode1":"WA","lng":"-123.11013","geonameId":5791643,"toponymName":"Curtis","countryId":"6252001","fcl":"P","population":0,"countryCode":"US","name":"Curtis","fclName":"city, village,...","adminCodes1":{"ISO3166_2":"WA"},"countryName":"United States","fcodeName":"populated place","adminName1":"Washington","lat":"46.58705","fcode":"PPL"},{"adminCode1":"AL","lng":"-86.15689","geonameId":4057938,"toponymName":"Curtis","countryId":"6252001","fcl":"P","population":0,"countryCode":"US","name":"Curtis","fclName":"city, village,...","adminCodes1":{"ISO3166_2":"AL"},"countryName":"United States","fcodeName":"populated place","adminName1":"Alabama","lat":"31.39767","fcode":"PPL"},{"adminCode1":"FL","lng":"-82.89846","geonameId":4152547,"toponymName":"Curtis","countryId":"6252001","fcl":"P","population":0,"countryCode":"US","name":"Curtis","fclName":"city, village,...","adminCodes1":{"ISO3166_2":"FL"},"countryName":"United States","fcodeName":"populated place","adminName1":"Florida","lat":"29.73746","fcode":"PPL"},{"adminCode1":"IL","lng":"-89.79039","geonameId":4889307,"toponymName":"Curtis","countryId":"6252001","fcl":"P","population":0,"countryCode":"US","name":"Curtis","fclName":"city, village,...","adminCodes1":{"ISO3166_2":"IL"},"countryName":"United States","fcodeName":"populated place","adminName1":"Illinois","lat":"40.06227","fcode":"PPL"},{"adminCode1":"NE","lng":"-100.51126","geonameId":7163060,"toponymName":"City of Curtis","countryId":"6252001","fcl":"A","population":939,"countryCode":"US","name":"City of Curtis","fclName":"country, state, region,...","adminCodes1":{"ISO3166_2":"NE"},"countryName":"United States","fcodeName":"third-order administrative division","adminName1":"Nebraska","lat":"40.63356","fcode":"ADM3"},{"adminCode1":"CO","lng":"-104.97944","geonameId":7126368,"toponymName":"Curtis-Champa Streets Historic District","countryId":"6252001","fcl":"L","population":0,"countryCode":"US","name":"Curtis-Champa Streets Historic District","fclName":"parks,area, ...","adminCodes1":{"ISO3166_2":"CO"},"countryName":"United States","fcodeName":"park","adminName1":"Colorado","lat":"39.75778","fcode":"PRK"},{"adminCode1":"FL","lng":"-82.46075","geonameId":7306322,"toponymName":"The Curtis Hixon Waterfront Park","countryId":"6252001","fcl":"L","population":0,"countryCode":"US","name":"The Curtis Hixon Waterfront Park","fclName":"parks,area, ...","adminCodes1":{"ISO3166_2":"FL"},"countryName":"United States","fcodeName":"park","adminName1":"Florida","lat":"27.94873","fcode":"PRK"},{"adminCode1":"MD","lng":"-76.58719","geonameId":4352675,"toponymName":"Curtis Bay Recreation Center","countryId":"6252001","fcl":"L","population":0,"countryCode":"US","name":"Curtis Bay Recreation Center","fclName":"parks,area, ...","adminCodes1":{"ISO3166_2":"MD"},"countryName":"United States","fcodeName":"park","adminName1":"Maryland","lat":"39.22539","fcode":"PRK"},{"adminCode1":"CO","lng":"-104.97609","geonameId":5418845,"toponymName":"Curtis Park","countryId":"6252001","fcl":"L","population":0,"countryCode":"US","name":"Curtis Park","fclName":"parks,area, ...","adminCodes1":{"ISO3166_2":"CO"},"countryName":"United States","fcodeName":"park","adminName1":"Colorado","lat":"39.76082","fcode":"PRK"},{"adminCode1":"NE","lng":"-100.49487","geonameId":5694660,"toponymName":"Township of Curtis","countryId":"6252001","fcl":"A","population":0,"countryCode":"US","name":"Curtis Township","fclName":"country, state, region,...","adminCodes1":{"ISO3166_2":"NE"},"countryName":"United States","fcodeName":"administrative division","adminName1":"Nebraska","lat":"40.65556","fcode":"ADMD"},{"adminCode1":"NE","lng":"-100.46542","geonameId":5695045,"toponymName":"East Curtis Creek Canyon","countryId":"6252001","fcl":"T","population":0,"countryCode":"US","name":"East Curtis Creek Canyon","fclName":"mountain,hill,rock,... ","adminCodes1":{"ISO3166_2":"NE"},"countryName":"United States","fcodeName":"valley","adminName1":"Nebraska","lat":"40.7389","fcode":"VAL"},{"adminCode1":"VA","lng":"-76.48356","geonameId":4755063,"toponymName":"Curtis Point","countryId":"6252001","fcl":"T","population":0,"countryCode":"US","name":"Curtis Point","fclName":"mountain,hill,rock,... ","adminCodes1":{"ISO3166_2":"VA"},"countryName":"United States","fcodeName":"cape","adminName1":"Virginia","lat":"37.04431","fcode":"CAPE"},{"adminCode1":"VA","lng":"-76.55023","geonameId":4755064,"toponymName":"Curtis Point","countryId":"6252001","fcl":"T","population":0,"countryCode":"US","name":"Curtis Point","fclName":"mountain,hill,rock,... ","adminCodes1":{"ISO3166_2":"VA"},"countryName":"United States","fcodeName":"cape","adminName1":"Virginia","lat":"37.08015","fcode":"CAPE"},{"adminCode1":"KY","lng":"-85.57636","geonameId":4289292,"toponymName":"Curtis","countryId":"6252001","fcl":"P","population":0,"countryCode":"US","name":"Curtis","fclName":"city, village,...","adminCodes1":{"ISO3166_2":"KY"},"countryName":"United States","fcodeName":"populated place","adminName1":"Kentucky","lat":"36.93311","fcode":"PPL"},{"adminCode1":"MA","lng":"-71.41451","geonameId":4934342,"toponymName":"Curtis Hill","countryId":"6252001","fcl":"T","population":0,"countryCode":"US","name":"Curtis Hill","fclName":"mountain,hill,rock,... ","adminCodes1":{"ISO3166_2":"MA"},"countryName":"United States","fcodeName":"mountain","adminName1":"Massachusetts","lat":"42.67759","fcode":"MT"},{"adminCode1":"OR","lng":"-117.28863","geonameId":5721953,"toponymName":"Curtis Lake","countryId":"6252001","fcl":"H","population":0,"countryCode":"US","name":"Curtis Lake","fclName":"stream, lake, ...","adminCodes1":{"ISO3166_2":"OR"},"countryName":"United States","fcodeName":"lake","adminName1":"Oregon","lat":"45.07298","fcode":"LK"},{"adminCode1":"NE","lng":"-100.49493","geonameId":5694665,"toponymName":"Curtis Election Precinct","countryId":"6252001","fcl":"A","population":0,"countryCode":"US","name":"Curtis Election Precinct","fclName":"country, state, region,...","adminCodes1":{"ISO3166_2":"NE"},"countryName":"United States","fcodeName":"administrative division","adminName1":"Nebraska","lat":"40.65724","fcode":"ADMD"},{"adminCode1":"AK","lng":"-146.99104","geonameId":5860227,"toponymName":"Curtis Lake","countryId":"6252001","fcl":"H","population":0,"countryCode":"US","name":"Curtis Lake","fclName":"stream, lake, ...","adminCodes1":{"ISO3166_2":"AK"},"countryName":"United States","fcodeName":"lake","adminName1":"Alaska","lat":"62.3038","fcode":"LK"},{"adminCode1":"MI","lng":"-87.52361","geonameId":6346827,"toponymName":"Curtis Memorial Park","countryId":"6252001","fcl":"L","population":0,"countryCode":"US","name":"Curtis Memorial Park","fclName":"parks,area, ...","adminCodes1":{"ISO3166_2":"MI"},"countryName":"United States","fcodeName":"park","adminName1":"Michigan","lat":"45.40194","fcode":"PRK"},{"adminCode1":"MI","lng":"-85.75056","geonameId":7152371,"toponymName":"Curtis Park","countryId":"6252001","fcl":"L","population":0,"countryCode":"US","name":"Curtis Park","fclName":"parks,area, ...","adminCodes1":{"ISO3166_2":"MI"},"countryName":"United States","fcodeName":"park","adminName1":"Michigan","lat":"46.20611","fcode":"PRK"},{"adminCode1":"TN","lng":"-82.21902","geonameId":4665716,"toponymName":"Walter Curtis Memorial Park","countryId":"6252001","fcl":"L","population":0,"countryCode":"US","name":"Walter Curtis Memorial Park","fclName":"parks,area, ...","adminCodes1":{"ISO3166_2":"TN"},"countryName":"United States","fcodeName":"park","adminName1":"Tennessee","lat":"36.34539","fcode":"PRK"},{"adminCode1":"TX","lng":"-96.79139","geonameId":4684669,"toponymName":"Curtis Park","countryId":"6252001","fcl":"L","population":0,"countryCode":"US","name":"Curtis Park","fclName":"parks,area, ...","adminCodes1":{"ISO3166_2":"TX"},"countryName":"United States","fcodeName":"park","adminName1":"Texas","lat":"32.8504","fcode":"PRK"},{"adminCode1":"KS","lng":"-96.95029","geonameId":4270194,"toponymName":"Curtis Creek Public Use Area","countryId":"6252001","fcl":"L","population":0,"countryCode":"US","name":"Curtis Creek Public Use Area","fclName":"parks,area, ...","adminCodes1":{"ISO3166_2":"KS"},"countryName":"United States","fcodeName":"park","adminName1":"Kansas","lat":"39.08972","fcode":"PRK"},{"adminCode1":"FL","lng":"-81.59926","geonameId":4152548,"toponymName":"Curtis Lovelace Park","countryId":"6252001","fcl":"L","population":0,"countryCode":"US","name":"Curtis Lovelace Park","fclName":"parks,area, ...","adminCodes1":{"ISO3166_2":"FL"},"countryName":"United States","fcodeName":"park","adminName1":"Florida","lat":"30.2708","fcode":"PRK"},{"adminCode1":"IA","lng":"-91.3796","geonameId":4858201,"toponymName":"General Samuel Curtis Statue","countryId":"6252001","fcl":"L","population":0,"countryCode":"US","name":"General Samuel Curtis Statue","fclName":"parks,area, ...","adminCodes1":{"ISO3166_2":"IA"},"countryName":"United States","fcodeName":"park","adminName1":"Iowa","lat":"40.39032","fcode":"PRK"},{"adminCode1":"ID","lng":"-115.80499","geonameId":5590374,"toponymName":"Curtis Lake","countryId":"6252001","fcl":"H","population":0,"countryCode":"US","name":"Curtis Lake","fclName":"stream, lake, ...","adminCodes1":{"ISO3166_2":"ID"},"countryName":"United States","fcodeName":"lake","adminName1":"Idaho","lat":"44.58704","fcode":"LK"},{"adminCode1":"WI","lng":"-89.77182","geonameId":5249938,"toponymName":"Curtis Lake","countryId":"6252001","fcl":"H","population":0,"countryCode":"US","name":"Curtis Lake","fclName":"stream, lake, ...","adminCodes1":{"ISO3166_2":"WI"},"countryName":"United States","fcodeName":"lake","adminName1":"Wisconsin","lat":"45.88422","fcode":"LK"},{"adminCode1":"WI","lng":"-89.42896","geonameId":5249939,"toponymName":"Curtis Lake","countryId":"6252001","fcl":"H","population":0,"countryCode":"US","name":"Curtis Lake","fclName":"stream, lake, ...","adminCodes1":{"ISO3166_2":"WI"},"countryName":"United States","fcodeName":"lake","adminName1":"Wisconsin","lat":"44.00374","fcode":"LK"},{"adminCode1":"ME","lng":"-70.04123","geonameId":4961959,"toponymName":"Curtis Bog","countryId":"6252001","fcl":"H","population":0,"countryCode":"US","name":"Curtis Bog","fclName":"stream, lake, ...","adminCodes1":{"ISO3166_2":"ME"},"countryName":"United States","fcodeName":"lake","adminName1":"Maine","lat":"44.11489","fcode":"LK"},{"adminCode1":"ME","lng":"-69.05004","geonameId":4961973,"toponymName":"Curtis Island Park","countryId":"6252001","fcl":"L","population":0,"countryCode":"US","name":"Curtis Island Park","fclName":"parks,area, ...","adminCodes1":{"ISO3166_2":"ME"},"countryName":"United States","fcodeName":"park","adminName1":"Maine","lat":"44.20202","fcode":"PRK"},{"adminCode1":"ME","lng":"-70.75599","geonameId":4961975,"toponymName":"Curtis Pond","countryId":"6252001","fcl":"H","population":0,"countryCode":"US","name":"Curtis Pond","fclName":"stream, lake, ...","adminCodes1":{"ISO3166_2":"ME"},"countryName":"United States","fcodeName":"lake","adminName1":"Maine","lat":"43.412","fcode":"LK"},{"adminCode1":"MA","lng":"-71.4614","geonameId":4934346,"toponymName":"Curtis Pond","countryId":"6252001","fcl":"H","population":0,"countryCode":"US","name":"Curtis Pond","fclName":"stream, lake, ...","adminCodes1":{"ISO3166_2":"MA"},"countryName":"United States","fcodeName":"lake","adminName1":"Massachusetts","lat":"42.08071","fcode":"LK"},{"adminCode1":"MA","lng":"-72.30647","geonameId":4934347,"toponymName":"Curtis Pond","countryId":"6252001","fcl":"H","population":0,"countryCode":"US","name":"Curtis Pond","fclName":"stream, lake, ...","adminCodes1":{"ISO3166_2":"MA"},"countryName":"United States","fcodeName":"lake","adminName1":"Massachusetts","lat":"42.39592","fcode":"LK"},{"adminCode1":"IL","lng":"-90.19769","geonameId":4889309,"toponymName":"Curtis Lake","countryId":"6252001","fcl":"H","population":0,"countryCode":"US","name":"Curtis Lake","fclName":"stream, lake, ...","adminCodes1":{"ISO3166_2":"IL"},"countryName":"United States","fcodeName":"lake","adminName1":"Illinois","lat":"40.16032","fcode":"LK"},{"adminCode1":"MI","lng":"-86.22654","geonameId":4990202,"toponymName":"Curtis Lake","countryId":"6252001","fcl":"H","population":0,"countryCode":"US","name":"Curtis Lake","fclName":"stream, lake, ...","adminCodes1":{"ISO3166_2":"MI"},"countryName":"United States","fcodeName":"lake","adminName1":"Michigan","lat":"41.97491","fcode":"LK"},{"adminCode1":"MI","lng":"-85.94052","geonameId":4990203,"toponymName":"Curtis Lake","countryId":"6252001","fcl":"H","population":0,"countryCode":"US","name":"Curtis Lake","fclName":"stream, lake, ...","adminCodes1":{"ISO3166_2":"MI"},"countryName":"United States","fcodeName":"lake","adminName1":"Michigan","lat":"41.85285","fcode":"LK"},{"adminCode1":"MI","lng":"-84.45368","geonameId":4990204,"toponymName":"Curtis Lake","countryId":"6252001","fcl":"H","population":0,"countryCode":"US","name":"Curtis Lake","fclName":"stream, lake, ...","adminCodes1":{"ISO3166_2":"MI"},"countryName":"United States","fcodeName":"lake","adminName1":"Michigan","lat":"42.93504","fcode":"LK"},{"adminCode1":"MI","lng":"-83.46136","geonameId":4990205,"toponymName":"Curtis Lake","countryId":"6252001","fcl":"H","population":0,"countryCode":"US","name":"Curtis Lake","fclName":"stream, lake, ...","adminCodes1":{"ISO3166_2":"MI"},"countryName":"United States","fcodeName":"lake","adminName1":"Michigan","lat":"42.43346","fcode":"LK"},{"adminCode1":"MI","lng":"-84.96255","geonameId":4990206,"toponymName":"Curtis Park","countryId":"6252001","fcl":"L","population":0,"countryCode":"US","name":"Curtis Park","fclName":"parks,area, ...","adminCodes1":{"ISO3166_2":"MI"},"countryName":"United States","fcodeName":"park","adminName1":"Michigan","lat":"45.3664","fcode":"PRK"},{"adminCode1":"MN","lng":"-93.45098","geonameId":5023658,"toponymName":"Curtis Lake","countryId":"6252001","fcl":"H","population":0,"countryCode":"US","name":"Curtis Lake","fclName":"stream, lake, ...","adminCodes1":{"ISO3166_2":"MN"},"countryName":"United States","fcodeName":"lake","adminName1":"Minnesota","lat":"45.03882","fcode":"LK"},{"adminCode1":"MN","lng":"-95.29633","geonameId":5023659,"toponymName":"Curtis Lake","countryId":"6252001","fcl":"H","population":0,"countryCode":"US","name":"Curtis Lake","fclName":"stream, lake, ...","adminCodes1":{"ISO3166_2":"MN"},"countryName":"United States","fcodeName":"lake","adminName1":"Minnesota","lat":"46.21345","fcode":"LK"},{"adminCode1":"MN","lng":"-95.47889","geonameId":5023660,"toponymName":"Curtis Lake","countryId":"6252001","fcl":"H","population":0,"countryCode":"US","name":"Curtis Lake","fclName":"stream, lake, ...","adminCodes1":{"ISO3166_2":"MN"},"countryName":"United States","fcodeName":"lake","adminName1":"Minnesota","lat":"44.57941","fcode":"LK"},{"adminCode1":"MN","lng":"-95.44947","geonameId":5023674,"toponymName":"Curtis Lake","countryId":"6252001","fcl":"H","population":0,"countryCode":"US","name":"Curtis Lake","fclName":"stream, lake, ...","adminCodes1":{"ISO3166_2":"MN"},"countryName":"United States","fcodeName":"lake","adminName1":"Minnesota","lat":"48.00186","fcode":"LK"},{"adminCode1":"CT","lng":"-72.7801","geonameId":4832297,"toponymName":"Curtis Park","countryId":"6252001","fcl":"L","population":0,"countryCode":"US","name":"Curtis Park","fclName":"parks,area, ...","adminCodes1":{"ISO3166_2":"CT"},"countryName":"United States","fcodeName":"park","adminName1":"Connecticut","lat":"41.89065","fcode":"PRK"},{"adminCode1":"MI","lng":"-83.40167","geonameId":8096655,"toponymName":"Curtis Woods Park","countryId":"6252001","fcl":"L","population":0,"countryCode":"US","name":"Curtis Woods Park","fclName":"parks,area, ...","adminCodes1":{"ISO3166_2":"MI"},"countryName":"United States","fcodeName":"park","adminName1":"Michigan","lat":"42.29639","fcode":"PRK"},{"adminCode1":"VA","lng":"-77.5698","geonameId":8479577,"toponymName":"Curtis Memorial Park","countryId":"6252001","fcl":"L","population":0,"countryCode":"US","name":"Curtis Memorial Park","fclName":"parks,area, ...","adminCodes1":{"ISO3166_2":"VA"},"countryName":"United States","fcodeName":"park","adminName1":"Virginia","lat":"38.4346","fcode":"PRK"},{"adminCode1":"MD","lng":"-76.56469","geonameId":4352670,"toponymName":"Curtis Bay","countryId":"6252001","fcl":"H","population":0,"countryCode":"US","name":"Curtis Bay","fclName":"stream, lake, ...","adminCodes1":{"ISO3166_2":"MD"},"countryName":"United States","fcodeName":"bay","adminName1":"Maryland","lat":"39.22094","fcode":"BAY"},{"adminCode1":"GA","lng":"-82.00623","geonameId":4190425,"toponymName":"Curtis Baptist High School","countryId":"6252001","fcl":"S","population":0,"countryCode":"US","name":"Curtis Baptist High School","fclName":"spot, building, farm","adminCodes1":{"ISO3166_2":"GA"},"countryName":"United States","fcodeName":"school","adminName1":"Georgia","lat":"33.49014","fcode":"SCH"},{"adminCode1":"NM","lng":"-107.7317","geonameId":5464153,"toponymName":"Curtis Canyon","countryId":"6252001","fcl":"T","population":0,"countryCode":"US","name":"Curtis Canyon","fclName":"mountain,hill,rock,... ","adminCodes1":{"ISO3166_2":"NM"},"countryName":"United States","fcodeName":"valley","adminName1":"New Mexico","lat":"33.15757","fcode":"VAL"},{"adminCode1":"MD","lng":"-76.57413","geonameId":4352680,"toponymName":"Curtis Creek","countryId":"6252001","fcl":"H","population":0,"countryCode":"US","name":"Curtis Creek","fclName":"stream, lake, ...","adminCodes1":{"ISO3166_2":"MD"},"countryName":"United States","fcodeName":"stream","adminName1":"Maryland","lat":"39.21955","fcode":"STM"},{"adminCode1":"ME","lng":"-70.09255","geonameId":4961962,"toponymName":"Curtis Corner","countryId":"6252001","fcl":"P","population":0,"countryCode":"US","name":"Curtis Corner","fclName":"city, village,...","adminCodes1":{"ISO3166_2":"ME"},"countryName":"United States","fcodeName":"populated place","adminName1":"Maine","lat":"44.26618","fcode":"PPL"},{"adminCode1":"ME","lng":"-69.96727","geonameId":4960120,"toponymName":"Curtis Memorial Library","countryId":"6252001","fcl":"S","population":0,"countryCode":"US","name":"Curtis Memorial Library","fclName":"spot, building, farm","adminCodes1":{"ISO3166_2":"ME"},"countryName":"United States","fcodeName":"library","adminName1":"Maine","lat":"43.91365","fcode":"LIBR"},{"adminCode1":"CT","lng":"-72.73926","geonameId":5282058,"toponymName":"Bear Island","countryId":"6252001","fcl":"T","population":0,"countryCode":"US","name":"Bear Island","fclName":"mountain,hill,rock,... ","adminCodes1":{"ISO3166_2":"CT"},"countryName":"United States","fcodeName":"island","adminName1":"Connecticut","lat":"41.25815","fcode":"ISL"},{"adminCode1":"WA","lng":"-122.0652","geonameId":5791635,"toponymName":"Curtis Lake","countryId":"6252001","fcl":"H","population":0,"countryCode":"US","name":"Curtis Lake","fclName":"stream, lake, ...","adminCodes1":{"ISO3166_2":"WA"},"countryName":"United States","fcodeName":"lake","adminName1":"Washington","lat":"46.28012","fcode":"LK"},{"adminCode1":"WA","lng":"-121.7526","geonameId":5791636,"toponymName":"Curtis Ridge","countryId":"6252001","fcl":"T","population":0,"countryCode":"US","name":"Curtis Ridge","fclName":"mountain,hill,rock,... ","adminCodes1":{"ISO3166_2":"WA"},"countryName":"United States","fcodeName":"ridge(s)","adminName1":"Washington","lat":"46.879","fcode":"RDGE"},{"adminCode1":"NY","lng":"-73.91722","geonameId":7158602,"toponymName":"Curtis Park","countryId":"6252001","fcl":"L","population":0,"countryCode":"US","name":"Curtis Park","fclName":"parks,area, ...","adminCodes1":{"ISO3166_2":"NY"},"countryName":"United States","fcodeName":"park","adminName1":"New York","lat":"40.64111","fcode":"PRK"},{"adminCode1":"NY","lng":"-74.02556","geonameId":7188475,"toponymName":"Curtis E Remfry Little League Complex","countryId":"6252001","fcl":"L","population":0,"countryCode":"US","name":"Curtis E Remfry Little League Complex","fclName":"parks,area, ...","adminCodes1":{"ISO3166_2":"NY"},"countryName":"United States","fcodeName":"park","adminName1":"New York","lat":"41.47333","fcode":"PRK"},{"adminCode1":"FL","lng":"-80.23422","geonameId":4156722,"toponymName":"Gerry Curtis Park","countryId":"6252001","fcl":"L","population":0,"countryCode":"US","name":"Gerry Curtis Park","fclName":"parks,area, ...","adminCodes1":{"ISO3166_2":"FL"},"countryName":"United States","fcodeName":"park","adminName1":"Florida","lat":"25.7926","fcode":"PRK"},{"adminCode1":"CA","lng":"-121.78888","geonameId":5562187,"toponymName":"Curtis Lake","countryId":"6252001","fcl":"H","population":0,"countryCode":"US","name":"Curtis Lake","fclName":"stream, lake, ...","adminCodes1":{"ISO3166_2":"CA"},"countryName":"United States","fcodeName":"lake","adminName1":"California","lat":"41.14544","fcode":"LK"},{"adminCode1":"CA","lng":"-121.3266","geonameId":5562193,"toponymName":"Curtis Waterhole","countryId":"6252001","fcl":"H","population":0,"countryCode":"US","name":"Curtis Waterhole","fclName":"stream, lake, ...","adminCodes1":{"ISO3166_2":"CA"},"countryName":"United States","fcodeName":"lake","adminName1":"California","lat":"41.36068","fcode":"LK"},{"adminCode1":"PA","lng":"-74.79151","geonameId":5186165,"toponymName":"Curtis Lake","countryId":"6252001","fcl":"H","population":0,"countryCode":"US","name":"Curtis Lake","fclName":"stream, lake, ...","adminCodes1":{"ISO3166_2":"PA"},"countryName":"United States","fcodeName":"lake","adminName1":"Pennsylvania","lat":"40.19119","fcode":"LK"},{"adminCode1":"ME","lng":"-69.0492","geonameId":4961972,"toponymName":"Curtis Island Light","countryId":"6252001","fcl":"S","population":0,"countryCode":"US","name":"Curtis Island Light","fclName":"spot, building, farm","adminCodes1":{"ISO3166_2":"ME"},"countryName":"United States","fcodeName":"","adminName1":"Maine","lat":"44.20119"},{"adminCode1":"WA","lng":"-121.62125","geonameId":5801858,"toponymName":"Lower Curtis Glacier","countryId":"6252001","fcl":"H","population":0,"countryCode":"US","name":"Lower Curtis Glacier","fclName":"stream, lake, ...","adminCodes1":{"ISO3166_2":"WA"},"countryName":"United States","fcodeName":"glacier(s)","adminName1":"Washington","lat":"48.82346","fcode":"GLCR"},{"adminCode1":"NM","lng":"-103.60556","geonameId":5464156,"toponymName":"Curtis and Curtis Airport","countryId":"6252001","fcl":"S","population":0,"countryCode":"US","name":"Curtis and Curtis Airport","fclName":"spot, building, farm","adminCodes1":{"ISO3166_2":"NM"},"countryName":"United States","fcodeName":"airport","adminName1":"New Mexico","lat":"34.72162","fcode":"AIRP"},{"adminCode1":"MD","lng":"-76.59296","geonameId":4352676,"toponymName":"Curtis Bay Elementary / Middle School","countryId":"6252001","fcl":"S","population":0,"countryCode":"US","name":"Curtis Bay Elementary / Middle School","fclName":"spot, building, farm","adminCodes1":{"ISO3166_2":"MD"},"countryName":"United States","fcodeName":"school","adminName1":"Maryland","lat":"39.22618","fcode":"SCH"},{"adminCode1":"NE","lng":"-100.47258","geonameId":5694657,"toponymName":"Curtis Municipal Airport","countryId":"6252001","fcl":"S","population":0,"countryCode":"US","name":"Curtis Municipal Airport","fclName":"spot, building, farm","adminCodes1":{"ISO3166_2":"NE"},"countryName":"United States","fcodeName":"airport","adminName1":"Nebraska","lat":"40.63703","fcode":"AIRP"},{"adminCode1":"WY","lng":"-105.62527","geonameId":5822540,"toponymName":"Curtis Gulch","countryId":"6252001","fcl":"T","population":0,"countryCode":"US","name":"Curtis Gulch","fclName":"mountain,hill,rock,... ","adminCodes1":{"ISO3166_2":"WY"},"countryName":"United States","fcodeName":"valley","adminName1":"Wyoming","lat":"42.40747","fcode":"VAL"},{"adminCode1":"UT","lng":"-111.56854","geonameId":5773586,"toponymName":"Curtis Creek","countryId":"6252001","fcl":"H","population":0,"countryCode":"US","name":"Curtis Creek","fclName":"stream, lake, ...","adminCodes1":{"ISO3166_2":"UT"},"countryName":"United States","fcodeName":"stream","adminName1":"Utah","lat":"41.59966","fcode":"STM"},{"adminCode1":"UT","lng":"-111.49243","geonameId":5773593,"toponymName":"Curtis Ridge","countryId":"6252001","fcl":"T","population":0,"countryCode":"US","name":"Curtis Ridge","fclName":"mountain,hill,rock,... ","adminCodes1":{"ISO3166_2":"UT"},"countryName":"United States","fcodeName":"ridge(s)","adminName1":"Utah","lat":"41.60744","fcode":"RDGE"},{"adminCode1":"FL","lng":"-82.36944","geonameId":6343876,"toponymName":"Curtis M Phillips Center for the Performing Arts","countryId":"6252001","fcl":"S","population":0,"countryCode":"US","name":"Curtis M Phillips Center for the Performing Arts","fclName":"spot, building, farm","adminCodes1":{"ISO3166_2":"FL"},"countryName":"United States","fcodeName":"building(s)","adminName1":"Florida","lat":"29.63556","fcode":"BLDG"},{"adminCode1":"LA","lng":"-91.84124","geonameId":4328900,"toponymName":"James Curtis Landing Strip","countryId":"6252001","fcl":"S","population":0,"countryCode":"US","name":"James Curtis Landing Strip","fclName":"spot, building, farm","adminCodes1":{"ISO3166_2":"LA"},"countryName":"United States","fcodeName":"airport","adminName1":"Louisiana","lat":"31.40212","fcode":"AIRP"},{"adminCode1":"CO","lng":"-106.13474","geonameId":5418847,"toponymName":"Curtis Ridge","countryId":"6252001","fcl":"T","population":0,"countryCode":"US","name":"Curtis Ridge","fclName":"mountain,hill,rock,... ","adminCodes1":{"ISO3166_2":"CO"},"countryName":"United States","fcodeName":"ridge(s)","adminName1":"Colorado","lat":"39.96749","fcode":"RDGE"},{"adminCode1":"WI","lng":"-89.37151","geonameId":5249940,"toponymName":"Curtis Landing Strip","countryId":"6252001","fcl":"S","population":0,"countryCode":"US","name":"Curtis Landing Strip","fclName":"spot, building, farm","adminCodes1":{"ISO3166_2":"WI"},"countryName":"United States","fcodeName":"airport","adminName1":"Wisconsin","lat":"43.42054","fcode":"AIRP"},{"adminCode1":"OH","lng":"-81.10079","geonameId":5151589,"toponymName":"Curtis Airport","countryId":"6252001","fcl":"S","population":0,"countryCode":"US","name":"Curtis Airport","fclName":"spot, building, farm","adminCodes1":{"ISO3166_2":"OH"},"countryName":"United States","fcodeName":"airport","adminName1":"Ohio","lat":"41.63845","fcode":"AIRP"},{"adminCode1":"MI","lng":"-85.74539","geonameId":4990192,"toponymName":"Curtis","countryId":"6252001","fcl":"P","population":0,"countryCode":"US","name":"Curtis","fclName":"city, village,...","adminCodes1":{"ISO3166_2":"MI"},"countryName":"United States","fcodeName":"populated place","adminName1":"Michigan","lat":"46.20582","fcode":"PPL"},{"adminCode1":"KS","lng":"-97.26932","geonameId":8096598,"toponymName":"Curtis Airport","countryId":"6252001","fcl":"S","population":0,"countryCode":"US","name":"Curtis Airport","fclName":"spot, building, farm","adminCodes1":{"ISO3166_2":"KS"},"countryName":"United States","fcodeName":"airport","adminName1":"Kansas","lat":"37.85551","fcode":"AIRP"},{"adminCode1":"AL","lng":"-87.83852","geonameId":11497742,"toponymName":"Curtis House (historical)","countryId":"6252001","fcl":"S","population":0,"countryCode":"US","name":"Howze-Culpepper House","fclName":"spot, building, farm","adminCodes1":{"ISO3166_2":"AL"},"countryName":"United States","fcodeName":"house(s)","adminName1":"Alabama","lat":"32.52136","fcode":"HSE"},{"adminCode1":"AL","lng":"-85.01965","geonameId":11524225,"toponymName":"Morgan-Curtis House (historical)","countryId":"6252001","fcl":"S","population":0,"countryCode":"US","name":"Morgan House","fclName":"spot, building, farm","adminCodes1":{"ISO3166_2":"AL"},"countryName":"United States","fcodeName":"house(s)","adminName1":"Alabama","lat":"32.46754","fcode":"HSE"},{"adminCode1":"NY","lng":"-77.22722","geonameId":7156128,"toponymName":"Curtis Square","countryId":"6252001","fcl":"L","population":0,"countryCode":"US","name":"Curtis Square","fclName":"parks,area, ...","adminCodes1":{"ISO3166_2":"NY"},"countryName":"United States","fcodeName":"park","adminName1":"New York","lat":"42.11056","fcode":"PRK"},{"adminCode1":"NY","lng":"-73.84417","geonameId":7266975,"toponymName":"Curtis Industrial Park","countryId":"6252001","fcl":"L","population":0,"countryCode":"US","name":"Curtis Industrial Park","fclName":"parks,area, ...","adminCodes1":{"ISO3166_2":"NY"},"countryName":"United States","fcodeName":"industrial area","adminName1":"New York","lat":"42.97222","fcode":"INDS"},{"adminCode1":"SD","lng":"-99.12732","geonameId":5227168,"toponymName":"Curtis State Public Shooting Area","countryId":"6252001","fcl":"L","population":0,"countryCode":"US","name":"Curtis State Public Shooting Area","fclName":"parks,area, ...","adminCodes1":{"ISO3166_2":"SD"},"countryName":"United States","fcodeName":"park","adminName1":"South Dakota","lat":"44.29165","fcode":"PRK"},{"adminCode1":"NY","lng":"-74.96014","geonameId":5114395,"toponymName":"Curtis Lake","countryId":"6252001","fcl":"H","population":0,"countryCode":"US","name":"Curtis Lake","fclName":"stream, lake, ...","adminCodes1":{"ISO3166_2":"NY"},"countryName":"United States","fcodeName":"lake","adminName1":"New York","lat":"43.33609","fcode":"LK"},{"adminCode1":"NY","lng":"-74.75963","geonameId":5114397,"toponymName":"Curtis Pond","countryId":"6252001","fcl":"H","population":0,"countryCode":"US","name":"Curtis Pond","fclName":"stream, lake, ...","adminCodes1":{"ISO3166_2":"NY"},"countryName":"United States","fcodeName":"lake","adminName1":"New York","lat":"44.15958","fcode":"LK"},{"adminCode1":"MN","lng":"-96.30865","geonameId":5029977,"toponymName":"Herschberger Slough","countryId":"6252001","fcl":"H","population":0,"countryCode":"US","name":"Herschberger Slough","fclName":"stream, lake, ...","adminCodes1":{"ISO3166_2":"MN"},"countryName":"United States","fcodeName":"lake","adminName1":"Minnesota","lat":"44.39802","fcode":"LK"},{"adminCode1":"MD","lng":"-75.24158","geonameId":4352679,"toponymName":"Curtis Church","countryId":"6252001","fcl":"S","population":0,"countryCode":"US","name":"Curtis Church","fclName":"spot, building, farm","adminCodes1":{"ISO3166_2":"MD"},"countryName":"United States","fcodeName":"church","adminName1":"Maryland","lat":"38.40261","fcode":"CH"},{"adminCode1":"RI","lng":"-71.52839","geonameId":5221719,"toponymName":"Curtis Corner","countryId":"6252001","fcl":"P","population":0,"countryCode":"US","name":"Curtis Corner","fclName":"city, village,...","adminCodes1":{"ISO3166_2":"RI"},"countryName":"United States","fcodeName":"populated place","adminName1":"Rhode Island","lat":"41.45399","fcode":"PPL"},{"adminCode1":"GA","lng":"-85.00994","geonameId":4190422,"toponymName":"Curtis","countryId":"6252001","fcl":"P","population":0,"countryCode":"US","name":"Curtis","fclName":"city, village,...","adminCodes1":{"ISO3166_2":"GA"},"countryName":"United States","fcodeName":"populated place","adminName1":"Georgia","lat":"33.614","fcode":"PPL"}]}
