{"totalResultsCount":21,"geonames":[{"adminCode1":"TX","lng":"-102.51325","geonameId":5519862,"toponymName":"Dalhart","countryId":"6252001","fcl":"P","population":8370,"countryCode":"US","name":"Dalhart","fclName":"city, village,...","adminCodes1":{"ISO3166_2":"TX"},"countryName":"United States","fcodeName":"seat of a second-order administrative division","adminName1":"Texas","lat":"36.05948","fcode":"PPLA2"},{"adminCode1":"TX","lng":"-102.5477","geonameId":5519866,"toponymName":"Dalhart Municipal Airport","countryId":"6252001","fcl":"S","population":0,"countryCode":"US","name":"Dalhart Municipal Airport","fclName":"spot, building, farm","adminCodes1":{"ISO3166_2":"TX"},"countryName":"United States","fcodeName":"airport","adminName1":"Texas","lat":"36.02226","fcode":"AIRP"},{"adminCode1":"TX","lng":"-102.51233","geonameId":7173274,"toponymName":"City of Dalhart","countryId":"6252001","fcl":"A","population":7930,"countryCode":"US","name":"City of Dalhart","fclName":"country, state, region,...","adminCodes1":{"ISO3166_2":"TX"},"countryName":"United States","fcodeName":"third-order administrative division","adminName1":"Texas","lat":"36.058","fcode":"ADM3"},{"adminCode1":"TX","lng":"-102.50325","geonameId":5519864,"toponymName":"Dalhart High School","countryId":"6252001","fcl":"S","population":0,"countryCode":"US","name":"Dalhart High School","fclName":"spot, building, farm","adminCodes1":{"ISO3166_2":"TX"},"countryName":"United States","fcodeName":"school","adminName1":"Texas","lat":"36.05087","fcode":"SCH"},{"adminCode1":"TX","lng":"-102.55961","geonameId":9680167,"toponymName":"Texas Department of Criminal Justice Region 5 Dalhart Unit","countryId":"6252001","fcl":"S","population":0,"countryCode":"US","name":"Texas Department of Criminal Justice Region 5 Dalhart Unit","fclName":"spot, building, farm","adminCodes1":{"ISO3166_2":"TX"},"countryName":"United States","fcodeName":"building(s)","adminName1":"Texas","lat":"36.02307","fcode":"BLDG"},{"adminCode1":"TX","lng":"-102.5217","geonameId":6514284,"toponymName":"Econo Lodge Dalhart","countryId":"6252001","fcl":"S","population":0,"countryCode":"US","name":"Econo Lodge Dalhart","fclName":"spot, building, farm","adminCodes1":{"ISO3166_2":"TX"},"countryName":"United States","fcodeName":"hotel","adminName1":"Texas","lat":"36.0648","fcode":"HTL"},{"adminCode1":"TX","lng":"-102.5158","geonameId":6515910,"toponymName":"Days Inn Dalhart","countryId":"6252001","fcl":"S","population":0,"countryCode":"US","name":"Days Inn Dalhart","fclName":"spot, building, farm","adminCodes1":{"ISO3166_2":"TX"},"countryName":"United States","fcodeName":"hotel","adminName1":"Texas","lat":"36.0683","fcode":"HTL"},{"adminCode1":"TX","lng":"-102.5218","geonameId":6516914,"toponymName":"Comfort Inn Dalhart","countryId":"6252001","fcl":"S","population":0,"countryCode":"US","name":"Comfort Inn Dalhart","fclName":"spot, building, farm","adminCodes1":{"ISO3166_2":"TX"},"countryName":"United States","fcodeName":"hotel","adminName1":"Texas","lat":"36.0638","fcode":"HTL"},{"adminCode1":"TX","lng":"-102.51234","geonameId":6533151,"toponymName":"Super 8 Dalhart Tx","countryId":"6252001","fcl":"S","population":0,"countryCode":"US","name":"Super 8 Dalhart Tx","fclName":"spot, building, farm","adminCodes1":{"ISO3166_2":"TX"},"countryName":"United States","fcodeName":"hotel","adminName1":"Texas","lat":"36.06836","fcode":"HTL"},{"adminCode1":"TX","lng":"-102.55417","geonameId":6353926,"toponymName":"Dalhart Army Air Field (historical)","countryId":"6252001","fcl":"S","population":0,"countryCode":"US","name":"Dalhart Army Air Field (historical)","fclName":"spot, building, farm","adminCodes1":{"ISO3166_2":"TX"},"countryName":"United States","fcodeName":"military installation","adminName1":"Texas","lat":"36.02167","fcode":"INSM"},{"adminCode1":"TX","lng":"-102.52158","geonameId":7247293,"toponymName":"Dalhart Emergency Medical Services","countryId":"6252001","fcl":"S","population":0,"countryCode":"US","name":"Dalhart Emergency Medical Services","fclName":"spot, building, farm","adminCodes1":{"ISO3166_2":"TX"},"countryName":"United States","fcodeName":"building(s)","adminName1":"Texas","lat":"36.05155","fcode":"BLDG"},{"adminCode1":"TX","lng":"-102.52348","geonameId":7247302,"toponymName":"Dalhart Volunteer Fire Department","countryId":"6252001","fcl":"S","population":0,"countryCode":"US","name":"Dalhart Volunteer Fire Department","fclName":"spot, building, farm","adminCodes1":{"ISO3166_2":"TX"},"countryName":"United States","fcodeName":"building(s)","adminName1":"Texas","lat":"36.06445","fcode":"BLDG"},{"adminCode1":"TX","lng":"-102.51381","geonameId":5519863,"toponymName":"Dalhart Elementary School","countryId":"6252001","fcl":"S","population":0,"countryCode":"US","name":"Dalhart Elementary School","fclName":"spot, building, farm","adminCodes1":{"ISO3166_2":"TX"},"countryName":"United States","fcodeName":"school","adminName1":"Texas","lat":"36.05226","fcode":"SCH"},{"adminCode1":"TX","lng":"-102.51853","geonameId":5519865,"toponymName":"Dalhart Junior High School","countryId":"6252001","fcl":"S","population":0,"countryCode":"US","name":"Dalhart Junior High School","fclName":"spot, building, farm","adminCodes1":{"ISO3166_2":"TX"},"countryName":"United States","fcodeName":"school","adminName1":"Texas","lat":"36.05837","fcode":"SCH"},{"adminCode1":"TX","lng":"-102.51103","geonameId":5524438,"toponymName":"KXIT-AM (Dalhart)","countryId":"6252001","fcl":"S","population":0,"countryCode":"US","name":"KXIT-AM (Dalhart)","fclName":"spot, building, farm","adminCodes1":{"ISO3166_2":"TX"},"countryName":"United States","fcodeName":"tower","adminName1":"Texas","lat":"36.09587","fcode":"TOWR"},{"adminCode1":"TX","lng":"-102.51103","geonameId":5524439,"toponymName":"KXIT-FM (Dalhart)","countryId":"6252001","fcl":"S","population":0,"countryCode":"US","name":"KXIT-FM (Dalhart)","fclName":"spot, building, farm","adminCodes1":{"ISO3166_2":"TX"},"countryName":"United States","fcodeName":"tower","adminName1":"Texas","lat":"36.09587","fcode":"TOWR"},{"adminCode1":"TX","lng":"-102.52474","geonameId":9683828,"toponymName":"Dalhart Police Department","countryId":"6252001","fcl":"S","population":0,"countryCode":"US","name":"Dalhart Police Department","fclName":"spot, building, farm","adminCodes1":{"ISO3166_2":"TX"},"countryName":"United States","fcodeName":"building(s)","adminName1":"Texas","lat":"36.06375","fcode":"BLDG"},{"adminCode1":"TX","lng":"-102.53102","geonameId":9673597,"toponymName":"Dalhart Post Office","countryId":"6252001","fcl":"S","population":0,"countryCode":"US","name":"Dalhart Post Office","fclName":"spot, building, farm","adminCodes1":{"ISO3166_2":"TX"},"countryName":"United States","fcodeName":"post office","adminName1":"Texas","lat":"36.05979","fcode":"PO"},{"adminCode1":"TX","lng":"-102.52409","geonameId":9686691,"toponymName":"Dalhart City Hall","countryId":"6252001","fcl":"S","population":0,"countryCode":"US","name":"Dalhart City Hall","fclName":"spot, building, farm","adminCodes1":{"ISO3166_2":"TX"},"countryName":"United States","fcodeName":"building(s)","adminName1":"Texas","lat":"36.06444","fcode":"BLDG"},{"adminCode1":"TX","lng":"-102.5149","geonameId":9881595,"toponymName":"Holiday Inn Express Dalhart","countryId":"6252001","fcl":"S","population":0,"countryCode":"US","name":"Holiday Inn Express Dalhart","fclName":"spot, building, farm","adminCodes1":{"ISO3166_2":"TX"},"countryName":"United States","fcodeName":"hotel","adminName1":"Texas","lat":"36.0687","fcode":"HTL"},{"adminCode1":"TX","lng":"-102.5285","geonameId":6509325,"toponymName":"Best Western Nursanickel Motel","countryId":"6252001","fcl":"S","population":0,"countryCode":"US","name":"Best Western Nursanickel Motel","fclName":"spot, building, farm","adminCodes1":{"ISO3166_2":"TX"},"countryName":"United States","fcodeName":"hotel","adminName1":"Texas","lat":"36.0699","fcode":"HTL"}]}
