{"totalResultsCount":6,"geonames":[{"adminCode1":"OR","lng":"-121.69715","geonameId":5721529,"toponymName":"Deschutes National Forest Crescent Ranger District","countryId":"6252001","fcl":"S","population":0,"countryCode":"US","name":"Deschutes National Forest Crescent Ranger District","fclName":"spot, building, farm","adminCodes1":{"ISO3166_2":"OR"},"countryName":"United States","fcodeName":"building(s)","adminName1":"Oregon","lat":"43.46082","fcode":"BLDG"},{"adminCode1":"OR","lng":"-121.26133","geonameId":5713603,"toponymName":"Deschutes National Forest Bend Fort Rock Ranger District","countryId":"6252001","fcl":"S","population":0,"countryCode":"US","name":"Deschutes National Forest Bend Fort Rock Ranger District","fclName":"spot, building, farm","adminCodes1":{"ISO3166_2":"OR"},"countryName":"United States","fcodeName":"building(s)","adminName1":"Oregon","lat":"44.09189","fcode":"BLDG"},{"adminCode1":"OR","lng":"-121.5542","geonameId":5752135,"toponymName":"Deschutes National Forest Sisters Ranger District","countryId":"6252001","fcl":"S","population":0,"countryCode":"US","name":"Deschutes National Forest Sisters Ranger District","fclName":"spot, building, farm","adminCodes1":{"ISO3166_2":"OR"},"countryName":"United States","fcodeName":"building(s)","adminName1":"Oregon","lat":"44.29167","fcode":"BLDG"},{"adminCode1":"OR","lng":"-121.53581","geonameId":5722953,"toponymName":"Deschutes National Forest","countryId":"6252001","fcl":"V","population":0,"countryCode":"US","name":"Deschutes National Forest","fclName":"forest,heath,...","adminCodes1":{"ISO3166_2":"OR"},"countryName":"United States","fcodeName":"forest(s)","adminName1":"Oregon","lat":"43.83527","fcode":"FRST"},{"adminCode1":"OR","lng":"-121.28364","geonameId":7250873,"toponymName":"Newberry National Volcanic Monument","countryId":"6252001","fcl":"V","population":0,"countryCode":"US","name":"Newberry National Volcanic Monument","fclName":"forest,heath,...","adminCodes1":{"ISO3166_2":"OR"},"countryName":"United States","fcodeName":"forest(s)","adminName1":"Oregon","lat":"43.83567","fcode":"FRST"},{"adminCode1":"OR","lng":"-121.32893","geonameId":5722954,"toponymName":"Deschutes National Forest Headquarters","countryId":"6252001","fcl":"S","population":0,"countryCode":"US","name":"Deschutes National Forest Headquarters","fclName":"spot, building, farm","adminCodes1":{"ISO3166_2":"OR"},"countryName":"United States","fcodeName":"building(s)","adminName1":"Oregon","lat":"44.04266","fcode":"BLDG"}]}
