{"totalResultsCount":1284,"geonames":[{"adminCode1":"DE","lng":"-75.52437","geonameId":4142290,"toponymName":"Dover","countryId":"6252001","fcl":"P","population":37522,"countryCode":"US","name":"Dover","fclName":"city, village,...","adminCodes1":{"ISO3166_2":"DE"},"countryName":"United States","fcodeName":"seat of a first-order administrative division","adminName1":"Delaware","lat":"39.15817","fcode":"PPLA"},{"adminCode1":"OH","lng":"-81.47401","geonameId":5152243,"toponymName":"Dover","countryId":"6252001","fcl":"P","population":12899,"countryCode":"US","name":"Dover","fclName":"city, village,...","adminCodes1":{"ISO3166_2":"OH"},"countryName":"United States","fcodeName":"populated place","adminName1":"Ohio","lat":"40.52062","fcode":"PPL"},{"adminCode1":"NH","lng":"-70.87367","geonameId":5085520,"toponymName":"Dover","countryId":"6252001","fcl":"P","population":30880,"countryCode":"US","name":"Dover","fclName":"city, village,...","adminCodes1":{"ISO3166_2":"NH"},"countryName":"United States","fcodeName":"seat of a second-order administrative division","adminName1":"New Hampshire","lat":"43.19786","fcode":"PPLA2"},{"adminCode1":"NJ","lng":"-74.5621","geonameId":5097315,"toponymName":"Dover","countryId":"6252001","fcl":"P","population":18346,"countryCode":"US","name":"Dover","fclName":"city, village,...","adminCodes1":{"ISO3166_2":"NJ"},"countryName":"United States","fcodeName":"populated place","adminName1":"New Jersey","lat":"40.88399","fcode":"PPL"},{"adminCode1":"NJ","lng":"-74.19792","geonameId":4504476,"toponymName":"Toms River","countryId":"6252001","fcl":"P","population":88791,"countryCode":"US","name":"Toms River","fclName":"city, village,...","adminCodes1":{"ISO3166_2":"NJ"},"countryName":"United States","fcodeName":"seat of a second-order administrative division","adminName1":"New Jersey","lat":"39.95373","fcode":"PPLA2"},{"adminCode1":"DE","lng":"-75.47136","geonameId":7726518,"toponymName":"Dover Air Force Base","countryId":"6252001","fcl":"S","population":0,"countryCode":"US","name":"Dover AFB","fclName":"spot, building, farm","adminCodes1":{"ISO3166_2":"DE"},"countryName":"United States","fcodeName":"airport","adminName1":"Delaware","lat":"39.12749","fcode":"AIRP"},{"adminCode1":"MA","lng":"-71.28283","geonameId":4935010,"toponymName":"Dover","countryId":"6252001","fcl":"P","population":2265,"countryCode":"US","name":"Dover","fclName":"city, village,...","adminCodes1":{"ISO3166_2":"MA"},"countryName":"United States","fcodeName":"populated place","adminName1":"Massachusetts","lat":"42.24593","fcode":"PPL"},{"adminCode1":"MN","lng":"-92.13905","geonameId":5024566,"toponymName":"Dover","countryId":"6252001","fcl":"P","population":745,"countryCode":"US","name":"Dover","fclName":"city, village,...","adminCodes1":{"ISO3166_2":"MN"},"countryName":"United States","fcodeName":"populated place","adminName1":"Minnesota","lat":"43.97357","fcode":"PPL"},{"adminCode1":"OH","lng":"-81.91792","geonameId":5176517,"toponymName":"Westlake","countryId":"6252001","fcl":"P","population":32428,"countryCode":"US","name":"Westlake","fclName":"city, village,...","adminCodes1":{"ISO3166_2":"OH"},"countryName":"United States","fcodeName":"populated place","adminName1":"Ohio","lat":"41.45532","fcode":"PPL"},{"adminCode1":"ME","lng":"-69.22699","geonameId":4962775,"toponymName":"Dover-Foxcroft","countryId":"6252001","fcl":"P","population":2528,"countryCode":"US","name":"Dover-Foxcroft","fclName":"city, village,...","adminCodes1":{"ISO3166_2":"ME"},"countryName":"United States","fcodeName":"populated place","adminName1":"Maine","lat":"45.18339","fcode":"PPL"},{"adminCode1":"OH","lng":"-81.92208","geonameId":5146675,"toponymName":"Bay Village","countryId":"6252001","fcl":"P","population":15402,"countryCode":"US","name":"Bay Village","fclName":"city, village,...","adminCodes1":{"ISO3166_2":"OH"},"countryName":"United States","fcodeName":"populated place","adminName1":"Ohio","lat":"41.48477","fcode":"PPL"},{"adminCode1":"FL","lng":"-82.21953","geonameId":4153553,"toponymName":"Dover","countryId":"6252001","fcl":"P","population":3702,"countryCode":"US","name":"Dover","fclName":"city, village,...","adminCodes1":{"ISO3166_2":"FL"},"countryName":"United States","fcodeName":"populated place","adminName1":"Florida","lat":"27.99419","fcode":"PPL"},{"adminCode1":"AR","lng":"-93.11434","geonameId":4108950,"toponymName":"Dover","countryId":"6252001","fcl":"P","population":1398,"countryCode":"US","name":"Dover","fclName":"city, village,...","adminCodes1":{"ISO3166_2":"AR"},"countryName":"United States","fcodeName":"populated place","adminName1":"Arkansas","lat":"35.40147","fcode":"PPL"},{"adminCode1":"TN","lng":"-87.83836","geonameId":4618921,"toponymName":"Dover","countryId":"6252001","fcl":"P","population":1457,"countryCode":"US","name":"Dover","fclName":"city, village,...","adminCodes1":{"ISO3166_2":"TN"},"countryName":"United States","fcodeName":"seat of a second-order administrative division","adminName1":"Tennessee","lat":"36.48783","fcode":"PPLA2"},{"adminCode1":"VT","lng":"-72.80399","geonameId":5235519,"toponymName":"Dover","countryId":"6252001","fcl":"P","population":1437,"countryCode":"US","name":"Dover","fclName":"city, village,...","adminCodes1":{"ISO3166_2":"VT"},"countryName":"United States","fcodeName":"populated place","adminName1":"Vermont","lat":"42.94369","fcode":"PPL"},{"adminCode1":"ID","lng":"-116.61103","geonameId":5591362,"toponymName":"Dover","countryId":"6252001","fcl":"P","population":660,"countryCode":"US","name":"Dover","fclName":"city, village,...","adminCodes1":{"ISO3166_2":"ID"},"countryName":"United States","fcodeName":"populated place","adminName1":"Idaho","lat":"48.25159","fcode":"PPL"},{"adminCode1":"MO","lng":"-93.68772","geonameId":4384381,"toponymName":"Dover","countryId":"6252001","fcl":"P","population":101,"countryCode":"US","name":"Dover","fclName":"city, village,...","adminCodes1":{"ISO3166_2":"MO"},"countryName":"United States","fcodeName":"populated place","adminName1":"Missouri","lat":"39.19335","fcode":"PPL"},{"adminCode1":"KS","lng":"-95.93749","geonameId":4270466,"toponymName":"Dover","countryId":"6252001","fcl":"P","population":0,"countryCode":"US","name":"Dover","fclName":"city, village,...","adminCodes1":{"ISO3166_2":"KS"},"countryName":"United States","fcodeName":"populated place","adminName1":"Kansas","lat":"38.96472","fcode":"PPL"},{"adminCode1":"VT","lng":"-72.76898","geonameId":5235697,"toponymName":"East Dover","countryId":"6252001","fcl":"P","population":0,"countryCode":"US","name":"East Dover","fclName":"city, village,...","adminCodes1":{"ISO3166_2":"VT"},"countryName":"United States","fcodeName":"populated place","adminName1":"Vermont","lat":"42.95119","fcode":"PPL"},{"adminCode1":"GA","lng":"-81.71511","geonameId":4191979,"toponymName":"Dover","countryId":"6252001","fcl":"P","population":0,"countryCode":"US","name":"Dover","fclName":"city, village,...","adminCodes1":{"ISO3166_2":"GA"},"countryName":"United States","fcodeName":"populated place","adminName1":"Georgia","lat":"32.57712","fcode":"PPL"},{"adminCode1":"OH","lng":"-83.30464","geonameId":5164267,"toponymName":"New Dover","countryId":"6252001","fcl":"P","population":0,"countryCode":"US","name":"New Dover","fclName":"city, village,...","adminCodes1":{"ISO3166_2":"OH"},"countryName":"United States","fcodeName":"populated place","adminName1":"Ohio","lat":"40.24673","fcode":"PPL"},{"adminCode1":"OK","lng":"-97.91117","geonameId":4535223,"toponymName":"Dover","countryId":"6252001","fcl":"P","population":473,"countryCode":"US","name":"Dover","fclName":"city, village,...","adminCodes1":{"ISO3166_2":"OK"},"countryName":"United States","fcodeName":"populated place","adminName1":"Oklahoma","lat":"35.98143","fcode":"PPL"},{"adminCode1":"KY","lng":"-83.88298","geonameId":4290196,"toponymName":"Dover","countryId":"6252001","fcl":"P","population":245,"countryCode":"US","name":"Dover","fclName":"city, village,...","adminCodes1":{"ISO3166_2":"KY"},"countryName":"United States","fcodeName":"populated place","adminName1":"Kentucky","lat":"38.75813","fcode":"PPL"},{"adminCode1":"VT","lng":"-72.85288","geonameId":5242678,"toponymName":"West Dover","countryId":"6252001","fcl":"P","population":0,"countryCode":"US","name":"West Dover","fclName":"city, village,...","adminCodes1":{"ISO3166_2":"VT"},"countryName":"United States","fcodeName":"populated place","adminName1":"Vermont","lat":"42.93925","fcode":"PPL"},{"adminCode1":"IL","lng":"-89.39342","geonameId":4890109,"toponymName":"Dover","countryId":"6252001","fcl":"P","population":162,"countryCode":"US","name":"Dover","fclName":"city, village,...","adminCodes1":{"ISO3166_2":"IL"},"countryName":"United States","fcodeName":"populated place","adminName1":"Illinois","lat":"41.4367","fcode":"PPL"},{"adminCode1":"PA","lng":"-76.85025","geonameId":5187215,"toponymName":"Dover","countryId":"6252001","fcl":"P","population":1991,"countryCode":"US","name":"Dover","fclName":"city, village,...","adminCodes1":{"ISO3166_2":"PA"},"countryName":"United States","fcodeName":"populated place","adminName1":"Pennsylvania","lat":"40.00176","fcode":"PPL"},{"adminCode1":"GA","lng":"-81.52704","geonameId":4191980,"toponymName":"Dover Bluff","countryId":"6252001","fcl":"P","population":0,"countryCode":"US","name":"Dover Bluff","fclName":"city, village,...","adminCodes1":{"ISO3166_2":"GA"},"countryName":"United States","fcodeName":"populated place","adminName1":"Georgia","lat":"31.01718","fcode":"PPL"},{"adminCode1":"OH","lng":"-82.12931","geonameId":4508373,"toponymName":"Chauncey","countryId":"6252001","fcl":"P","population":1039,"countryCode":"US","name":"Chauncey","fclName":"city, village,...","adminCodes1":{"ISO3166_2":"OH"},"countryName":"United States","fcodeName":"populated place","adminName1":"Ohio","lat":"39.39785","fcode":"PPL"},{"adminCode1":"OH","lng":"-84.1322","geonameId":5155349,"toponymName":"Fulton County Airport","countryId":"6252001","fcl":"S","population":0,"countryCode":"US","name":"Fulton County Airport","fclName":"spot, building, farm","adminCodes1":{"ISO3166_2":"OH"},"countryName":"United States","fcodeName":"airport","adminName1":"Ohio","lat":"41.60937","fcode":"AIRP"},{"adminCode1":"NY","lng":"-73.57652","geonameId":5115261,"toponymName":"Dover Plains","countryId":"6252001","fcl":"P","population":1323,"countryCode":"US","name":"Dover Plains","fclName":"city, village,...","adminCodes1":{"ISO3166_2":"NY"},"countryName":"United States","fcodeName":"populated place","adminName1":"New York","lat":"41.74121","fcode":"PPL"},{"adminCode1":"PA","lng":"-76.82247","geonameId":4562088,"toponymName":"Weigelstown","countryId":"6252001","fcl":"P","population":12875,"countryCode":"US","name":"Weigelstown","fclName":"city, village,...","adminCodes1":{"ISO3166_2":"PA"},"countryName":"United States","fcodeName":"populated place","adminName1":"Pennsylvania","lat":"39.98371","fcode":"PPL"},{"adminCode1":"ME","lng":"-69.20469","geonameId":4962778,"toponymName":"Town of Dover-Foxcroft","countryId":"6252001","fcl":"A","population":4038,"countryCode":"US","name":"Town of Dover-Foxcroft","fclName":"country, state, region,...","adminCodes1":{"ISO3166_2":"ME"},"countryName":"United States","fcodeName":"third-order administrative division","adminName1":"Maine","lat":"45.18083","fcode":"ADM3"},{"adminCode1":"VA","lng":"-77.67444","geonameId":4756288,"toponymName":"Dover","countryId":"6252001","fcl":"P","population":0,"countryCode":"US","name":"Dover","fclName":"city, village,...","adminCodes1":{"ISO3166_2":"VA"},"countryName":"United States","fcodeName":"populated place","adminName1":"Virginia","lat":"38.9765","fcode":"PPL"},{"adminCode1":"IN","lng":"-84.94773","geonameId":4256731,"toponymName":"Dover","countryId":"6252001","fcl":"P","population":0,"countryCode":"US","name":"Dover","fclName":"city, village,...","adminCodes1":{"ISO3166_2":"IN"},"countryName":"United States","fcodeName":"populated place","adminName1":"Indiana","lat":"39.24144","fcode":"PPL"},{"adminCode1":"IN","lng":"-86.80278","geonameId":4256733,"toponymName":"Dover Hill","countryId":"6252001","fcl":"P","population":114,"countryCode":"US","name":"Dover Hill","fclName":"city, village,...","adminCodes1":{"ISO3166_2":"IN"},"countryName":"United States","fcodeName":"populated place","adminName1":"Indiana","lat":"38.72505","fcode":"PPL"},{"adminCode1":"NJ","lng":"-74.06375","geonameId":4501550,"toponymName":"Dover Beaches North","countryId":"6252001","fcl":"P","population":1239,"countryCode":"US","name":"Dover Beaches North","fclName":"city, village,...","adminCodes1":{"ISO3166_2":"NJ"},"countryName":"United States","fcodeName":"populated place","adminName1":"New Jersey","lat":"39.99123","fcode":"PPL"},{"adminCode1":"NJ","lng":"-74.0743","geonameId":4501551,"toponymName":"Dover Beaches South","countryId":"6252001","fcl":"P","population":1209,"countryCode":"US","name":"Dover Beaches South","fclName":"city, village,...","adminCodes1":{"ISO3166_2":"NJ"},"countryName":"United States","fcodeName":"populated place","adminName1":"New Jersey","lat":"39.95567","fcode":"PPL"},{"adminCode1":"NC","lng":"-77.43691","geonameId":4464037,"toponymName":"Dover","countryId":"6252001","fcl":"P","population":398,"countryCode":"US","name":"Dover","fclName":"city, village,...","adminCodes1":{"ISO3166_2":"NC"},"countryName":"United States","fcodeName":"populated place","adminName1":"North Carolina","lat":"35.21627","fcode":"PPL"},{"adminCode1":"NH","lng":"-70.84283","geonameId":5085509,"toponymName":"Dover Point","countryId":"6252001","fcl":"T","population":0,"countryCode":"US","name":"Dover Point","fclName":"mountain,hill,rock,... ","adminCodes1":{"ISO3166_2":"NH"},"countryName":"United States","fcodeName":"cape","adminName1":"New Hampshire","lat":"43.15286","fcode":"CAPE"},{"adminCode1":"OH","lng":"-82.09681","geonameId":4518406,"toponymName":"Millfield","countryId":"6252001","fcl":"P","population":341,"countryCode":"US","name":"Millfield","fclName":"city, village,...","adminCodes1":{"ISO3166_2":"OH"},"countryName":"United States","fcodeName":"populated place","adminName1":"Ohio","lat":"39.43285","fcode":"PPL"},{"adminCode1":"MO","lng":"-93.64077","geonameId":4382384,"toponymName":"Corder","countryId":"6252001","fcl":"P","population":397,"countryCode":"US","name":"Corder","fclName":"city, village,...","adminCodes1":{"ISO3166_2":"MO"},"countryName":"United States","fcodeName":"populated place","adminName1":"Missouri","lat":"39.09835","fcode":"PPL"},{"adminCode1":"IA","lng":"-94.89776","geonameId":4880077,"toponymName":"Varina","countryId":"6252001","fcl":"P","population":69,"countryCode":"US","name":"Varina","fclName":"city, village,...","adminCodes1":{"ISO3166_2":"IA"},"countryName":"United States","fcodeName":"populated place","adminName1":"Iowa","lat":"42.65803","fcode":"PPL"},{"adminCode1":"WI","lng":"-88.11036","geonameId":5258264,"toponymName":"Kansasville","countryId":"6252001","fcl":"P","population":0,"countryCode":"US","name":"Kansasville","fclName":"city, village,...","adminCodes1":{"ISO3166_2":"WI"},"countryName":"United States","fcodeName":"populated place","adminName1":"Wisconsin","lat":"42.68252","fcode":"PPL"},{"adminCode1":"MI","lng":"-84.23633","geonameId":4989021,"toponymName":"Clayton","countryId":"6252001","fcl":"P","population":339,"countryCode":"US","name":"Clayton","fclName":"city, village,...","adminCodes1":{"ISO3166_2":"MI"},"countryName":"United States","fcodeName":"populated place","adminName1":"Michigan","lat":"41.86338","fcode":"PPL"},{"adminCode1":"OH","lng":"-82.11585","geonameId":4510276,"toponymName":"Township of Dover","countryId":"6252001","fcl":"A","population":0,"countryCode":"US","name":"Dover Township","fclName":"country, state, region,...","adminCodes1":{"ISO3166_2":"OH"},"countryName":"United States","fcodeName":"third-order administrative division","adminName1":"Ohio","lat":"39.41896","fcode":"ADM3"},{"adminCode1":"MO","lng":"-93.67255","geonameId":4384391,"toponymName":"Township of Dover","countryId":"6252001","fcl":"A","population":0,"countryCode":"US","name":"Dover Township","fclName":"country, state, region,...","adminCodes1":{"ISO3166_2":"MO"},"countryName":"United States","fcodeName":"third-order administrative division","adminName1":"Missouri","lat":"39.15273","fcode":"ADM3"},{"adminCode1":"MO","lng":"-94.21687","geonameId":4384392,"toponymName":"Township of Dover","countryId":"6252001","fcl":"A","population":0,"countryCode":"US","name":"Dover Township","fclName":"country, state, region,...","adminCodes1":{"ISO3166_2":"MO"},"countryName":"United States","fcodeName":"third-order administrative division","adminName1":"Missouri","lat":"37.70252","fcode":"ADM3"},{"adminCode1":"AR","lng":"-92.76863","geonameId":4108946,"toponymName":"Township of Dover","countryId":"6252001","fcl":"A","population":0,"countryCode":"US","name":"Dover Township","fclName":"country, state, region,...","adminCodes1":{"ISO3166_2":"AR"},"countryName":"United States","fcodeName":"third-order administrative division","adminName1":"Arkansas","lat":"34.28415","fcode":"ADM3"},{"adminCode1":"AR","lng":"-93.11624","geonameId":4108947,"toponymName":"Township of Dover","countryId":"6252001","fcl":"A","population":0,"countryCode":"US","name":"Dover Township","fclName":"country, state, region,...","adminCodes1":{"ISO3166_2":"AR"},"countryName":"United States","fcodeName":"third-order administrative division","adminName1":"Arkansas","lat":"35.39336","fcode":"ADM3"},{"adminCode1":"KS","lng":"-95.8959","geonameId":4270468,"toponymName":"Township of Dover","countryId":"6252001","fcl":"A","population":0,"countryCode":"US","name":"Dover Township","fclName":"country, state, region,...","adminCodes1":{"ISO3166_2":"KS"},"countryName":"United States","fcodeName":"third-order administrative division","adminName1":"Kansas","lat":"39.01595","fcode":"ADM3"},{"adminCode1":"IA","lng":"-91.7838","geonameId":4854305,"toponymName":"Township of Dover","countryId":"6252001","fcl":"A","population":0,"countryCode":"US","name":"Dover Township","fclName":"country, state, region,...","adminCodes1":{"ISO3166_2":"IA"},"countryName":"United States","fcodeName":"third-order administrative division","adminName1":"Iowa","lat":"43.03778","fcode":"ADM3"},{"adminCode1":"IA","lng":"-94.8555","geonameId":4854306,"toponymName":"Township of Dover","countryId":"6252001","fcl":"A","population":0,"countryCode":"US","name":"Dover Township","fclName":"country, state, region,...","adminCodes1":{"ISO3166_2":"IA"},"countryName":"United States","fcodeName":"third-order administrative division","adminName1":"Iowa","lat":"42.68973","fcode":"ADM3"},{"adminCode1":"OH","lng":"-84.17133","geonameId":5152265,"toponymName":"Township of Dover","countryId":"6252001","fcl":"A","population":0,"countryCode":"US","name":"Dover Township","fclName":"country, state, region,...","adminCodes1":{"ISO3166_2":"OH"},"countryName":"United States","fcodeName":"third-order administrative division","adminName1":"Ohio","lat":"41.61365","fcode":"ADM3"},{"adminCode1":"OH","lng":"-81.49965","geonameId":5152266,"toponymName":"Township of Dover","countryId":"6252001","fcl":"A","population":0,"countryCode":"US","name":"Dover Township","fclName":"country, state, region,...","adminCodes1":{"ISO3166_2":"OH"},"countryName":"United States","fcodeName":"third-order administrative division","adminName1":"Ohio","lat":"40.5316","fcode":"ADM3"},{"adminCode1":"OH","lng":"-83.28279","geonameId":5152267,"toponymName":"Township of Dover","countryId":"6252001","fcl":"A","population":0,"countryCode":"US","name":"Dover Township","fclName":"country, state, region,...","adminCodes1":{"ISO3166_2":"OH"},"countryName":"United States","fcodeName":"third-order administrative division","adminName1":"Ohio","lat":"40.26091","fcode":"ADM3"},{"adminCode1":"MI","lng":"-85.62371","geonameId":4991097,"toponymName":"Township of Dover","countryId":"6252001","fcl":"A","population":0,"countryCode":"US","name":"Dover Township","fclName":"country, state, region,...","adminCodes1":{"ISO3166_2":"MI"},"countryName":"United States","fcodeName":"third-order administrative division","adminName1":"Michigan","lat":"44.11962","fcode":"ADM3"},{"adminCode1":"MI","lng":"-84.17866","geonameId":4991098,"toponymName":"Township of Dover","countryId":"6252001","fcl":"A","population":0,"countryCode":"US","name":"Dover Township","fclName":"country, state, region,...","adminCodes1":{"ISO3166_2":"MI"},"countryName":"United States","fcodeName":"third-order administrative division","adminName1":"Michigan","lat":"41.8571","fcode":"ADM3"},{"adminCode1":"MI","lng":"-84.55147","geonameId":4991099,"toponymName":"Township of Dover","countryId":"6252001","fcl":"A","population":0,"countryCode":"US","name":"Dover Township","fclName":"country, state, region,...","adminCodes1":{"ISO3166_2":"MI"},"countryName":"United States","fcodeName":"third-order administrative division","adminName1":"Michigan","lat":"45.07011","fcode":"ADM3"},{"adminCode1":"MN","lng":"-92.13914","geonameId":5024572,"toponymName":"Township of Dover","countryId":"6252001","fcl":"A","population":0,"countryCode":"US","name":"Dover Township","fclName":"country, state, region,...","adminCodes1":{"ISO3166_2":"MN"},"countryName":"United States","fcodeName":"third-order administrative division","adminName1":"Minnesota","lat":"43.97734","fcode":"ADM3"},{"adminCode1":"NJ","lng":"-74.15486","geonameId":4500688,"toponymName":"Bayville","countryId":"6252001","fcl":"P","population":20512,"countryCode":"US","name":"Bayville","fclName":"city, village,...","adminCodes1":{"ISO3166_2":"NJ"},"countryName":"United States","fcodeName":"populated place","adminName1":"New Jersey","lat":"39.90929","fcode":"PPL"},{"adminCode1":"VT","lng":"-72.84186","geonameId":5235528,"toponymName":"Town of Dover","countryId":"6252001","fcl":"A","population":1100,"countryCode":"US","name":"Town of Dover","fclName":"country, state, region,...","adminCodes1":{"ISO3166_2":"VT"},"countryName":"United States","fcodeName":"third-order administrative division","adminName1":"Vermont","lat":"42.95723","fcode":"ADM3"},{"adminCode1":"MA","lng":"-71.28416","geonameId":4935015,"toponymName":"Town of Dover","countryId":"6252001","fcl":"A","population":5961,"countryCode":"US","name":"Town of Dover","fclName":"country, state, region,...","adminCodes1":{"ISO3166_2":"MA"},"countryName":"United States","fcodeName":"third-order administrative division","adminName1":"Massachusetts","lat":"42.23664","fcode":"ADM3"},{"adminCode1":"WI","lng":"-90.18765","geonameId":5250850,"toponymName":"Dover","countryId":"6252001","fcl":"P","population":0,"countryCode":"US","name":"Dover","fclName":"city, village,...","adminCodes1":{"ISO3166_2":"WI"},"countryName":"United States","fcodeName":"populated place","adminName1":"Wisconsin","lat":"45.67162","fcode":"PPL"},{"adminCode1":"DE","lng":"-75.52037","geonameId":7161424,"toponymName":"City of Dover","countryId":"6252001","fcl":"A","population":36047,"countryCode":"US","name":"City of Dover","fclName":"country, state, region,...","adminCodes1":{"ISO3166_2":"DE"},"countryName":"United States","fcodeName":"third-order administrative division","adminName1":"Delaware","lat":"39.15996","fcode":"ADM3"},{"adminCode1":"KY","lng":"-83.88444","geonameId":7169370,"toponymName":"City of Dover","countryId":"6252001","fcl":"A","population":252,"countryCode":"US","name":"City of Dover","fclName":"country, state, region,...","adminCodes1":{"ISO3166_2":"KY"},"countryName":"United States","fcodeName":"third-order administrative division","adminName1":"Kentucky","lat":"38.75631","fcode":"ADM3"},{"adminCode1":"OH","lng":"-81.48056","geonameId":7316902,"toponymName":"City of Dover","countryId":"6252001","fcl":"A","population":12826,"countryCode":"US","name":"City of Dover","fclName":"country, state, region,...","adminCodes1":{"ISO3166_2":"OH"},"countryName":"United States","fcodeName":"third-order administrative division","adminName1":"Ohio","lat":"40.53032","fcode":"ADM3"},{"adminCode1":"DE","lng":"-75.48393","geonameId":7258211,"toponymName":"Dover Base Housing","countryId":"6252001","fcl":"P","population":3450,"countryCode":"US","name":"Dover Base Housing","fclName":"city, village,...","adminCodes1":{"ISO3166_2":"DE"},"countryName":"United States","fcodeName":"populated place","adminName1":"Delaware","lat":"39.11763","fcode":"PPL"},{"adminCode1":"DE","lng":"-75.69132","geonameId":4145264,"toponymName":"West Dover Hundred","countryId":"6252001","fcl":"A","population":0,"countryCode":"US","name":"West Dover Hundred","fclName":"country, state, region,...","adminCodes1":{"ISO3166_2":"DE"},"countryName":"United States","fcodeName":"administrative division","adminName1":"Delaware","lat":"39.14178","fcode":"ADMD"},{"adminCode1":"WI","lng":"-91.5897","geonameId":5250854,"toponymName":"Town of Dover","countryId":"6252001","fcl":"A","population":478,"countryCode":"US","name":"Town of Dover","fclName":"country, state, region,...","adminCodes1":{"ISO3166_2":"WI"},"countryName":"United States","fcodeName":"third-order administrative division","adminName1":"Wisconsin","lat":"44.46599","fcode":"ADM3"},{"adminCode1":"WI","lng":"-88.13019","geonameId":5250855,"toponymName":"Town of Dover","countryId":"6252001","fcl":"A","population":4142,"countryCode":"US","name":"Town of Dover","fclName":"country, state, region,...","adminCodes1":{"ISO3166_2":"WI"},"countryName":"United States","fcodeName":"third-order administrative division","adminName1":"Wisconsin","lat":"42.71323","fcode":"ADM3"},{"adminCode1":"MN","lng":"-92.13361","geonameId":5024571,"toponymName":"City of Dover","countryId":"6252001","fcl":"A","population":0,"countryCode":"US","name":"City of Dover","fclName":"country, state, region,...","adminCodes1":{"ISO3166_2":"MN"},"countryName":"United States","fcodeName":"third-order administrative division","adminName1":"Minnesota","lat":"43.96972","fcode":"ADM3"},{"adminCode1":"WI","lng":"-88.12814","geonameId":5251145,"toponymName":"Eagle Lake","countryId":"6252001","fcl":"P","population":1192,"countryCode":"US","name":"Eagle Lake","fclName":"city, village,...","adminCodes1":{"ISO3166_2":"WI"},"countryName":"United States","fcodeName":"populated place","adminName1":"Wisconsin","lat":"42.70696","fcode":"PPL"},{"adminCode1":"OH","lng":"-82.1382","geonameId":4505978,"toponymName":"Beaumont","countryId":"6252001","fcl":"P","population":0,"countryCode":"US","name":"Beaumont","fclName":"city, village,...","adminCodes1":{"ISO3166_2":"OH"},"countryName":"United States","fcodeName":"populated place","adminName1":"Ohio","lat":"39.38563","fcode":"PPL"},{"adminCode1":"OH","lng":"-82.16931","geonameId":4513630,"toponymName":"Hamley Run","countryId":"6252001","fcl":"P","population":0,"countryCode":"US","name":"Hamley Run","fclName":"city, village,...","adminCodes1":{"ISO3166_2":"OH"},"countryName":"United States","fcodeName":"populated place","adminName1":"Ohio","lat":"39.39757","fcode":"PPL"},{"adminCode1":"MO","lng":"-94.1805","geonameId":4376430,"toponymName":"Bellamy","countryId":"6252001","fcl":"P","population":0,"countryCode":"US","name":"Bellamy","fclName":"city, village,...","adminCodes1":{"ISO3166_2":"MO"},"countryName":"United States","fcodeName":"populated place","adminName1":"Missouri","lat":"37.68504","fcode":"PPL"},{"adminCode1":"MO","lng":"-93.73105","geonameId":4402325,"toponymName":"Page City","countryId":"6252001","fcl":"P","population":0,"countryCode":"US","name":"Page City","fclName":"city, village,...","adminCodes1":{"ISO3166_2":"MO"},"countryName":"United States","fcodeName":"populated place","adminName1":"Missouri","lat":"39.12696","fcode":"PPL"},{"adminCode1":"MO","lng":"-93.62688","geonameId":4390836,"toponymName":"Hodge","countryId":"6252001","fcl":"P","population":0,"countryCode":"US","name":"Hodge","fclName":"city, village,...","adminCodes1":{"ISO3166_2":"MO"},"countryName":"United States","fcodeName":"populated place","adminName1":"Missouri","lat":"39.22363","fcode":"PPL"},{"adminCode1":"MO","lng":"-94.20106","geonameId":4407563,"toponymName":"Sandstone","countryId":"6252001","fcl":"P","population":0,"countryCode":"US","name":"Sandstone","fclName":"city, village,...","adminCodes1":{"ISO3166_2":"MO"},"countryName":"United States","fcodeName":"populated place","adminName1":"Missouri","lat":"37.75865","fcode":"PPL"},{"adminCode1":"MO","lng":"-93.72383","geonameId":4411102,"toponymName":"Tabeau","countryId":"6252001","fcl":"P","population":0,"countryCode":"US","name":"Tabeau","fclName":"city, village,...","adminCodes1":{"ISO3166_2":"MO"},"countryName":"United States","fcodeName":"populated place","adminName1":"Missouri","lat":"39.20446","fcode":"PPL"},{"adminCode1":"AR","lng":"-93.12156","geonameId":4133166,"toponymName":"Taral","countryId":"6252001","fcl":"P","population":0,"countryCode":"US","name":"Taral","fclName":"city, village,...","adminCodes1":{"ISO3166_2":"AR"},"countryName":"United States","fcodeName":"populated place","adminName1":"Arkansas","lat":"35.36036","fcode":"PPL"},{"adminCode1":"KS","lng":"-95.94193","geonameId":4281793,"toponymName":"Willard","countryId":"6252001","fcl":"P","population":92,"countryCode":"US","name":"Willard","fclName":"city, village,...","adminCodes1":{"ISO3166_2":"KS"},"countryName":"United States","fcodeName":"populated place","adminName1":"Kansas","lat":"39.09333","fcode":"PPL"},{"adminCode1":"IL","lng":"-89.40842","geonameId":4894690,"toponymName":"Greenoak","countryId":"6252001","fcl":"P","population":0,"countryCode":"US","name":"Greenoak","fclName":"city, village,...","adminCodes1":{"ISO3166_2":"IL"},"countryName":"United States","fcodeName":"populated place","adminName1":"Illinois","lat":"41.48031","fcode":"PPL"},{"adminCode1":"OH","lng":"-84.13439","geonameId":5165855,"toponymName":"Ottokee","countryId":"6252001","fcl":"P","population":0,"countryCode":"US","name":"Ottokee","fclName":"city, village,...","adminCodes1":{"ISO3166_2":"OH"},"countryName":"United States","fcodeName":"populated place","adminName1":"Ohio","lat":"41.60227","fcode":"PPL"},{"adminCode1":"OH","lng":"-81.49706","geonameId":5166208,"toponymName":"Parral","countryId":"6252001","fcl":"P","population":220,"countryCode":"US","name":"Parral","fclName":"city, village,...","adminCodes1":{"ISO3166_2":"OH"},"countryName":"United States","fcodeName":"populated place","adminName1":"Ohio","lat":"40.56117","fcode":"PPL"},{"adminCode1":"OH","lng":"-81.55845","geonameId":5177122,"toponymName":"Winfield","countryId":"6252001","fcl":"P","population":0,"countryCode":"US","name":"Winfield","fclName":"city, village,...","adminCodes1":{"ISO3166_2":"OH"},"countryName":"United States","fcodeName":"populated place","adminName1":"Ohio","lat":"40.54867","fcode":"PPL"},{"adminCode1":"IL","lng":"-89.46704","geonameId":4900074,"toponymName":"Limerick","countryId":"6252001","fcl":"P","population":0,"countryCode":"US","name":"Limerick","fclName":"city, village,...","adminCodes1":{"ISO3166_2":"IL"},"countryName":"United States","fcodeName":"populated place","adminName1":"Illinois","lat":"41.49476","fcode":"PPL"},{"adminCode1":"OH","lng":"-84.64856","geonameId":4507755,"toponymName":"Camden","countryId":"6252001","fcl":"P","population":1969,"countryCode":"US","name":"Camden","fclName":"city, village,...","adminCodes1":{"ISO3166_2":"OH"},"countryName":"United States","fcodeName":"populated place","adminName1":"Ohio","lat":"39.62894","fcode":"PPL"},{"adminCode1":"OH","lng":"-81.69541","geonameId":5151660,"toponymName":"Dalton","countryId":"6252001","fcl":"P","population":1850,"countryCode":"US","name":"Dalton","fclName":"city, village,...","adminCodes1":{"ISO3166_2":"OH"},"countryName":"United States","fcodeName":"populated place","adminName1":"Ohio","lat":"40.79894","fcode":"PPL"},{"adminCode1":"PA","lng":"-76.86986","geonameId":4557598,"toponymName":"Township of Dover","countryId":"6252001","fcl":"A","population":0,"countryCode":"US","name":"Dover Township","fclName":"country, state, region,...","adminCodes1":{"ISO3166_2":"PA"},"countryName":"United States","fcodeName":"third-order administrative division","adminName1":"Pennsylvania","lat":"40.00196","fcode":"ADM3"},{"adminCode1":"IL","lng":"-89.45254","geonameId":4890112,"toponymName":"Township of Dover","countryId":"6252001","fcl":"A","population":0,"countryCode":"US","name":"Dover Township","fclName":"country, state, region,...","adminCodes1":{"ISO3166_2":"IL"},"countryName":"United States","fcodeName":"third-order administrative division","adminName1":"Illinois","lat":"41.45129","fcode":"ADM3"},{"adminCode1":"ME","lng":"-69.63782","geonameId":4962772,"toponymName":"Dover","countryId":"6252001","fcl":"P","population":0,"countryCode":"US","name":"Dover","fclName":"city, village,...","adminCodes1":{"ISO3166_2":"ME"},"countryName":"United States","fcodeName":"populated place","adminName1":"Maine","lat":"43.92314","fcode":"PPL"},{"adminCode1":"MO","lng":"-93.68952","geonameId":7164653,"toponymName":"Town of Dover","countryId":"6252001","fcl":"A","population":103,"countryCode":"US","name":"Town of Dover","fclName":"country, state, region,...","adminCodes1":{"ISO3166_2":"MO"},"countryName":"United States","fcodeName":"administrative division","adminName1":"Missouri","lat":"39.19411","fcode":"ADMD"},{"adminCode1":"IL","lng":"-89.39592","geonameId":7166447,"toponymName":"Village of Dover","countryId":"6252001","fcl":"A","population":168,"countryCode":"US","name":"Village of Dover","fclName":"country, state, region,...","adminCodes1":{"ISO3166_2":"IL"},"countryName":"United States","fcodeName":"administrative division","adminName1":"Illinois","lat":"41.43403","fcode":"ADMD"},{"adminCode1":"CO","lng":"-105.09306","geonameId":7130533,"toponymName":"Dover Square Park","countryId":"6252001","fcl":"L","population":0,"countryCode":"US","name":"Dover Square Park","fclName":"parks,area, ...","adminCodes1":{"ISO3166_2":"CO"},"countryName":"United States","fcodeName":"park","adminName1":"Colorado","lat":"39.85861","fcode":"PRK"},{"adminCode1":"TN","lng":"-87.84359","geonameId":7169371,"toponymName":"City of Dover","countryId":"6252001","fcl":"A","population":1417,"countryCode":"US","name":"City of Dover","fclName":"country, state, region,...","adminCodes1":{"ISO3166_2":"TN"},"countryName":"United States","fcodeName":"administrative division","adminName1":"Tennessee","lat":"36.48189","fcode":"ADMD"},{"adminCode1":"ID","lng":"-116.61002","geonameId":7173319,"toponymName":"City of Dover","countryId":"6252001","fcl":"A","population":556,"countryCode":"US","name":"City of Dover","fclName":"country, state, region,...","adminCodes1":{"ISO3166_2":"ID"},"countryName":"United States","fcodeName":"administrative division","adminName1":"Idaho","lat":"48.26083","fcode":"ADMD"},{"adminCode1":"OK","lng":"-97.91084","geonameId":7174869,"toponymName":"Town of Dover","countryId":"6252001","fcl":"A","population":464,"countryCode":"US","name":"Town of Dover","fclName":"country, state, region,...","adminCodes1":{"ISO3166_2":"OK"},"countryName":"United States","fcodeName":"administrative division","adminName1":"Oklahoma","lat":"35.98136","fcode":"ADMD"},{"adminCode1":"AR","lng":"-93.11429","geonameId":7317650,"toponymName":"City of Dover","countryId":"6252001","fcl":"A","population":1378,"countryCode":"US","name":"City of Dover","fclName":"country, state, region,...","adminCodes1":{"ISO3166_2":"AR"},"countryName":"United States","fcodeName":"administrative division","adminName1":"Arkansas","lat":"35.39127","fcode":"ADMD"},{"adminCode1":"DE","lng":"-75.4844","geonameId":7266881,"toponymName":"Dover East Industrial Park","countryId":"6252001","fcl":"L","population":0,"countryCode":"US","name":"Dover East Industrial Park","fclName":"parks,area, ...","adminCodes1":{"ISO3166_2":"DE"},"countryName":"United States","fcodeName":"industrial area","adminName1":"Delaware","lat":"39.151","fcode":"INDS"},{"adminCode1":"KS","lng":"-95.8478","geonameId":7267150,"toponymName":"Dover Industrial Park","countryId":"6252001","fcl":"L","population":0,"countryCode":"US","name":"Dover Industrial Park","fclName":"parks,area, ...","adminCodes1":{"ISO3166_2":"KS"},"countryName":"United States","fcodeName":"industrial area","adminName1":"Kansas","lat":"38.9856","fcode":"INDS"}]}
