{"totalResultsCount":46,"geonames":[{"adminCode1":"WA","lng":"-120.28118","geonameId":5793272,"toponymName":"East Wenatchee Bench","countryId":"6252001","fcl":"P","population":8856,"countryCode":"US","name":"East Wenatchee Bench","fclName":"city, village,...","adminCodes1":{"ISO3166_2":"WA"},"countryName":"United States","fcodeName":"populated place","adminName1":"Washington","lat":"47.42568","fcode":"PPL"},{"adminCode1":"KY","lng":"-85.76434","geonameId":8504300,"toponymName":"Ruff Memorial-Wheelmens Bench Historical Marker","countryId":"6252001","fcl":"L","population":0,"countryCode":"US","name":"Ruff Memorial-Wheelmens Bench Historical Marker","fclName":"parks,area, ...","adminCodes1":{"ISO3166_2":"KY"},"countryName":"United States","fcodeName":"park","adminName1":"Kentucky","lat":"38.20167","fcode":"PRK"},{"adminCode1":"UT","lng":"-112.41521","geonameId":5538653,"toponymName":"East Bench","countryId":"6252001","fcl":"T","population":0,"countryCode":"US","name":"East Bench","fclName":"mountain,hill,rock,... ","adminCodes1":{"ISO3166_2":"UT"},"countryName":"United States","fcodeName":"bench","adminName1":"Utah","lat":"37.86164","fcode":"BNCH"},{"adminCode1":"OH","lng":"-81.06815","geonameId":5160510,"toponymName":"The Ledges","countryId":"6252001","fcl":"T","population":0,"countryCode":"US","name":"The Ledges","fclName":"mountain,hill,rock,... ","adminCodes1":{"ISO3166_2":"OH"},"countryName":"United States","fcodeName":"bench","adminName1":"Ohio","lat":"41.69116","fcode":"BNCH"},{"adminCode1":"TN","lng":"-85.54692","geonameId":4607669,"toponymName":"Bone Cave Mountain","countryId":"6252001","fcl":"T","population":0,"countryCode":"US","name":"Bone Cave Mountain","fclName":"mountain,hill,rock,... ","adminCodes1":{"ISO3166_2":"TN"},"countryName":"United States","fcodeName":"mountain","adminName1":"Tennessee","lat":"35.78284","fcode":"MT"},{"adminCode1":"OH","lng":"-81.04204","geonameId":5164171,"toponymName":"Nelson Ledge","countryId":"6252001","fcl":"T","population":0,"countryCode":"US","name":"Nelson Ledge","fclName":"mountain,hill,rock,... ","adminCodes1":{"ISO3166_2":"OH"},"countryName":"United States","fcodeName":"bench","adminName1":"Ohio","lat":"41.33117","fcode":"BNCH"},{"adminCode1":"OH","lng":"-81.01426","geonameId":5159515,"toponymName":"Kennedy Ledge","countryId":"6252001","fcl":"T","population":0,"countryCode":"US","name":"Kennedy Ledge","fclName":"mountain,hill,rock,... ","adminCodes1":{"ISO3166_2":"OH"},"countryName":"United States","fcodeName":"bench","adminName1":"Ohio","lat":"41.3295","fcode":"BNCH"},{"adminCode1":"OR","lng":"-117.3099","geonameId":5724652,"toponymName":"East Bench","countryId":"6252001","fcl":"T","population":0,"countryCode":"US","name":"East Bench","fclName":"mountain,hill,rock,... ","adminCodes1":{"ISO3166_2":"OR"},"countryName":"United States","fcodeName":"bench","adminName1":"Oregon","lat":"43.97849","fcode":"BNCH"},{"adminCode1":"MT","lng":"-109.1971","geonameId":5649904,"toponymName":"East Bench","countryId":"6252001","fcl":"T","population":0,"countryCode":"US","name":"East Bench","fclName":"mountain,hill,rock,... ","adminCodes1":{"ISO3166_2":"MT"},"countryName":"United States","fcodeName":"bench","adminName1":"Montana","lat":"45.28411","fcode":"BNCH"},{"adminCode1":"UT","lng":"-111.61603","geonameId":5774225,"toponymName":"East Bench","countryId":"6252001","fcl":"T","population":0,"countryCode":"US","name":"East Bench","fclName":"mountain,hill,rock,... ","adminCodes1":{"ISO3166_2":"UT"},"countryName":"United States","fcodeName":"bench","adminName1":"Utah","lat":"40.10273","fcode":"BNCH"},{"adminCode1":"UT","lng":"-111.10544","geonameId":5538652,"toponymName":"East Baker Bench","countryId":"6252001","fcl":"T","population":0,"countryCode":"US","name":"East Baker Bench","fclName":"mountain,hill,rock,... ","adminCodes1":{"ISO3166_2":"UT"},"countryName":"United States","fcodeName":"bench","adminName1":"Utah","lat":"37.59277","fcode":"BNCH"},{"adminCode1":"UT","lng":"-109.46346","geonameId":5538654,"toponymName":"East Bench","countryId":"6252001","fcl":"T","population":0,"countryCode":"US","name":"East Bench","fclName":"mountain,hill,rock,... ","adminCodes1":{"ISO3166_2":"UT"},"countryName":"United States","fcodeName":"bench","adminName1":"Utah","lat":"39.90802","fcode":"BNCH"},{"adminCode1":"UT","lng":"-111.77017","geonameId":5538672,"toponymName":"East Clark Bench","countryId":"6252001","fcl":"T","population":0,"countryCode":"US","name":"East Clark Bench","fclName":"mountain,hill,rock,... ","adminCodes1":{"ISO3166_2":"UT"},"countryName":"United States","fcodeName":"bench","adminName1":"Utah","lat":"37.08637","fcode":"BNCH"},{"adminCode1":"TN","lng":"-86.12304","geonameId":4644387,"toponymName":"Murrell Bench","countryId":"6252001","fcl":"T","population":0,"countryCode":"US","name":"Murrell Bench","fclName":"mountain,hill,rock,... ","adminCodes1":{"ISO3166_2":"TN"},"countryName":"United States","fcodeName":"bench","adminName1":"Tennessee","lat":"35.01064","fcode":"BNCH"},{"adminCode1":"TN","lng":"-83.28183","geonameId":4605501,"toponymName":"The Bench","countryId":"6252001","fcl":"T","population":0,"countryCode":"US","name":"The Bench","fclName":"mountain,hill,rock,... ","adminCodes1":{"ISO3166_2":"TN"},"countryName":"United States","fcodeName":"bench","adminName1":"Tennessee","lat":"35.8976","fcode":"BNCH"},{"adminCode1":"TN","lng":"-83.66961","geonameId":4617943,"toponymName":"Devils Bench","countryId":"6252001","fcl":"T","population":0,"countryCode":"US","name":"Devils Bench","fclName":"mountain,hill,rock,... ","adminCodes1":{"ISO3166_2":"TN"},"countryName":"United States","fcodeName":"bench","adminName1":"Tennessee","lat":"35.58176","fcode":"BNCH"},{"adminCode1":"TN","lng":"-81.96873","geonameId":4618600,"toponymName":"Dogwood Bench","countryId":"6252001","fcl":"T","population":0,"countryCode":"US","name":"Dogwood Bench","fclName":"mountain,hill,rock,... ","adminCodes1":{"ISO3166_2":"TN"},"countryName":"United States","fcodeName":"bench","adminName1":"Tennessee","lat":"36.53789","fcode":"BNCH"},{"adminCode1":"AL","lng":"-86.03276","geonameId":4085969,"toponymName":"Rich Bench","countryId":"6252001","fcl":"T","population":0,"countryCode":"US","name":"Rich Bench","fclName":"mountain,hill,rock,... ","adminCodes1":{"ISO3166_2":"AL"},"countryName":"United States","fcodeName":"bench","adminName1":"Alabama","lat":"34.96647","fcode":"BNCH"},{"adminCode1":"AL","lng":"-86.13609","geonameId":4056200,"toponymName":"Cold Spring Bench","countryId":"6252001","fcl":"T","population":0,"countryCode":"US","name":"Cold Spring Bench","fclName":"mountain,hill,rock,... ","adminCodes1":{"ISO3166_2":"AL"},"countryName":"United States","fcodeName":"bench","adminName1":"Alabama","lat":"34.9237","fcode":"BNCH"},{"adminCode1":"TN","lng":"-83.59961","geonameId":4605499,"toponymName":"Bench Mountain","countryId":"6252001","fcl":"T","population":0,"countryCode":"US","name":"Bench Mountain","fclName":"mountain,hill,rock,... ","adminCodes1":{"ISO3166_2":"TN"},"countryName":"United States","fcodeName":"mountain","adminName1":"Tennessee","lat":"35.76203","fcode":"MT"},{"adminCode1":"TN","lng":"-83.6835","geonameId":4605500,"toponymName":"Bench Mountain","countryId":"6252001","fcl":"T","population":0,"countryCode":"US","name":"Bench Mountain","fclName":"mountain,hill,rock,... ","adminCodes1":{"ISO3166_2":"TN"},"countryName":"United States","fcodeName":"mountain","adminName1":"Tennessee","lat":"35.7962","fcode":"MT"},{"adminCode1":"TN","lng":"-84.57189","geonameId":4604520,"toponymName":"Bear Bench Ridge","countryId":"6252001","fcl":"T","population":0,"countryCode":"US","name":"Bear Bench Ridge","fclName":"mountain,hill,rock,... ","adminCodes1":{"ISO3166_2":"TN"},"countryName":"United States","fcodeName":"ridge(s)","adminName1":"Tennessee","lat":"36.21897","fcode":"RDGE"},{"adminCode1":"NM","lng":"-107.56144","geonameId":5466096,"toponymName":"East Mesa","countryId":"6252001","fcl":"T","population":0,"countryCode":"US","name":"East Mesa","fclName":"mountain,hill,rock,... ","adminCodes1":{"ISO3166_2":"NM"},"countryName":"United States","fcodeName":"bench","adminName1":"New Mexico","lat":"34.81199","fcode":"BNCH"},{"adminCode1":"MT","lng":"-112.56474","geonameId":5649905,"toponymName":"East Bench (historical)","countryId":"6252001","fcl":"P","population":0,"countryCode":"US","name":"East Bench (historical)","fclName":"city, village,...","adminCodes1":{"ISO3166_2":"MT"},"countryName":"United States","fcodeName":"abandoned populated place","adminName1":"Montana","lat":"45.24159","fcode":"PPLQ"},{"adminCode1":"UT","lng":"-111.93966","geonameId":5774228,"toponymName":"East Bench at 29th","countryId":"6252001","fcl":"P","population":0,"countryCode":"US","name":"East Bench at 29th","fclName":"city, village,...","adminCodes1":{"ISO3166_2":"UT"},"countryName":"United States","fcodeName":"section of populated place","adminName1":"Utah","lat":"41.2105","fcode":"PPLX"},{"adminCode1":"KY","lng":"-84.31577","geonameId":4309641,"toponymName":"The Steps","countryId":"6252001","fcl":"T","population":0,"countryCode":"US","name":"The Steps","fclName":"mountain,hill,rock,... ","adminCodes1":{"ISO3166_2":"KY"},"countryName":"United States","fcodeName":"bench","adminName1":"Kentucky","lat":"36.8073","fcode":"BNCH"},{"adminCode1":"MI","lng":"-87.92929","geonameId":5012332,"toponymName":"Tokiahok Head","countryId":"6252001","fcl":"T","population":0,"countryCode":"US","name":"Tokiahok Head","fclName":"mountain,hill,rock,... ","adminCodes1":{"ISO3166_2":"MI"},"countryName":"United States","fcodeName":"bench","adminName1":"Michigan","lat":"46.86076","fcode":"BNCH"},{"adminCode1":"OH","lng":"-81.51928","geonameId":5168212,"toponymName":"Ritchie Ledges","countryId":"6252001","fcl":"T","population":0,"countryCode":"US","name":"Ritchie Ledges","fclName":"mountain,hill,rock,... ","adminCodes1":{"ISO3166_2":"OH"},"countryName":"United States","fcodeName":"bench","adminName1":"Ohio","lat":"41.22756","fcode":"BNCH"},{"adminCode1":"OH","lng":"-81.02037","geonameId":5164522,"toponymName":"Newels Ledge","countryId":"6252001","fcl":"T","population":0,"countryCode":"US","name":"Newels Ledge","fclName":"mountain,hill,rock,... ","adminCodes1":{"ISO3166_2":"OH"},"countryName":"United States","fcodeName":"bench","adminName1":"Ohio","lat":"41.29172","fcode":"BNCH"},{"adminCode1":"OH","lng":"-81.58901","geonameId":5177152,"toponymName":"Wintergreen Ledges","countryId":"6252001","fcl":"T","population":0,"countryCode":"US","name":"Wintergreen Ledges","fclName":"mountain,hill,rock,... ","adminCodes1":{"ISO3166_2":"OH"},"countryName":"United States","fcodeName":"bench","adminName1":"Ohio","lat":"41.05894","fcode":"BNCH"},{"adminCode1":"OH","lng":"-81.51011","geonameId":5147907,"toponymName":"Boston Ledges","countryId":"6252001","fcl":"T","population":0,"countryCode":"US","name":"Boston Ledges","fclName":"mountain,hill,rock,... ","adminCodes1":{"ISO3166_2":"OH"},"countryName":"United States","fcodeName":"bench","adminName1":"Ohio","lat":"41.23617","fcode":"BNCH"},{"adminCode1":"OH","lng":"-83.40269","geonameId":4506199,"toponymName":"Bench Trail","countryId":"6252001","fcl":"R","population":0,"countryCode":"US","name":"Bench Trail","fclName":"road, railroad ","adminCodes1":{"ISO3166_2":"OH"},"countryName":"United States","fcodeName":"trail","adminName1":"Ohio","lat":"39.11785","fcode":"TRL"},{"adminCode1":"MT","lng":"-112.53418","geonameId":5649906,"toponymName":"East Bench Canal","countryId":"6252001","fcl":"H","population":0,"countryCode":"US","name":"East Bench Canal","fclName":"stream, lake, ...","adminCodes1":{"ISO3166_2":"MT"},"countryName":"United States","fcodeName":"canal","adminName1":"Montana","lat":"45.25437","fcode":"CNL"},{"adminCode1":"MT","lng":"-112.63752","geonameId":5649907,"toponymName":"East Bench Grain and Machinery Incorporated Elevator","countryId":"6252001","fcl":"S","population":0,"countryCode":"US","name":"East Bench Grain and Machinery Incorporated Elevator","fclName":"spot, building, farm","adminCodes1":{"ISO3166_2":"MT"},"countryName":"United States","fcodeName":"","adminName1":"Montana","lat":"45.21631"},{"adminCode1":"UT","lng":"-111.61381","geonameId":5774226,"toponymName":"East Bench Canal","countryId":"6252001","fcl":"H","population":0,"countryCode":"US","name":"East Bench Canal","fclName":"stream, lake, ...","adminCodes1":{"ISO3166_2":"UT"},"countryName":"United States","fcodeName":"canal","adminName1":"Utah","lat":"40.09773","fcode":"CNL"},{"adminCode1":"UT","lng":"-111.93022","geonameId":5774227,"toponymName":"East Bench Substation","countryId":"6252001","fcl":"S","population":0,"countryCode":"US","name":"East Bench Substation","fclName":"spot, building, farm","adminCodes1":{"ISO3166_2":"UT"},"countryName":"United States","fcodeName":"","adminName1":"Utah","lat":"41.22217"},{"adminCode1":"UT","lng":"-111.77354","geonameId":5844098,"toponymName":"East Bench Ditch","countryId":"6252001","fcl":"H","population":0,"countryCode":"US","name":"East Bench Ditch","fclName":"stream, lake, ...","adminCodes1":{"ISO3166_2":"UT"},"countryName":"United States","fcodeName":"canal","adminName1":"Utah","lat":"40.41634","fcode":"CNL"},{"adminCode1":"NV","lng":"-114.56417","geonameId":5503409,"toponymName":"East Bench Well Number One","countryId":"6252001","fcl":"H","population":0,"countryCode":"US","name":"East Bench Well Number One","fclName":"stream, lake, ...","adminCodes1":{"ISO3166_2":"NV"},"countryName":"United States","fcodeName":"well","adminName1":"Nevada","lat":"38.69023","fcode":"WLL"},{"adminCode1":"UT","lng":"-112.40243","geonameId":5538655,"toponymName":"East Bench Canal","countryId":"6252001","fcl":"H","population":0,"countryCode":"US","name":"East Bench Canal","fclName":"stream, lake, ...","adminCodes1":{"ISO3166_2":"UT"},"countryName":"United States","fcodeName":"canal","adminName1":"Utah","lat":"37.86164","fcode":"CNL"},{"adminCode1":"UT","lng":"-113.41113","geonameId":5538765,"toponymName":"East Tule Bench Reservoir","countryId":"6252001","fcl":"H","population":0,"countryCode":"US","name":"East Tule Bench Reservoir","fclName":"stream, lake, ...","adminCodes1":{"ISO3166_2":"UT"},"countryName":"United States","fcodeName":"reservoir(s)","adminName1":"Utah","lat":"39.38878","fcode":"RSV"},{"adminCode1":"TN","lng":"-83.65572","geonameId":4617944,"toponymName":"Devils Bench Branch","countryId":"6252001","fcl":"H","population":0,"countryCode":"US","name":"Devils Bench Branch","fclName":"stream, lake, ...","adminCodes1":{"ISO3166_2":"TN"},"countryName":"United States","fcodeName":"stream","adminName1":"Tennessee","lat":"35.58815","fcode":"STM"},{"adminCode1":"IN","lng":"-85.54025","geonameId":4254373,"toponymName":"Bench Run","countryId":"6252001","fcl":"H","population":0,"countryCode":"US","name":"Bench Run","fclName":"stream, lake, ...","adminCodes1":{"ISO3166_2":"IN"},"countryName":"United States","fcodeName":"stream","adminName1":"Indiana","lat":"39.87477","fcode":"STM"},{"adminCode1":"MI","lng":"-84.10859","geonameId":4985632,"toponymName":"Bench Drain","countryId":"6252001","fcl":"H","population":0,"countryCode":"US","name":"Bench Drain","fclName":"stream, lake, ...","adminCodes1":{"ISO3166_2":"MI"},"countryName":"United States","fcodeName":"stream","adminName1":"Michigan","lat":"43.57225","fcode":"STM"},{"adminCode1":"OH","lng":"-83.85439","geonameId":5147049,"toponymName":"Bench Ditch","countryId":"6252001","fcl":"H","population":0,"countryCode":"US","name":"Bench Ditch","fclName":"stream, lake, ...","adminCodes1":{"ISO3166_2":"OH"},"countryName":"United States","fcodeName":"canal","adminName1":"Ohio","lat":"41.61644","fcode":"CNL"},{"adminCode1":"MS","lng":"-90.63276","geonameId":8107798,"toponymName":"Bench Volunteer Fire Department","countryId":"6252001","fcl":"S","population":0,"countryCode":"US","name":"Bench Volunteer Fire Department","fclName":"spot, building, farm","adminCodes1":{"ISO3166_2":"MS"},"countryName":"United States","fcodeName":"building(s)","adminName1":"Mississippi","lat":"32.19346","fcode":"BLDG"},{"adminCode1":"OH","lng":"-83.28194","geonameId":8097205,"toponymName":"Bench's Greenhouse","countryId":"6252001","fcl":"S","population":0,"countryCode":"US","name":"Bench's Greenhouse","fclName":"spot, building, farm","adminCodes1":{"ISO3166_2":"OH"},"countryName":"United States","fcodeName":"building(s)","adminName1":"Ohio","lat":"41.48778","fcode":"BLDG"}]}
