{"totalResultsCount":1070,"geonames":[{"adminCode1":"MN","lng":"-93.47079","geonameId":5025219,"toponymName":"Eden Prairie","countryId":"6252001","fcl":"P","population":63496,"countryCode":"US","name":"Eden Prairie","fclName":"city, village,...","adminCodes1":{"ISO3166_2":"MN"},"countryName":"United States","fcodeName":"populated place","adminName1":"Minnesota","lat":"44.85469","fcode":"PPL"},{"adminCode1":"VT","lng":"-72.54567","geonameId":5235825,"toponymName":"Eden","countryId":"6252001","fcl":"P","population":0,"countryCode":"US","name":"Eden","fclName":"city, village,...","adminCodes1":{"ISO3166_2":"VT"},"countryName":"United States","fcodeName":"populated place","adminName1":"Vermont","lat":"44.70727","fcode":"PPL"},{"adminCode1":"NC","lng":"-79.7667","geonameId":4464873,"toponymName":"Eden","countryId":"6252001","fcl":"P","population":15403,"countryCode":"US","name":"Eden","fclName":"city, village,...","adminCodes1":{"ISO3166_2":"NC"},"countryName":"United States","fcodeName":"populated place","adminName1":"North Carolina","lat":"36.48847","fcode":"PPL"},{"adminCode1":"FL","lng":"-86.12216","geonameId":4154191,"toponymName":"Eden Gardens State Park","countryId":"6252001","fcl":"L","population":0,"countryCode":"US","name":"Eden Gardens State Park","fclName":"parks,area, ...","adminCodes1":{"ISO3166_2":"FL"},"countryName":"United States","fcodeName":"park","adminName1":"Florida","lat":"30.37798","fcode":"PRK"},{"adminCode1":"MN","lng":"-94.54611","geonameId":5025225,"toponymName":"Eden Valley","countryId":"6252001","fcl":"P","population":1036,"countryCode":"US","name":"Eden Valley","fclName":"city, village,...","adminCodes1":{"ISO3166_2":"MN"},"countryName":"United States","fcodeName":"populated place","adminName1":"Minnesota","lat":"45.32607","fcode":"PPL"},{"adminCode1":"VA","lng":"-78.56585","geonameId":4757240,"toponymName":"Edinburg","countryId":"6252001","fcl":"P","population":1069,"countryCode":"US","name":"Edinburg","fclName":"city, village,...","adminCodes1":{"ISO3166_2":"VA"},"countryName":"United States","fcodeName":"populated place","adminName1":"Virginia","lat":"38.82095","fcode":"PPL"},{"adminCode1":"MN","lng":"-93.45717","geonameId":5027008,"toponymName":"Flying Cloud Airport","countryId":"6252001","fcl":"S","population":0,"countryCode":"US","name":"Flying Cloud Airport","fclName":"spot, building, farm","adminCodes1":{"ISO3166_2":"MN"},"countryName":"United States","fcodeName":"airport","adminName1":"Minnesota","lat":"44.82719","fcode":"AIRP"},{"adminCode1":"VT","lng":"-72.53011","geonameId":5235828,"toponymName":"Eden Mills","countryId":"6252001","fcl":"P","population":0,"countryCode":"US","name":"Eden Mills","fclName":"city, village,...","adminCodes1":{"ISO3166_2":"VT"},"countryName":"United States","fcodeName":"populated place","adminName1":"Vermont","lat":"44.71338","fcode":"PPL"},{"adminCode1":"TX","lng":"-99.84563","geonameId":4688222,"toponymName":"Eden","countryId":"6252001","fcl":"P","population":2786,"countryCode":"US","name":"Eden","fclName":"city, village,...","adminCodes1":{"ISO3166_2":"TX"},"countryName":"United States","fcodeName":"populated place","adminName1":"Texas","lat":"31.21628","fcode":"PPL"},{"adminCode1":"ID","lng":"-114.21086","geonameId":5592219,"toponymName":"Eden","countryId":"6252001","fcl":"P","population":405,"countryCode":"US","name":"Eden","fclName":"city, village,...","adminCodes1":{"ISO3166_2":"ID"},"countryName":"United States","fcodeName":"populated place","adminName1":"Idaho","lat":"42.60575","fcode":"PPL"},{"adminCode1":"MI","lng":"-86.23785","geonameId":4991860,"toponymName":"Eden Lake","countryId":"6252001","fcl":"H","population":0,"countryCode":"US","name":"Eden Lake","fclName":"stream, lake, ...","adminCodes1":{"ISO3166_2":"MI"},"countryName":"United States","fcodeName":"lake","adminName1":"Michigan","lat":"43.87179","fcode":"LK"},{"adminCode1":"WI","lng":"-88.36094","geonameId":5251514,"toponymName":"Eden","countryId":"6252001","fcl":"P","population":862,"countryCode":"US","name":"Eden","fclName":"city, village,...","adminCodes1":{"ISO3166_2":"WI"},"countryName":"United States","fcodeName":"populated place","adminName1":"Wisconsin","lat":"43.6936","fcode":"PPL"},{"adminCode1":"LA","lng":"-89.79867","geonameId":4323546,"toponymName":"Eden Isle","countryId":"6252001","fcl":"P","population":7041,"countryCode":"US","name":"Eden Isle","fclName":"city, village,...","adminCodes1":{"ISO3166_2":"LA"},"countryName":"United States","fcodeName":"populated place","adminName1":"Louisiana","lat":"30.22853","fcode":"PPL"},{"adminCode1":"UT","lng":"-111.81216","geonameId":5774381,"toponymName":"Eden","countryId":"6252001","fcl":"P","population":600,"countryCode":"US","name":"Eden","fclName":"city, village,...","adminCodes1":{"ISO3166_2":"UT"},"countryName":"United States","fcodeName":"populated place","adminName1":"Utah","lat":"41.3005","fcode":"PPL"},{"adminCode1":"UT","lng":"-109.5429","geonameId":5539505,"toponymName":"Garden of Eden","countryId":"6252001","fcl":"L","population":0,"countryCode":"US","name":"Garden of Eden","fclName":"parks,area, ...","adminCodes1":{"ISO3166_2":"UT"},"countryName":"United States","fcodeName":"area","adminName1":"Utah","lat":"38.69998","fcode":"AREA"},{"adminCode1":"IN","lng":"-85.53971","geonameId":4927264,"toponymName":"Topeka","countryId":"6252001","fcl":"P","population":1200,"countryCode":"US","name":"Topeka","fclName":"city, village,...","adminCodes1":{"ISO3166_2":"IN"},"countryName":"United States","fcodeName":"populated place","adminName1":"Indiana","lat":"41.53922","fcode":"PPL"},{"adminCode1":"NY","lng":"-78.89698","geonameId":5116215,"toponymName":"Eden","countryId":"6252001","fcl":"P","population":3516,"countryCode":"US","name":"Eden","fclName":"city, village,...","adminCodes1":{"ISO3166_2":"NY"},"countryName":"United States","fcodeName":"populated place","adminName1":"New York","lat":"42.65228","fcode":"PPL"},{"adminCode1":"GA","lng":"-81.39067","geonameId":4192940,"toponymName":"Eden","countryId":"6252001","fcl":"P","population":0,"countryCode":"US","name":"Eden","fclName":"city, village,...","adminCodes1":{"ISO3166_2":"GA"},"countryName":"United States","fcodeName":"populated place","adminName1":"Georgia","lat":"32.17381","fcode":"PPL"},{"adminCode1":"SD","lng":"-97.41982","geonameId":5227514,"toponymName":"Eden","countryId":"6252001","fcl":"P","population":91,"countryCode":"US","name":"Eden","fclName":"city, village,...","adminCodes1":{"ISO3166_2":"SD"},"countryName":"United States","fcodeName":"populated place","adminName1":"South Dakota","lat":"45.61662","fcode":"PPL"},{"adminCode1":"KY","lng":"-85.15106","geonameId":4301504,"toponymName":"Mount Eden","countryId":"6252001","fcl":"P","population":0,"countryCode":"US","name":"Mount Eden","fclName":"city, village,...","adminCodes1":{"ISO3166_2":"KY"},"countryName":"United States","fcodeName":"populated place","adminName1":"Kentucky","lat":"38.05618","fcode":"PPL"},{"adminCode1":"AZ","lng":"-109.89536","geonameId":5293920,"toponymName":"Eden","countryId":"6252001","fcl":"P","population":0,"countryCode":"US","name":"Eden","fclName":"city, village,...","adminCodes1":{"ISO3166_2":"AZ"},"countryName":"United States","fcodeName":"populated place","adminName1":"Arizona","lat":"32.96117","fcode":"PPL"},{"adminCode1":"PA","lng":"-75.72176","geonameId":5194544,"toponymName":"Hunt Lake","countryId":"6252001","fcl":"H","population":0,"countryCode":"US","name":"Hunt Lake","fclName":"stream, lake, ...","adminCodes1":{"ISO3166_2":"PA"},"countryName":"United States","fcodeName":"lake","adminName1":"Pennsylvania","lat":"41.82875","fcode":"LK"},{"adminCode1":"MD","lng":"-76.45635","geonameId":4354043,"toponymName":"Eden Mills Park","countryId":"6252001","fcl":"L","population":0,"countryCode":"US","name":"Eden Mills Park","fclName":"parks,area, ...","adminCodes1":{"ISO3166_2":"MD"},"countryName":"United States","fcodeName":"park","adminName1":"Maryland","lat":"39.67733","fcode":"PRK"},{"adminCode1":"KY","lng":"-86.70443","geonameId":4290861,"toponymName":"Eden","countryId":"6252001","fcl":"P","population":0,"countryCode":"US","name":"Eden","fclName":"city, village,...","adminCodes1":{"ISO3166_2":"KY"},"countryName":"United States","fcodeName":"populated place","adminName1":"Kentucky","lat":"37.2756","fcode":"PPL"},{"adminCode1":"IA","lng":"-90.85681","geonameId":4855090,"toponymName":"Eden Valley County Refuge","countryId":"6252001","fcl":"L","population":0,"countryCode":"US","name":"Eden Valley County Refuge","fclName":"parks,area, ...","adminCodes1":{"ISO3166_2":"IA"},"countryName":"United States","fcodeName":"park","adminName1":"Iowa","lat":"42.04557","fcode":"PRK"},{"adminCode1":"MD","lng":"-75.82716","geonameId":4353075,"toponymName":"Denton","countryId":"6252001","fcl":"P","population":4349,"countryCode":"US","name":"Denton","fclName":"city, village,...","adminCodes1":{"ISO3166_2":"MD"},"countryName":"United States","fcodeName":"seat of a second-order administrative division","adminName1":"Maryland","lat":"38.88456","fcode":"PPLA2"},{"adminCode1":"IN","lng":"-85.5411","geonameId":4920058,"toponymName":"Emma","countryId":"6252001","fcl":"P","population":0,"countryCode":"US","name":"Emma","fclName":"city, village,...","adminCodes1":{"ISO3166_2":"IN"},"countryName":"United States","fcodeName":"populated place","adminName1":"Indiana","lat":"41.61116","fcode":"PPL"},{"adminCode1":"KS","lng":"-97.77144","geonameId":4275558,"toponymName":"Milton","countryId":"6252001","fcl":"P","population":155,"countryCode":"US","name":"Milton","fclName":"city, village,...","adminCodes1":{"ISO3166_2":"KS"},"countryName":"United States","fcodeName":"populated place","adminName1":"Kansas","lat":"37.43169","fcode":"PPL"},{"adminCode1":"IA","lng":"-93.18631","geonameId":4872866,"toponymName":"Rhodes","countryId":"6252001","fcl":"P","population":308,"countryCode":"US","name":"Rhodes","fclName":"city, village,...","adminCodes1":{"ISO3166_2":"IA"},"countryName":"United States","fcodeName":"populated place","adminName1":"Iowa","lat":"41.92554","fcode":"PPL"},{"adminCode1":"IA","lng":"-92.03323","geonameId":4880973,"toponymName":"Waucoma","countryId":"6252001","fcl":"P","population":257,"countryCode":"US","name":"Waucoma","fclName":"city, village,...","adminCodes1":{"ISO3166_2":"IA"},"countryName":"United States","fcodeName":"populated place","adminName1":"Iowa","lat":"43.05609","fcode":"PPL"},{"adminCode1":"IA","lng":"-90.35485","geonameId":4865542,"toponymName":"Low Moor","countryId":"6252001","fcl":"P","population":279,"countryCode":"US","name":"Low Moor","fclName":"city, village,...","adminCodes1":{"ISO3166_2":"IA"},"countryName":"United States","fcodeName":"populated place","adminName1":"Iowa","lat":"41.8017","fcode":"PPL"},{"adminCode1":"KS","lng":"-100.19486","geonameId":5550449,"toponymName":"Beeler","countryId":"6252001","fcl":"P","population":0,"countryCode":"US","name":"Beeler","fclName":"city, village,...","adminCodes1":{"ISO3166_2":"KS"},"countryName":"United States","fcodeName":"populated place","adminName1":"Kansas","lat":"38.44446","fcode":"PPL"},{"adminCode1":"IA","lng":"-94.94277","geonameId":4878332,"toponymName":"Templeton","countryId":"6252001","fcl":"P","population":348,"countryCode":"US","name":"Templeton","fclName":"city, village,...","adminCodes1":{"ISO3166_2":"IA"},"countryName":"United States","fcodeName":"populated place","adminName1":"Iowa","lat":"41.91832","fcode":"PPL"},{"adminCode1":"OH","lng":"-83.10936","geonameId":5162549,"toponymName":"Melmore","countryId":"6252001","fcl":"P","population":153,"countryCode":"US","name":"Melmore","fclName":"city, village,...","adminCodes1":{"ISO3166_2":"OH"},"countryName":"United States","fcodeName":"populated place","adminName1":"Ohio","lat":"41.02394","fcode":"PPL"},{"adminCode1":"OH","lng":"-83.13047","geonameId":5164194,"toponymName":"Nevada","countryId":"6252001","fcl":"P","population":740,"countryCode":"US","name":"Nevada","fclName":"city, village,...","adminCodes1":{"ISO3166_2":"OH"},"countryName":"United States","fcodeName":"populated place","adminName1":"Ohio","lat":"40.81922","fcode":"PPL"},{"adminCode1":"MS","lng":"-90.32342","geonameId":4425385,"toponymName":"Eden","countryId":"6252001","fcl":"P","population":100,"countryCode":"US","name":"Eden","fclName":"city, village,...","adminCodes1":{"ISO3166_2":"MS"},"countryName":"United States","fcodeName":"populated place","adminName1":"Mississippi","lat":"32.98485","fcode":"PPL"},{"adminCode1":"MD","lng":"-75.65104","geonameId":4354039,"toponymName":"Eden","countryId":"6252001","fcl":"P","population":823,"countryCode":"US","name":"Eden","fclName":"city, village,...","adminCodes1":{"ISO3166_2":"MD"},"countryName":"United States","fcodeName":"populated place","adminName1":"Maryland","lat":"38.28068","fcode":"PPL"},{"adminCode1":"IN","lng":"-85.76998","geonameId":4257031,"toponymName":"Eden","countryId":"6252001","fcl":"P","population":0,"countryCode":"US","name":"Eden","fclName":"city, village,...","adminCodes1":{"ISO3166_2":"IN"},"countryName":"United States","fcodeName":"populated place","adminName1":"Indiana","lat":"39.90615","fcode":"PPL"},{"adminCode1":"CO","lng":"-107.86607","geonameId":5427641,"toponymName":"Eden Ranch Airport","countryId":"6252001","fcl":"S","population":0,"countryCode":"US","name":"Eden Ranch Airport","fclName":"spot, building, farm","adminCodes1":{"ISO3166_2":"CO"},"countryName":"United States","fcodeName":"airport","adminName1":"Colorado","lat":"38.83698","fcode":"AIRP"},{"adminCode1":"KS","lng":"-97.75207","geonameId":4270816,"toponymName":"Township of Eden","countryId":"6252001","fcl":"A","population":0,"countryCode":"US","name":"Eden Township","fclName":"country, state, region,...","adminCodes1":{"ISO3166_2":"KS"},"countryName":"United States","fcodeName":"third-order administrative division","adminName1":"Kansas","lat":"37.43038","fcode":"ADM3"},{"adminCode1":"IA","lng":"-92.00887","geonameId":4855092,"toponymName":"Township of Eden","countryId":"6252001","fcl":"A","population":0,"countryCode":"US","name":"Eden Township","fclName":"country, state, region,...","adminCodes1":{"ISO3166_2":"IA"},"countryName":"United States","fcodeName":"third-order administrative division","adminName1":"Iowa","lat":"42.07964","fcode":"ADM3"},{"adminCode1":"IA","lng":"-94.91833","geonameId":4855093,"toponymName":"Township of Eden","countryId":"6252001","fcl":"A","population":0,"countryCode":"US","name":"Eden Township","fclName":"country, state, region,...","adminCodes1":{"ISO3166_2":"IA"},"countryName":"United States","fcodeName":"third-order administrative division","adminName1":"Iowa","lat":"41.90653","fcode":"ADM3"},{"adminCode1":"IA","lng":"-90.39864","geonameId":4855094,"toponymName":"Township of Eden","countryId":"6252001","fcl":"A","population":0,"countryCode":"US","name":"Eden Township","fclName":"country, state, region,...","adminCodes1":{"ISO3166_2":"IA"},"countryName":"United States","fcodeName":"third-order administrative division","adminName1":"Iowa","lat":"41.79074","fcode":"ADM3"},{"adminCode1":"IA","lng":"-93.72963","geonameId":4855095,"toponymName":"Township of Eden","countryId":"6252001","fcl":"A","population":0,"countryCode":"US","name":"Eden Township","fclName":"country, state, region,...","adminCodes1":{"ISO3166_2":"IA"},"countryName":"United States","fcodeName":"third-order administrative division","adminName1":"Iowa","lat":"40.68151","fcode":"ADM3"},{"adminCode1":"IA","lng":"-92.02229","geonameId":4855096,"toponymName":"Township of Eden","countryId":"6252001","fcl":"A","population":0,"countryCode":"US","name":"Eden Township","fclName":"country, state, region,...","adminCodes1":{"ISO3166_2":"IA"},"countryName":"United States","fcodeName":"third-order administrative division","adminName1":"Iowa","lat":"43.03837","fcode":"ADM3"},{"adminCode1":"IA","lng":"-93.17394","geonameId":4855097,"toponymName":"Township of Eden","countryId":"6252001","fcl":"A","population":0,"countryCode":"US","name":"Eden Township","fclName":"country, state, region,...","adminCodes1":{"ISO3166_2":"IA"},"countryName":"United States","fcodeName":"third-order administrative division","adminName1":"Iowa","lat":"41.90629","fcode":"ADM3"},{"adminCode1":"IA","lng":"-95.21003","geonameId":4855098,"toponymName":"Township of Eden","countryId":"6252001","fcl":"A","population":0,"countryCode":"US","name":"Eden Township","fclName":"country, state, region,...","adminCodes1":{"ISO3166_2":"IA"},"countryName":"United States","fcodeName":"third-order administrative division","adminName1":"Iowa","lat":"42.51783","fcode":"ADM3"},{"adminCode1":"IA","lng":"-93.79313","geonameId":4855099,"toponymName":"Township of Eden","countryId":"6252001","fcl":"A","population":0,"countryCode":"US","name":"Eden Township","fclName":"country, state, region,...","adminCodes1":{"ISO3166_2":"IA"},"countryName":"United States","fcodeName":"third-order administrative division","adminName1":"Iowa","lat":"43.46474","fcode":"ADM3"},{"adminCode1":"KS","lng":"-100.1513","geonameId":5445329,"toponymName":"Township of Eden","countryId":"6252001","fcl":"A","population":0,"countryCode":"US","name":"Eden Township","fclName":"country, state, region,...","adminCodes1":{"ISO3166_2":"KS"},"countryName":"United States","fcodeName":"third-order administrative division","adminName1":"Kansas","lat":"38.47721","fcode":"ADM3"},{"adminCode1":"NE","lng":"-98.0095","geonameId":5067429,"toponymName":"Township of Eden","countryId":"6252001","fcl":"A","population":0,"countryCode":"US","name":"Eden Township","fclName":"country, state, region,...","adminCodes1":{"ISO3166_2":"NE"},"countryName":"United States","fcodeName":"third-order administrative division","adminName1":"Nebraska","lat":"42.39351","fcode":"ADM3"},{"adminCode1":"OH","lng":"-82.32405","geonameId":5152927,"toponymName":"Township of Eden","countryId":"6252001","fcl":"A","population":0,"countryCode":"US","name":"Eden Township","fclName":"country, state, region,...","adminCodes1":{"ISO3166_2":"OH"},"countryName":"United States","fcodeName":"third-order administrative division","adminName1":"Ohio","lat":"40.2053","fcode":"ADM3"},{"adminCode1":"OH","lng":"-83.13176","geonameId":5152928,"toponymName":"Township of Eden","countryId":"6252001","fcl":"A","population":0,"countryCode":"US","name":"Eden Township","fclName":"country, state, region,...","adminCodes1":{"ISO3166_2":"OH"},"countryName":"United States","fcodeName":"third-order administrative division","adminName1":"Ohio","lat":"41.03707","fcode":"ADM3"},{"adminCode1":"OH","lng":"-83.16035","geonameId":5152929,"toponymName":"Township of Eden","countryId":"6252001","fcl":"A","population":0,"countryCode":"US","name":"Eden Township","fclName":"country, state, region,...","adminCodes1":{"ISO3166_2":"OH"},"countryName":"United States","fcodeName":"third-order administrative division","adminName1":"Ohio","lat":"40.86258","fcode":"ADM3"},{"adminCode1":"IN","lng":"-85.59786","geonameId":4919930,"toponymName":"Township of Eden","countryId":"6252001","fcl":"A","population":0,"countryCode":"US","name":"Eden Township","fclName":"country, state, region,...","adminCodes1":{"ISO3166_2":"IN"},"countryName":"United States","fcodeName":"third-order administrative division","adminName1":"Indiana","lat":"41.56759","fcode":"ADM3"},{"adminCode1":"MI","lng":"-85.8627","geonameId":4991815,"toponymName":"Township of Eden","countryId":"6252001","fcl":"A","population":0,"countryCode":"US","name":"Eden Township","fclName":"country, state, region,...","adminCodes1":{"ISO3166_2":"MI"},"countryName":"United States","fcodeName":"third-order administrative division","adminName1":"Michigan","lat":"44.11954","fcode":"ADM3"},{"adminCode1":"MI","lng":"-86.21845","geonameId":4991816,"toponymName":"Township of Eden","countryId":"6252001","fcl":"A","population":0,"countryCode":"US","name":"Eden Township","fclName":"country, state, region,...","adminCodes1":{"ISO3166_2":"MI"},"countryName":"United States","fcodeName":"third-order administrative division","adminName1":"Michigan","lat":"43.86055","fcode":"ADM3"},{"adminCode1":"MN","lng":"-94.57332","geonameId":5025218,"toponymName":"Township of Eden Lake","countryId":"6252001","fcl":"A","population":0,"countryCode":"US","name":"Eden Lake Township","fclName":"country, state, region,...","adminCodes1":{"ISO3166_2":"MN"},"countryName":"United States","fcodeName":"third-order administrative division","adminName1":"Minnesota","lat":"45.36982","fcode":"ADM3"},{"adminCode1":"MN","lng":"-94.81174","geonameId":5025245,"toponymName":"Township of Eden","countryId":"6252001","fcl":"A","population":0,"countryCode":"US","name":"Eden Township","fclName":"country, state, region,...","adminCodes1":{"ISO3166_2":"MN"},"countryName":"United States","fcodeName":"third-order administrative division","adminName1":"Minnesota","lat":"44.42124","fcode":"ADM3"},{"adminCode1":"MN","lng":"-96.38016","geonameId":5025246,"toponymName":"Township of Eden","countryId":"6252001","fcl":"A","population":0,"countryCode":"US","name":"Eden Township","fclName":"country, state, region,...","adminCodes1":{"ISO3166_2":"MN"},"countryName":"United States","fcodeName":"third-order administrative division","adminName1":"Minnesota","lat":"43.89305","fcode":"ADM3"},{"adminCode1":"MN","lng":"-95.64354","geonameId":5025247,"toponymName":"Township of Eden","countryId":"6252001","fcl":"A","population":0,"countryCode":"US","name":"Eden Township","fclName":"country, state, region,...","adminCodes1":{"ISO3166_2":"MN"},"countryName":"United States","fcodeName":"third-order administrative division","adminName1":"Minnesota","lat":"47.71744","fcode":"ADM3"},{"adminCode1":"CA","lng":"-121.29134","geonameId":5345345,"toponymName":"Eden Square","countryId":"6252001","fcl":"L","population":0,"countryCode":"US","name":"Eden Square","fclName":"parks,area, ...","adminCodes1":{"ISO3166_2":"CA"},"countryName":"United States","fcodeName":"park","adminName1":"California","lat":"37.96215","fcode":"PRK"},{"adminCode1":"IN","lng":"-85.60165","geonameId":4921591,"toponymName":"Honeyville","countryId":"6252001","fcl":"P","population":0,"countryCode":"US","name":"Honeyville","fclName":"city, village,...","adminCodes1":{"ISO3166_2":"IN"},"countryName":"United States","fcodeName":"populated place","adminName1":"Indiana","lat":"41.58172","fcode":"PPL"},{"adminCode1":"IN","lng":"-85.64999","geonameId":4926857,"toponymName":"Stony Creek","countryId":"6252001","fcl":"P","population":0,"countryCode":"US","name":"Stony Creek","fclName":"city, village,...","adminCodes1":{"ISO3166_2":"IN"},"countryName":"United States","fcodeName":"populated place","adminName1":"Indiana","lat":"41.53477","fcode":"PPL"},{"adminCode1":"WY","lng":"-109.43707","geonameId":5824375,"toponymName":"Eden","countryId":"6252001","fcl":"P","population":281,"countryCode":"US","name":"Eden","fclName":"city, village,...","adminCodes1":{"ISO3166_2":"WY"},"countryName":"United States","fcodeName":"populated place","adminName1":"Wyoming","lat":"42.05079","fcode":"PPL"},{"adminCode1":"AZ","lng":"-111.26097","geonameId":5302902,"toponymName":"Lost Eden","countryId":"6252001","fcl":"P","population":0,"countryCode":"US","name":"Lost Eden","fclName":"city, village,...","adminCodes1":{"ISO3166_2":"AZ"},"countryName":"United States","fcodeName":"populated place","adminName1":"Arizona","lat":"34.63169","fcode":"PPL"},{"adminCode1":"IL","lng":"-87.5617","geonameId":4893465,"toponymName":"Garden of Eden","countryId":"6252001","fcl":"P","population":0,"countryCode":"US","name":"Garden of Eden","fclName":"city, village,...","adminCodes1":{"ISO3166_2":"IL"},"countryName":"United States","fcodeName":"populated place","adminName1":"Illinois","lat":"41.16976","fcode":"PPL"},{"adminCode1":"IN","lng":"-85.01719","geonameId":4920737,"toponymName":"Glen Eden","countryId":"6252001","fcl":"P","population":0,"countryCode":"US","name":"Glen Eden","fclName":"city, village,...","adminCodes1":{"ISO3166_2":"IN"},"countryName":"United States","fcodeName":"populated place","adminName1":"Indiana","lat":"41.69116","fcode":"PPL"},{"adminCode1":"MN","lng":"-92.88492","geonameId":5025212,"toponymName":"Eden","countryId":"6252001","fcl":"P","population":0,"countryCode":"US","name":"Eden","fclName":"city, village,...","adminCodes1":{"ISO3166_2":"MN"},"countryName":"United States","fcodeName":"populated place","adminName1":"Minnesota","lat":"44.08802","fcode":"PPL"},{"adminCode1":"IL","lng":"-89.12564","geonameId":4886849,"toponymName":"Cedar Point","countryId":"6252001","fcl":"P","population":269,"countryCode":"US","name":"Cedar Point","fclName":"city, village,...","adminCodes1":{"ISO3166_2":"IL"},"countryName":"United States","fcodeName":"populated place","adminName1":"Illinois","lat":"41.26309","fcode":"PPL"},{"adminCode1":"IL","lng":"-89.06675","geonameId":4913780,"toponymName":"Tonica","countryId":"6252001","fcl":"P","population":738,"countryCode":"US","name":"Tonica","fclName":"city, village,...","adminCodes1":{"ISO3166_2":"IL"},"countryName":"United States","fcodeName":"populated place","adminName1":"Illinois","lat":"41.21587","fcode":"PPL"},{"adminCode1":"TX","lng":"-99.84397","geonameId":7173353,"toponymName":"City of Eden","countryId":"6252001","fcl":"A","population":2766,"countryCode":"US","name":"City of Eden","fclName":"country, state, region,...","adminCodes1":{"ISO3166_2":"TX"},"countryName":"United States","fcodeName":"third-order administrative division","adminName1":"Texas","lat":"31.21625","fcode":"ADM3"},{"adminCode1":"VT","lng":"-72.53971","geonameId":5235834,"toponymName":"Town of Eden","countryId":"6252001","fcl":"A","population":1353,"countryCode":"US","name":"Town of Eden","fclName":"country, state, region,...","adminCodes1":{"ISO3166_2":"VT"},"countryName":"United States","fcodeName":"third-order administrative division","adminName1":"Vermont","lat":"44.71455","fcode":"ADM3"},{"adminCode1":"OR","lng":"-123.90314","geonameId":5725112,"toponymName":"Eden Valley","countryId":"6252001","fcl":"T","population":0,"countryCode":"US","name":"Eden Valley","fclName":"mountain,hill,rock,... ","adminCodes1":{"ISO3166_2":"OR"},"countryName":"United States","fcodeName":"valley","adminName1":"Oregon","lat":"42.80511","fcode":"VAL"},{"adminCode1":"NV","lng":"-116.40922","geonameId":5503548,"toponymName":"Eden Mining District","countryId":"6252001","fcl":"A","population":0,"countryCode":"US","name":"Eden Mining District","fclName":"country, state, region,...","adminCodes1":{"ISO3166_2":"NV"},"countryName":"United States","fcodeName":"administrative division","adminName1":"Nevada","lat":"37.9466","fcode":"ADMD"},{"adminCode1":"WI","lng":"-90.34536","geonameId":5251518,"toponymName":"Town of Eden","countryId":"6252001","fcl":"A","population":360,"countryCode":"US","name":"Town of Eden","fclName":"country, state, region,...","adminCodes1":{"ISO3166_2":"WI"},"countryName":"United States","fcodeName":"third-order administrative division","adminName1":"Wisconsin","lat":"42.98523","fcode":"ADM3"},{"adminCode1":"MN","lng":"-93.45806","geonameId":5025222,"toponymName":"City of Eden Prairie","countryId":"6252001","fcl":"A","population":0,"countryCode":"US","name":"City of Eden Prairie","fclName":"country, state, region,...","adminCodes1":{"ISO3166_2":"MN"},"countryName":"United States","fcodeName":"third-order administrative division","adminName1":"Minnesota","lat":"44.84917","fcode":"ADM3"},{"adminCode1":"MN","lng":"-94.54556","geonameId":5025244,"toponymName":"City of Eden Valley","countryId":"6252001","fcl":"A","population":0,"countryCode":"US","name":"City of Eden Valley","fclName":"country, state, region,...","adminCodes1":{"ISO3166_2":"MN"},"countryName":"United States","fcodeName":"third-order administrative division","adminName1":"Minnesota","lat":"45.32222","fcode":"ADM3"},{"adminCode1":"FL","lng":"-80.24613","geonameId":4154195,"toponymName":"Lake Eden","countryId":"6252001","fcl":"H","population":0,"countryCode":"US","name":"Lake Eden","fclName":"stream, lake, ...","adminCodes1":{"ISO3166_2":"FL"},"countryName":"United States","fcodeName":"lake","adminName1":"Florida","lat":"27.27247","fcode":"LK"},{"adminCode1":"IA","lng":"-90.44167","geonameId":4865959,"toponymName":"Malone","countryId":"6252001","fcl":"P","population":0,"countryCode":"US","name":"Malone","fclName":"city, village,...","adminCodes1":{"ISO3166_2":"IA"},"countryName":"United States","fcodeName":"populated place","adminName1":"Iowa","lat":"41.81361","fcode":"PPL"},{"adminCode1":"IA","lng":"-92.04767","geonameId":4846720,"toponymName":"Alpha","countryId":"6252001","fcl":"P","population":0,"countryCode":"US","name":"Alpha","fclName":"city, village,...","adminCodes1":{"ISO3166_2":"IA"},"countryName":"United States","fcodeName":"populated place","adminName1":"Iowa","lat":"42.99664","fcode":"PPL"},{"adminCode1":"IA","lng":"-93.79328","geonameId":4846877,"toponymName":"Amund","countryId":"6252001","fcl":"P","population":0,"countryCode":"US","name":"Amund","fclName":"city, village,...","adminCodes1":{"ISO3166_2":"IA"},"countryName":"United States","fcodeName":"populated place","adminName1":"Iowa","lat":"43.47329","fcode":"PPL"},{"adminCode1":"OH","lng":"-83.15047","geonameId":5171547,"toponymName":"Seal","countryId":"6252001","fcl":"P","population":0,"countryCode":"US","name":"Seal","fclName":"city, village,...","adminCodes1":{"ISO3166_2":"OH"},"countryName":"United States","fcodeName":"populated place","adminName1":"Ohio","lat":"40.877","fcode":"PPL"},{"adminCode1":"OH","lng":"-82.28959","geonameId":5167664,"toponymName":"Rain Rock","countryId":"6252001","fcl":"P","population":0,"countryCode":"US","name":"Rain Rock","fclName":"city, village,...","adminCodes1":{"ISO3166_2":"OH"},"countryName":"United States","fcodeName":"populated place","adminName1":"Ohio","lat":"40.19285","fcode":"PPL"},{"adminCode1":"WA","lng":"-123.65236","geonameId":5793380,"toponymName":"Eden","countryId":"6252001","fcl":"P","population":0,"countryCode":"US","name":"Eden","fclName":"city, village,...","adminCodes1":{"ISO3166_2":"WA"},"countryName":"United States","fcodeName":"populated place","adminName1":"Washington","lat":"46.29844","fcode":"PPL"},{"adminCode1":"HI","lng":"-155.10278","geonameId":5855006,"toponymName":"Eden Roc","countryId":"6252001","fcl":"P","population":942,"countryCode":"US","name":"Eden Roc","fclName":"city, village,...","adminCodes1":{"ISO3166_2":"HI"},"countryName":"United States","fcodeName":"populated place","adminName1":"Hawaii","lat":"19.49028","fcode":"PPL"},{"adminCode1":"PA","lng":"-76.13477","geonameId":4557738,"toponymName":"Township of Eden","countryId":"6252001","fcl":"A","population":0,"countryCode":"US","name":"Eden Township","fclName":"country, state, region,...","adminCodes1":{"ISO3166_2":"PA"},"countryName":"United States","fcodeName":"third-order administrative division","adminName1":"Pennsylvania","lat":"39.91571","fcode":"ADM3"},{"adminCode1":"IL","lng":"-89.10576","geonameId":4890671,"toponymName":"Township of Eden","countryId":"6252001","fcl":"A","population":0,"countryCode":"US","name":"Eden Township","fclName":"country, state, region,...","adminCodes1":{"ISO3166_2":"IL"},"countryName":"United States","fcodeName":"third-order administrative division","adminName1":"Illinois","lat":"41.23639","fcode":"ADM3"},{"adminCode1":"NY","lng":"-78.82753","geonameId":5115831,"toponymName":"East Eden","countryId":"6252001","fcl":"P","population":0,"countryCode":"US","name":"East Eden","fclName":"city, village,...","adminCodes1":{"ISO3166_2":"NY"},"countryName":"United States","fcodeName":"populated place","adminName1":"New York","lat":"42.66673","fcode":"PPL"},{"adminCode1":"NY","lng":"-78.87198","geonameId":5116219,"toponymName":"Eden Valley","countryId":"6252001","fcl":"P","population":0,"countryCode":"US","name":"Eden Valley","fclName":"city, village,...","adminCodes1":{"ISO3166_2":"NY"},"countryName":"United States","fcodeName":"populated place","adminName1":"New York","lat":"42.67895","fcode":"PPL"},{"adminCode1":"TN","lng":"-86.3786","geonameId":4620386,"toponymName":"Eden Hollow","countryId":"6252001","fcl":"T","population":0,"countryCode":"US","name":"Eden Hollow","fclName":"mountain,hill,rock,... ","adminCodes1":{"ISO3166_2":"TN"},"countryName":"United States","fcodeName":"valley","adminName1":"Tennessee","lat":"35.32119","fcode":"VAL"},{"adminCode1":"OK","lng":"-97.09198","geonameId":4535724,"toponymName":"Township of Eden","countryId":"6252001","fcl":"A","population":0,"countryCode":"US","name":"Eden Township","fclName":"country, state, region,...","adminCodes1":{"ISO3166_2":"OK"},"countryName":"United States","fcodeName":"administrative division","adminName1":"Oklahoma","lat":"36.20283","fcode":"ADMD"},{"adminCode1":"AR","lng":"-94.06965","geonameId":4109700,"toponymName":"Eden Bluff","countryId":"6252001","fcl":"T","population":0,"countryCode":"US","name":"Eden Bluff","fclName":"mountain,hill,rock,... ","adminCodes1":{"ISO3166_2":"AR"},"countryName":"United States","fcodeName":"cliff(s)","adminName1":"Arkansas","lat":"36.2723","fcode":"CLF"},{"adminCode1":"AR","lng":"-92.10348","geonameId":4109705,"toponymName":"Eden Isle","countryId":"6252001","fcl":"T","population":0,"countryCode":"US","name":"Eden Isle","fclName":"mountain,hill,rock,... ","adminCodes1":{"ISO3166_2":"AR"},"countryName":"United States","fcodeName":"island","adminName1":"Arkansas","lat":"35.50591","fcode":"ISL"},{"adminCode1":"ND","lng":"-103.39491","geonameId":5688127,"toponymName":"Bowman","countryId":"6252001","fcl":"P","population":1744,"countryCode":"US","name":"Bowman","fclName":"city, village,...","adminCodes1":{"ISO3166_2":"ND"},"countryName":"United States","fcodeName":"seat of a second-order administrative division","adminName1":"North Dakota","lat":"46.18306","fcode":"PPLA2"},{"adminCode1":"NE","lng":"-101.2679","geonameId":5695106,"toponymName":"Eden Election Precinct","countryId":"6252001","fcl":"A","population":0,"countryCode":"US","name":"Eden Election Precinct","fclName":"country, state, region,...","adminCodes1":{"ISO3166_2":"NE"},"countryName":"United States","fcodeName":"administrative division","adminName1":"Nebraska","lat":"40.30709","fcode":"ADMD"},{"adminCode1":"AK","lng":"-151.69814","geonameId":5861377,"toponymName":"Eden Lake","countryId":"6252001","fcl":"H","population":0,"countryCode":"US","name":"Eden Lake","fclName":"stream, lake, ...","adminCodes1":{"ISO3166_2":"AK"},"countryName":"United States","fcodeName":"lake","adminName1":"Alaska","lat":"64.6797","fcode":"LK"},{"adminCode1":"MS","lng":"-90.32396","geonameId":7172652,"toponymName":"Village of Eden","countryId":"6252001","fcl":"A","population":103,"countryCode":"US","name":"Village of Eden","fclName":"country, state, region,...","adminCodes1":{"ISO3166_2":"MS"},"countryName":"United States","fcodeName":"administrative division","adminName1":"Mississippi","lat":"32.98371","fcode":"ADMD"},{"adminCode1":"ID","lng":"-114.20905","geonameId":7173352,"toponymName":"City of Eden","countryId":"6252001","fcl":"A","population":405,"countryCode":"US","name":"City of Eden","fclName":"country, state, region,...","adminCodes1":{"ISO3166_2":"ID"},"countryName":"United States","fcodeName":"administrative division","adminName1":"Idaho","lat":"42.60531","fcode":"ADMD"},{"adminCode1":"MN","lng":"-93.42556","geonameId":7119012,"toponymName":"Eden Lake School Park","countryId":"6252001","fcl":"L","population":0,"countryCode":"US","name":"Eden Lake School Park","fclName":"parks,area, ...","adminCodes1":{"ISO3166_2":"MN"},"countryName":"United States","fcodeName":"park","adminName1":"Minnesota","lat":"44.84389","fcode":"PRK"},{"adminCode1":"OH","lng":"-84.493","geonameId":4510789,"toponymName":"Eden Park","countryId":"6252001","fcl":"L","population":0,"countryCode":"US","name":"Eden Park","fclName":"parks,area, ...","adminCodes1":{"ISO3166_2":"OH"},"countryName":"United States","fcodeName":"park","adminName1":"Ohio","lat":"39.11673","fcode":"PRK"}]}
