{"totalResultsCount":20,"geonames":[{"adminCode1":"IL","lng":"-90.30512","geonameId":4890970,"toponymName":"Ellisville","countryId":"6252001","fcl":"P","population":92,"countryCode":"US","name":"Ellisville","fclName":"city, village,...","adminCodes1":{"ISO3166_2":"IL"},"countryName":"United States","fcodeName":"populated place","adminName1":"Illinois","lat":"40.62671","fcode":"PPL"},{"adminCode1":"MO","lng":"-90.58707","geonameId":4385494,"toponymName":"Ellisville","countryId":"6252001","fcl":"P","population":9284,"countryCode":"US","name":"Ellisville","fclName":"city, village,...","adminCodes1":{"ISO3166_2":"MO"},"countryName":"United States","fcodeName":"populated place","adminName1":"Missouri","lat":"38.59255","fcode":"PPL"},{"adminCode1":"IL","lng":"-90.30975","geonameId":4890973,"toponymName":"Township of Ellisville","countryId":"6252001","fcl":"A","population":0,"countryCode":"US","name":"Ellisville Township","fclName":"country, state, region,...","adminCodes1":{"ISO3166_2":"IL"},"countryName":"United States","fcodeName":"third-order administrative division","adminName1":"Illinois","lat":"40.66294","fcode":"ADM3"},{"adminCode1":"ND","lng":"-103.47204","geonameId":5688979,"toponymName":"Township of Ellisville","countryId":"6252001","fcl":"A","population":0,"countryCode":"US","name":"Ellisville Township","fclName":"country, state, region,...","adminCodes1":{"ISO3166_2":"ND"},"countryName":"United States","fcodeName":"third-order administrative division","adminName1":"North Dakota","lat":"48.50313","fcode":"ADM3"},{"adminCode1":"SD","lng":"-99.51175","geonameId":5227584,"toponymName":"Township of Ellisville","countryId":"6252001","fcl":"A","population":0,"countryCode":"US","name":"Ellisville Township","fclName":"country, state, region,...","adminCodes1":{"ISO3166_2":"SD"},"countryName":"United States","fcodeName":"third-order administrative division","adminName1":"South Dakota","lat":"44.9408","fcode":"ADM3"},{"adminCode1":"IN","lng":"-85.28414","geonameId":4920012,"toponymName":"Ellisville","countryId":"6252001","fcl":"P","population":0,"countryCode":"US","name":"Ellisville","fclName":"city, village,...","adminCodes1":{"ISO3166_2":"IN"},"countryName":"United States","fcodeName":"populated place","adminName1":"Indiana","lat":"41.0181","fcode":"PPL"},{"adminCode1":"IL","lng":"-90.32513","geonameId":4895465,"toponymName":"Heartley Cemetery","countryId":"6252001","fcl":"S","population":0,"countryCode":"US","name":"Heartley Cemetery","fclName":"spot, building, farm","adminCodes1":{"ISO3166_2":"IL"},"countryName":"United States","fcodeName":"cemetery","adminName1":"Illinois","lat":"40.68559","fcode":"CMTY"},{"adminCode1":"IL","lng":"-90.30985","geonameId":4906219,"toponymName":"Pleasant Hill Cemetery","countryId":"6252001","fcl":"S","population":0,"countryCode":"US","name":"Pleasant Hill Cemetery","fclName":"spot, building, farm","adminCodes1":{"ISO3166_2":"IL"},"countryName":"United States","fcodeName":"cemetery","adminName1":"Illinois","lat":"40.69115","fcode":"CMTY"},{"adminCode1":"MI","lng":"-84.49667","geonameId":7155603,"toponymName":"Afton Post Office (historical)","countryId":"6252001","fcl":"S","population":0,"countryCode":"US","name":"Afton Post Office (historical)","fclName":"spot, building, farm","adminCodes1":{"ISO3166_2":"MI"},"countryName":"United States","fcodeName":"post office","adminName1":"Michigan","lat":"45.37389","fcode":"PO"},{"adminCode1":"MO","lng":"-90.64373","geonameId":7205402,"toponymName":"Metro West Fire Protection District Station 3 Headquarters","countryId":"6252001","fcl":"S","population":0,"countryCode":"US","name":"Metro West Fire Protection District Station 3 Headquarters","fclName":"spot, building, farm","adminCodes1":{"ISO3166_2":"MO"},"countryName":"United States","fcodeName":"building(s)","adminName1":"Missouri","lat":"38.57758","fcode":"BLDG"},{"adminCode1":"IL","lng":"-90.30512","geonameId":4890971,"toponymName":"Ellisville Cemetery","countryId":"6252001","fcl":"S","population":0,"countryCode":"US","name":"Ellisville Cemetery","fclName":"spot, building, farm","adminCodes1":{"ISO3166_2":"IL"},"countryName":"United States","fcodeName":"cemetery","adminName1":"Illinois","lat":"40.63143","fcode":"CMTY"},{"adminCode1":"IL","lng":"-90.28096","geonameId":4890972,"toponymName":"Ellisville Station","countryId":"6252001","fcl":"S","population":0,"countryCode":"US","name":"Ellisville Station","fclName":"spot, building, farm","adminCodes1":{"ISO3166_2":"IL"},"countryName":"United States","fcodeName":"","adminName1":"Illinois","lat":"40.64865"},{"adminCode1":"MO","lng":"-90.59193","geonameId":9685489,"toponymName":"Ellisville Police Department","countryId":"6252001","fcl":"S","population":0,"countryCode":"US","name":"Ellisville Police Department","fclName":"spot, building, farm","adminCodes1":{"ISO3166_2":"MO"},"countryName":"United States","fcodeName":"building(s)","adminName1":"Missouri","lat":"38.59272","fcode":"BLDG"},{"adminCode1":"IL","lng":"-90.31457","geonameId":4899105,"toponymName":"Lake Roberts Dam","countryId":"6252001","fcl":"S","population":0,"countryCode":"US","name":"Lake Roberts Dam","fclName":"spot, building, farm","adminCodes1":{"ISO3166_2":"IL"},"countryName":"United States","fcodeName":"dam","adminName1":"Illinois","lat":"40.71032","fcode":"DAM"},{"adminCode1":"IL","lng":"-90.30679","geonameId":4899311,"toponymName":"Landon Cemetery","countryId":"6252001","fcl":"S","population":0,"countryCode":"US","name":"Landon Cemetery","fclName":"spot, building, farm","adminCodes1":{"ISO3166_2":"IL"},"countryName":"United States","fcodeName":"cemetery","adminName1":"Illinois","lat":"40.6631","fcode":"CMTY"},{"adminCode1":"IL","lng":"-90.30929","geonameId":4906239,"toponymName":"Pleasant Hill School (historical)","countryId":"6252001","fcl":"S","population":0,"countryCode":"US","name":"Pleasant Hill School (historical)","fclName":"spot, building, farm","adminCodes1":{"ISO3166_2":"IL"},"countryName":"United States","fcodeName":"school","adminName1":"Illinois","lat":"40.68476","fcode":"SCH"},{"adminCode1":"IL","lng":"-90.31957","geonameId":4886487,"toponymName":"Camp Wilderness","countryId":"6252001","fcl":"S","population":0,"countryCode":"US","name":"Camp Wilderness","fclName":"spot, building, farm","adminCodes1":{"ISO3166_2":"IL"},"countryName":"United States","fcodeName":"camp(s)","adminName1":"Illinois","lat":"40.71226","fcode":"CMP"},{"adminCode1":"IL","lng":"-90.31374","geonameId":4902944,"toponymName":"Mount Joy School (historical)","countryId":"6252001","fcl":"S","population":0,"countryCode":"US","name":"Mount Joy School (historical)","fclName":"spot, building, farm","adminCodes1":{"ISO3166_2":"IL"},"countryName":"United States","fcodeName":"school","adminName1":"Illinois","lat":"40.65587","fcode":"SCH"},{"adminCode1":"ND","lng":"-103.47297","geonameId":5688982,"toponymName":"Ellisville Community Building","countryId":"6252001","fcl":"S","population":0,"countryCode":"US","name":"Ellisville Community Building","fclName":"spot, building, farm","adminCodes1":{"ISO3166_2":"ND"},"countryName":"United States","fcodeName":"building(s)","adminName1":"North Dakota","lat":"48.50392","fcode":"BLDG"},{"adminCode1":"SD","lng":"-99.50178","geonameId":5227430,"toponymName":"Dunsmore Post Office (historical)","countryId":"6252001","fcl":"S","population":0,"countryCode":"US","name":"Dunsmore Post Office (historical)","fclName":"spot, building, farm","adminCodes1":{"ISO3166_2":"SD"},"countryName":"United States","fcodeName":"post office","adminName1":"South Dakota","lat":"44.89831","fcode":"PO"}]}
