{"totalResultsCount":31,"geonames":[{"adminCode1":"MO","lng":"-92.31657","geonameId":4386483,"toponymName":"Finger Lakes State Park","countryId":"6252001","fcl":"L","population":0,"countryCode":"US","name":"Finger Lakes State Park","fclName":"parks,area, ...","adminCodes1":{"ISO3166_2":"MO"},"countryName":"United States","fcodeName":"park","adminName1":"Missouri","lat":"39.0906","fcode":"PRK"},{"adminCode1":"NY","lng":"-76.99997","geonameId":5117118,"toponymName":"Finger Lakes","countryId":"6252001","fcl":"H","population":0,"countryCode":"US","name":"Finger Lakes","fclName":"stream, lake, ...","adminCodes1":{"ISO3166_2":"NY"},"countryName":"United States","fcodeName":"lake","adminName1":"New York","lat":"42.8334","fcode":"LK"},{"adminCode1":"AK","lng":"-150.9","geonameId":5862054,"toponymName":"Finger Lakes","countryId":"6252001","fcl":"H","population":0,"countryCode":"US","name":"Finger Lakes","fclName":"stream, lake, ...","adminCodes1":{"ISO3166_2":"AK"},"countryName":"United States","fcodeName":"lake","adminName1":"Alaska","lat":"60.65","fcode":"LK"},{"adminCode1":"AK","lng":"-148.825","geonameId":5862055,"toponymName":"Finger Lakes","countryId":"6252001","fcl":"H","population":0,"countryCode":"US","name":"Finger Lakes","fclName":"stream, lake, ...","adminCodes1":{"ISO3166_2":"AK"},"countryName":"United States","fcodeName":"lake","adminName1":"Alaska","lat":"61.50417","fcode":"LK"},{"adminCode1":"ID","lng":"-115.15948","geonameId":5592987,"toponymName":"Finger Lakes","countryId":"6252001","fcl":"H","population":0,"countryCode":"US","name":"Finger Lakes","fclName":"stream, lake, ...","adminCodes1":{"ISO3166_2":"ID"},"countryName":"United States","fcodeName":"lake","adminName1":"Idaho","lat":"44.49486","fcode":"LK"},{"adminCode1":"MN","lng":"-91.93339","geonameId":8501974,"toponymName":"Finger Lakes","countryId":"6252001","fcl":"H","population":0,"countryCode":"US","name":"Finger Lakes","fclName":"stream, lake, ...","adminCodes1":{"ISO3166_2":"MN"},"countryName":"United States","fcodeName":"lake","adminName1":"Minnesota","lat":"44.32051","fcode":"LK"},{"adminCode1":"NY","lng":"-76.78319","geonameId":5117123,"toponymName":"Finger Lakes Regional Airport","countryId":"6252001","fcl":"S","population":0,"countryCode":"US","name":"Finger Lakes Regional Airport","fclName":"spot, building, farm","adminCodes1":{"ISO3166_2":"NY"},"countryName":"United States","fcodeName":"airport","adminName1":"New York","lat":"42.88038","fcode":"AIRP"},{"adminCode1":"NY","lng":"-76.80412","geonameId":5117121,"toponymName":"Finger Lakes Trail","countryId":"6252001","fcl":"R","population":0,"countryCode":"US","name":"Finger Lakes Trail","fclName":"road, railroad ","adminCodes1":{"ISO3166_2":"NY"},"countryName":"United States","fcodeName":"trail","adminName1":"New York","lat":"42.44757","fcode":"TRL"},{"adminCode1":"NY","lng":"-76.79624","geonameId":5117120,"toponymName":"Finger Lakes National Forest","countryId":"6252001","fcl":"V","population":0,"countryCode":"US","name":"Finger Lakes National Forest","fclName":"forest,heath,...","adminCodes1":{"ISO3166_2":"NY"},"countryName":"United States","fcodeName":"forest(s)","adminName1":"New York","lat":"42.51896","fcode":"FRST"},{"adminCode1":"NY","lng":"-76.5734","geonameId":6505944,"toponymName":"Super 8 Motel - Auburn/Finger Lakes Area","countryId":"6252001","fcl":"S","population":0,"countryCode":"US","name":"Super 8 Motel - Auburn/Finger Lakes Area","fclName":"spot, building, farm","adminCodes1":{"ISO3166_2":"NY"},"countryName":"United States","fcodeName":"hotel","adminName1":"New York","lat":"42.9335","fcode":"HTL"},{"adminCode1":"NY","lng":"-76.98056","geonameId":7159497,"toponymName":"Finger Lakes Occupational Center","countryId":"6252001","fcl":"S","population":0,"countryCode":"US","name":"Finger Lakes Occupational Center","fclName":"spot, building, farm","adminCodes1":{"ISO3166_2":"NY"},"countryName":"United States","fcodeName":"school","adminName1":"New York","lat":"42.87139","fcode":"SCH"},{"adminCode1":"NY","lng":"-76.42639","geonameId":7252695,"toponymName":"Finger Lakes Quarry","countryId":"6252001","fcl":"S","population":0,"countryCode":"US","name":"Finger Lakes Quarry","fclName":"spot, building, farm","adminCodes1":{"ISO3166_2":"NY"},"countryName":"United States","fcodeName":"mine(s)","adminName1":"New York","lat":"42.42778","fcode":"MN"},{"adminCode1":"NY","lng":"-76.65583","geonameId":7278766,"toponymName":"Finger Lakes Drive-In","countryId":"6252001","fcl":"S","population":0,"countryCode":"US","name":"Finger Lakes Drive-In","fclName":"spot, building, farm","adminCodes1":{"ISO3166_2":"NY"},"countryName":"United States","fcodeName":"","adminName1":"New York","lat":"42.93306"},{"adminCode1":"NY","lng":"-77.0953","geonameId":6515098,"toponymName":"Quality Inn Finger Lakes Region","countryId":"6252001","fcl":"S","population":0,"countryCode":"US","name":"Quality Inn Finger Lakes Region","fclName":"spot, building, farm","adminCodes1":{"ISO3166_2":"NY"},"countryName":"United States","fcodeName":"hotel","adminName1":"New York","lat":"43.047","fcode":"HTL"},{"adminCode1":"NY","lng":"-76.92163","geonameId":5117119,"toponymName":"Finger Lakes Marina","countryId":"6252001","fcl":"S","population":0,"countryCode":"US","name":"Finger Lakes Marina","fclName":"spot, building, farm","adminCodes1":{"ISO3166_2":"NY"},"countryName":"United States","fcodeName":"marina","adminName1":"New York","lat":"42.89034","fcode":"MAR"},{"adminCode1":"NY","lng":"-76.75248","geonameId":8108593,"toponymName":"Finger Lakes Christian School","countryId":"6252001","fcl":"S","population":0,"countryCode":"US","name":"Finger Lakes Christian School","fclName":"spot, building, farm","adminCodes1":{"ISO3166_2":"NY"},"countryName":"United States","fcodeName":"school","adminName1":"New York","lat":"42.91438","fcode":"SCH"},{"adminCode1":"NY","lng":"-76.54229","geonameId":7704945,"toponymName":"Hillside Childrens Center Finger Lakes","countryId":"6252001","fcl":"S","population":0,"countryCode":"US","name":"Hillside Childrens Center Finger Lakes","fclName":"spot, building, farm","adminCodes1":{"ISO3166_2":"NY"},"countryName":"United States","fcodeName":"school","adminName1":"New York","lat":"42.9789","fcode":"SCH"},{"adminCode1":"NY","lng":"-76.56618","geonameId":7705171,"toponymName":"Montessori School Finger Lakes","countryId":"6252001","fcl":"S","population":0,"countryCode":"US","name":"Montessori School Finger Lakes","fclName":"spot, building, farm","adminCodes1":{"ISO3166_2":"NY"},"countryName":"United States","fcodeName":"school","adminName1":"New York","lat":"42.9232","fcode":"SCH"},{"adminCode1":"NY","lng":"-76.56448","geonameId":7707225,"toponymName":"Finger Lakes Center for Living","countryId":"6252001","fcl":"S","population":0,"countryCode":"US","name":"Finger Lakes Center for Living","fclName":"spot, building, farm","adminCodes1":{"ISO3166_2":"NY"},"countryName":"United States","fcodeName":"building(s)","adminName1":"New York","lat":"42.94208","fcode":"BLDG"},{"adminCode1":"NY","lng":"-77.13836","geonameId":8494538,"toponymName":"Finger Lakes Ambulance","countryId":"6252001","fcl":"S","population":0,"countryCode":"US","name":"Finger Lakes Ambulance","fclName":"spot, building, farm","adminCodes1":{"ISO3166_2":"NY"},"countryName":"United States","fcodeName":"building(s)","adminName1":"New York","lat":"42.96294","fcode":"BLDG"},{"adminCode1":"NY","lng":"-77.34045","geonameId":8379082,"toponymName":"Finger Lakes Racecourse","countryId":"6252001","fcl":"S","population":0,"countryCode":"US","name":"Finger Lakes Racecourse","fclName":"spot, building, farm","adminCodes1":{"ISO3166_2":"NY"},"countryName":"United States","fcodeName":"racetrack","adminName1":"New York","lat":"42.96898","fcode":"RECR"},{"adminCode1":"NY","lng":"-77.00771","geonameId":10344357,"toponymName":"Holiday Inn Express and Suites Geneva Finger Lakes","countryId":"6252001","fcl":"S","population":0,"countryCode":"US","name":"Holiday Inn Express and Suites Geneva Finger Lakes","fclName":"spot, building, farm","adminCodes1":{"ISO3166_2":"NY"},"countryName":"United States","fcodeName":"hotel","adminName1":"New York","lat":"42.85648","fcode":"HTL"},{"adminCode1":"NY","lng":"-76.5668","geonameId":9857860,"toponymName":"Days Inn Auburn Finger Lakes Region","countryId":"6252001","fcl":"S","population":0,"countryCode":"US","name":"Days Inn Auburn Finger Lakes Region","fclName":"spot, building, farm","adminCodes1":{"ISO3166_2":"NY"},"countryName":"United States","fcodeName":"hotel","adminName1":"New York","lat":"42.9289","fcode":"HTL"},{"adminCode1":"NY","lng":"-77.24288","geonameId":9859473,"toponymName":"Holiday Inn Express Canandaigua - Finger Lakes","countryId":"6252001","fcl":"S","population":0,"countryCode":"US","name":"Holiday Inn Express Canandaigua - Finger Lakes","fclName":"spot, building, farm","adminCodes1":{"ISO3166_2":"NY"},"countryName":"United States","fcodeName":"hotel","adminName1":"New York","lat":"42.87362","fcode":"HTL"},{"adminCode1":"NY","lng":"-76.56958","geonameId":9860427,"toponymName":"Hilton Garden Inn Auburn Finger Lakes","countryId":"6252001","fcl":"S","population":0,"countryCode":"US","name":"Hilton Garden Inn Auburn Finger Lakes","fclName":"spot, building, farm","adminCodes1":{"ISO3166_2":"NY"},"countryName":"United States","fcodeName":"hotel","adminName1":"New York","lat":"42.93336","fcode":"HTL"},{"adminCode1":"NY","lng":"-76.83768","geonameId":9968432,"toponymName":"Holiday Inn Finger Lakes Seneca Falls","countryId":"6252001","fcl":"S","population":0,"countryCode":"US","name":"Holiday Inn Finger Lakes Seneca Falls","fclName":"spot, building, farm","adminCodes1":{"ISO3166_2":"NY"},"countryName":"United States","fcodeName":"hotel","adminName1":"New York","lat":"42.90534","fcode":"HTL"},{"adminCode1":"NY","lng":"-76.4453","geonameId":9947698,"toponymName":"Finger Lakes Lodging By Mirbea","countryId":"6252001","fcl":"S","population":0,"countryCode":"US","name":"Finger Lakes Lodging By Mirbea","fclName":"spot, building, farm","adminCodes1":{"ISO3166_2":"NY"},"countryName":"United States","fcodeName":"hotel","adminName1":"New York","lat":"42.9442","fcode":"HTL"},{"adminCode1":"NY","lng":"-76.56782","geonameId":10173490,"toponymName":"Holiday Inn Finger Lakes","countryId":"6252001","fcl":"S","population":0,"countryCode":"US","name":"Holiday Inn Finger Lakes","fclName":"spot, building, farm","adminCodes1":{"ISO3166_2":"NY"},"countryName":"United States","fcodeName":"hotel","adminName1":"New York","lat":"42.93473","fcode":"HTL"},{"adminCode1":"NY","lng":"-76.5664","geonameId":10176536,"toponymName":"Holiday Inn Auburn Finger Lakes Region","countryId":"6252001","fcl":"S","population":0,"countryCode":"US","name":"Holiday Inn Auburn Finger Lakes Region","fclName":"spot, building, farm","adminCodes1":{"ISO3166_2":"NY"},"countryName":"United States","fcodeName":"hotel","adminName1":"New York","lat":"42.9358","fcode":"HTL"},{"adminCode1":"NY","lng":"-76.83649","geonameId":9964121,"toponymName":"Holiday Inn Waterloo Finger Lakes Hotel","countryId":"6252001","fcl":"S","population":0,"countryCode":"US","name":"Holiday Inn Waterloo Finger Lakes Hotel","fclName":"spot, building, farm","adminCodes1":{"ISO3166_2":"NY"},"countryName":"United States","fcodeName":"hotel","adminName1":"New York","lat":"42.90515","fcode":"HTL"},{"adminCode1":"NY","lng":"-76.22577","geonameId":10100580,"toponymName":"Best Western Plus Finger Lakes Inn & Suites","countryId":"6252001","fcl":"S","population":0,"countryCode":"US","name":"Best Western Plus Finger Lakes Inn & Suites","fclName":"spot, building, farm","adminCodes1":{"ISO3166_2":"NY"},"countryName":"United States","fcodeName":"hotel","adminName1":"New York","lat":"42.56184","fcode":"HTL"}]}
