{"totalResultsCount":15,"geonames":[{"adminCode1":"TX","lng":"-105.62996","geonameId":5521415,"toponymName":"Finlay","countryId":"6252001","fcl":"P","population":0,"countryCode":"US","name":"Finlay","fclName":"city, village,...","adminCodes1":{"ISO3166_2":"TX"},"countryName":"United States","fcodeName":"populated place","adminName1":"Texas","lat":"31.25874","fcode":"PPL"},{"adminCode1":"SD","lng":"-97.03394","geonameId":5227776,"toponymName":"Township of Finlay","countryId":"6252001","fcl":"A","population":0,"countryCode":"US","name":"Finlay (historical) Township","fclName":"country, state, region,...","adminCodes1":{"ISO3166_2":"SD"},"countryName":"United States","fcodeName":"administrative division","adminName1":"South Dakota","lat":"43.38054","fcode":"ADMD"},{"adminCode1":"FL","lng":"-81.58428","geonameId":4160244,"toponymName":"Jim Finlay Farm Airport","countryId":"6252001","fcl":"S","population":0,"countryCode":"US","name":"Jim Finlay Farm Airport","fclName":"spot, building, farm","adminCodes1":{"ISO3166_2":"FL"},"countryName":"United States","fcodeName":"airport","adminName1":"Florida","lat":"29.43953","fcode":"AIRP"},{"adminCode1":"AL","lng":"-87.69127","geonameId":11496062,"toponymName":"Wilson-Finlay House (historical)","countryId":"6252001","fcl":"S","population":0,"countryCode":"US","name":"Wilson-Finlay House (historical)","fclName":"spot, building, farm","adminCodes1":{"ISO3166_2":"AL"},"countryName":"United States","fcodeName":"house(s)","adminName1":"Alabama","lat":"31.45375","fcode":"HSE"},{"adminCode1":"NV","lng":"-114.67111","geonameId":5504047,"toponymName":"Finlay (historical)","countryId":"6252001","fcl":"S","population":0,"countryCode":"US","name":"Finlay (historical)","fclName":"spot, building, farm","adminCodes1":{"ISO3166_2":"NV"},"countryName":"United States","fcodeName":"","adminName1":"Nevada","lat":"37.48163"},{"adminCode1":"TX","lng":"-105.58746","geonameId":5521417,"toponymName":"Finlay Mountains","countryId":"6252001","fcl":"T","population":0,"countryCode":"US","name":"Finlay Mountains","fclName":"mountain,hill,rock,... ","adminCodes1":{"ISO3166_2":"TX"},"countryName":"United States","fcodeName":"mountains","adminName1":"Texas","lat":"31.35568","fcode":"MTS"},{"adminCode1":"FL","lng":"-80.3825","geonameId":6330595,"toponymName":"Doctor Carlos J Finlay Elementary School","countryId":"6252001","fcl":"S","population":0,"countryCode":"US","name":"Doctor Carlos J Finlay Elementary School","fclName":"spot, building, farm","adminCodes1":{"ISO3166_2":"FL"},"countryName":"United States","fcodeName":"school","adminName1":"Florida","lat":"25.75861","fcode":"SCH"},{"adminCode1":"NC","lng":"-82.51012","geonameId":4466176,"toponymName":"Finlay Brook","countryId":"6252001","fcl":"P","population":0,"countryCode":"US","name":"Finlay Brook","fclName":"city, village,...","adminCodes1":{"ISO3166_2":"NC"},"countryName":"United States","fcodeName":"section of populated place","adminName1":"North Carolina","lat":"35.29567","fcode":"PPLX"},{"adminCode1":"MO","lng":"-94.58996","geonameId":4386487,"toponymName":"Finlay College","countryId":"6252001","fcl":"S","population":0,"countryCode":"US","name":"Finlay College","fclName":"spot, building, farm","adminCodes1":{"ISO3166_2":"MO"},"countryName":"United States","fcodeName":"school","adminName1":"Missouri","lat":"38.98362","fcode":"SCH"},{"adminCode1":"AL","lng":"-86.31693","geonameId":4061742,"toponymName":"Finlay Plaza Shopping Center","countryId":"6252001","fcl":"S","population":0,"countryCode":"US","name":"Finlay Plaza Shopping Center","fclName":"spot, building, farm","adminCodes1":{"ISO3166_2":"AL"},"countryName":"United States","fcodeName":"mall","adminName1":"Alabama","lat":"34.3537","fcode":"MALL"},{"adminCode1":"TX","lng":"-105.60578","geonameId":5521416,"toponymName":"Finlay Mountain Tank","countryId":"6252001","fcl":"H","population":0,"countryCode":"US","name":"Finlay Mountain Tank","fclName":"stream, lake, ...","adminCodes1":{"ISO3166_2":"TX"},"countryName":"United States","fcodeName":"water tank","adminName1":"Texas","lat":"31.28594","fcode":"RSVT"},{"adminCode1":"TX","lng":"-105.61503","geonameId":5521418,"toponymName":"Finlay Tank","countryId":"6252001","fcl":"H","population":0,"countryCode":"US","name":"Finlay Tank","fclName":"stream, lake, ...","adminCodes1":{"ISO3166_2":"TX"},"countryName":"United States","fcodeName":"water tank","adminName1":"Texas","lat":"31.41216","fcode":"RSVT"},{"adminCode1":"MI","lng":"-83.18354","geonameId":4992714,"toponymName":"Finlay School","countryId":"6252001","fcl":"S","population":0,"countryCode":"US","name":"Finlay School","fclName":"spot, building, farm","adminCodes1":{"ISO3166_2":"MI"},"countryName":"United States","fcodeName":"school","adminName1":"Michigan","lat":"42.26809","fcode":"SCH"},{"adminCode1":"NY","lng":"-73.88611","geonameId":6346044,"toponymName":"Finlay Hall","countryId":"6252001","fcl":"S","population":0,"countryCode":"US","name":"Finlay Hall","fclName":"spot, building, farm","adminCodes1":{"ISO3166_2":"NY"},"countryName":"United States","fcodeName":"building(s)","adminName1":"New York","lat":"40.86","fcode":"BLDG"},{"adminCode1":"SC","lng":"-81.1282","geonameId":7222351,"toponymName":"Voorhees College Guerry Finlay Hall","countryId":"6252001","fcl":"S","population":0,"countryCode":"US","name":"Voorhees College Guerry Finlay Hall","fclName":"spot, building, farm","adminCodes1":{"ISO3166_2":"SC"},"countryName":"United States","fcodeName":"school","adminName1":"South Carolina","lat":"33.3084","fcode":"SCH"}]}
