{"totalResultsCount":17,"geonames":[{"adminCode1":"OH","lng":"-82.4885","geonameId":5154611,"toponymName":"Fitchville","countryId":"6252001","fcl":"P","population":0,"countryCode":"US","name":"Fitchville","fclName":"city, village,...","adminCodes1":{"ISO3166_2":"OH"},"countryName":"United States","fcodeName":"populated place","adminName1":"Ohio","lat":"41.09478","fcode":"PPL"},{"adminCode1":"OH","lng":"-82.488","geonameId":5154615,"toponymName":"Township of Fitchville","countryId":"6252001","fcl":"A","population":0,"countryCode":"US","name":"Fitchville Township","fclName":"country, state, region,...","adminCodes1":{"ISO3166_2":"OH"},"countryName":"United States","fcodeName":"third-order administrative division","adminName1":"Ohio","lat":"41.10225","fcode":"ADM3"},{"adminCode1":"OH","lng":"-82.46069","geonameId":5151640,"toponymName":"D. A. Chandler Airport","countryId":"6252001","fcl":"S","population":0,"countryCode":"US","name":"D. A. Chandler Airport","fclName":"spot, building, farm","adminCodes1":{"ISO3166_2":"OH"},"countryName":"United States","fcodeName":"airport","adminName1":"Ohio","lat":"41.13247","fcode":"AIRP"},{"adminCode1":"UT","lng":"-112.08411","geonameId":5539205,"toponymName":"Fitchville Ridge","countryId":"6252001","fcl":"T","population":0,"countryCode":"US","name":"Fitchville Ridge","fclName":"mountain,hill,rock,... ","adminCodes1":{"ISO3166_2":"UT"},"countryName":"United States","fcodeName":"ridge(s)","adminName1":"Utah","lat":"39.91662","fcode":"RDGE"},{"adminCode1":"OH","lng":"-82.54101","geonameId":5165682,"toponymName":"Olena","countryId":"6252001","fcl":"P","population":0,"countryCode":"US","name":"Olena","fclName":"city, village,...","adminCodes1":{"ISO3166_2":"OH"},"countryName":"United States","fcodeName":"populated place","adminName1":"Ohio","lat":"41.1545","fcode":"PPL"},{"adminCode1":"CT","lng":"-72.15397","geonameId":4834535,"toponymName":"Fitchville","countryId":"6252001","fcl":"P","population":0,"countryCode":"US","name":"Fitchville","fclName":"city, village,...","adminCodes1":{"ISO3166_2":"CT"},"countryName":"United States","fcodeName":"populated place","adminName1":"Connecticut","lat":"41.56482","fcode":"PPL"},{"adminCode1":"OH","lng":"-82.46378","geonameId":5153841,"toponymName":"Fayette Cemetery","countryId":"6252001","fcl":"S","population":0,"countryCode":"US","name":"Fayette Cemetery","fclName":"spot, building, farm","adminCodes1":{"ISO3166_2":"OH"},"countryName":"United States","fcodeName":"cemetery","adminName1":"Ohio","lat":"41.11089","fcode":"CMTY"},{"adminCode1":"OH","lng":"-82.49017","geonameId":5154612,"toponymName":"Fitchville Cemetery","countryId":"6252001","fcl":"S","population":0,"countryCode":"US","name":"Fitchville Cemetery","fclName":"spot, building, farm","adminCodes1":{"ISO3166_2":"OH"},"countryName":"United States","fcodeName":"cemetery","adminName1":"Ohio","lat":"41.09839","fcode":"CMTY"},{"adminCode1":"OH","lng":"-82.49239","geonameId":5154613,"toponymName":"Fitchville Elementary School","countryId":"6252001","fcl":"S","population":0,"countryCode":"US","name":"Fitchville Elementary School","fclName":"spot, building, farm","adminCodes1":{"ISO3166_2":"OH"},"countryName":"United States","fcodeName":"school","adminName1":"Ohio","lat":"41.09505","fcode":"SCH"},{"adminCode1":"OH","lng":"-82.48878","geonameId":5154614,"toponymName":"Fitchville Post Office (historical)","countryId":"6252001","fcl":"S","population":0,"countryCode":"US","name":"Fitchville Post Office (historical)","fclName":"spot, building, farm","adminCodes1":{"ISO3166_2":"OH"},"countryName":"United States","fcodeName":"post office","adminName1":"Ohio","lat":"41.0945","fcode":"PO"},{"adminCode1":"OH","lng":"-82.54156","geonameId":5165587,"toponymName":"Olena Post Office (historical)","countryId":"6252001","fcl":"S","population":0,"countryCode":"US","name":"Olena Post Office (historical)","fclName":"spot, building, farm","adminCodes1":{"ISO3166_2":"OH"},"countryName":"United States","fcodeName":"post office","adminName1":"Ohio","lat":"41.15422","fcode":"PO"},{"adminCode1":"CT","lng":"-72.1548","geonameId":4834536,"toponymName":"Fitchville Baptist Church","countryId":"6252001","fcl":"S","population":0,"countryCode":"US","name":"Fitchville Baptist Church","fclName":"spot, building, farm","adminCodes1":{"ISO3166_2":"CT"},"countryName":"United States","fcodeName":"church","adminName1":"Connecticut","lat":"41.56399","fcode":"CH"},{"adminCode1":"CT","lng":"-72.16229","geonameId":4834537,"toponymName":"Fitchville Pond","countryId":"6252001","fcl":"H","population":0,"countryCode":"US","name":"Fitchville Pond","fclName":"stream, lake, ...","adminCodes1":{"ISO3166_2":"CT"},"countryName":"United States","fcodeName":"reservoir(s)","adminName1":"Connecticut","lat":"41.55692","fcode":"RSV"},{"adminCode1":"CT","lng":"-72.15508","geonameId":4834538,"toponymName":"Fitchville Pond Dam","countryId":"6252001","fcl":"S","population":0,"countryCode":"US","name":"Fitchville Pond Dam","fclName":"spot, building, farm","adminCodes1":{"ISO3166_2":"CT"},"countryName":"United States","fcodeName":"dam","adminName1":"Connecticut","lat":"41.56371","fcode":"DAM"},{"adminCode1":"OH","lng":"-82.52101","geonameId":5171125,"toponymName":"School Number 4 (historical)","countryId":"6252001","fcl":"S","population":0,"countryCode":"US","name":"School Number 4 (historical)","fclName":"spot, building, farm","adminCodes1":{"ISO3166_2":"OH"},"countryName":"United States","fcodeName":"school","adminName1":"Ohio","lat":"41.13116","fcode":"SCH"},{"adminCode1":"OH","lng":"-82.48823","geonameId":5172932,"toponymName":"Staples Pond Dam","countryId":"6252001","fcl":"S","population":0,"countryCode":"US","name":"Staples Pond Dam","fclName":"spot, building, farm","adminCodes1":{"ISO3166_2":"OH"},"countryName":"United States","fcodeName":"dam","adminName1":"Ohio","lat":"41.10005","fcode":"DAM"},{"adminCode1":"OH","lng":"-82.48823","geonameId":5154827,"toponymName":"Forks of Road Cemetery (historical)","countryId":"6252001","fcl":"S","population":0,"countryCode":"US","name":"Forks of Road Cemetery (historical)","fclName":"spot, building, farm","adminCodes1":{"ISO3166_2":"OH"},"countryName":"United States","fcodeName":"cemetery","adminName1":"Ohio","lat":"41.09478","fcode":"CMTY"}]}
