{"totalResultsCount":9,"geonames":[{"adminCode1":"PA","lng":"-75.63269","geonameId":5189900,"toponymName":"Fogelsville","countryId":"6252001","fcl":"P","population":0,"countryCode":"US","name":"Fogelsville","fclName":"city, village,...","adminCodes1":{"ISO3166_2":"PA"},"countryName":"United States","fcodeName":"populated place","adminName1":"Pennsylvania","lat":"40.58315","fcode":"PPL"},{"adminCode1":"PA","lng":"-75.62924","geonameId":5189902,"toponymName":"Fogelsville Pond","countryId":"6252001","fcl":"H","population":0,"countryCode":"US","name":"Fogelsville Pond","fclName":"stream, lake, ...","adminCodes1":{"ISO3166_2":"PA"},"countryName":"United States","fcodeName":"lake","adminName1":"Pennsylvania","lat":"40.60424","fcode":"LK"},{"adminCode1":"PA","lng":"-75.63047","geonameId":5203639,"toponymName":"North Fogelsville","countryId":"6252001","fcl":"P","population":0,"countryCode":"US","name":"North Fogelsville","fclName":"city, village,...","adminCodes1":{"ISO3166_2":"PA"},"countryName":"United States","fcodeName":"populated place","adminName1":"Pennsylvania","lat":"40.59482","fcode":"PPL"},{"adminCode1":"PA","lng":"-75.61935","geonameId":5187909,"toponymName":"East Fogelsville","countryId":"6252001","fcl":"P","population":0,"countryCode":"US","name":"East Fogelsville","fclName":"city, village,...","adminCodes1":{"ISO3166_2":"PA"},"countryName":"United States","fcodeName":"populated place","adminName1":"Pennsylvania","lat":"40.58593","fcode":"PPL"},{"adminCode1":"PA","lng":"-75.6163","geonameId":5189901,"toponymName":"Fogelsville Elementary School","countryId":"6252001","fcl":"S","population":0,"countryCode":"US","name":"Fogelsville Elementary School","fclName":"spot, building, farm","adminCodes1":{"ISO3166_2":"PA"},"countryName":"United States","fcodeName":"school","adminName1":"Pennsylvania","lat":"40.56787","fcode":"SCH"},{"adminCode1":"PA","lng":"-75.63117","geonameId":8482018,"toponymName":"Fogelsville Volunteer Fire Company Station 8","countryId":"6252001","fcl":"S","population":0,"countryCode":"US","name":"Fogelsville Volunteer Fire Company Station 8","fclName":"spot, building, farm","adminCodes1":{"ISO3166_2":"PA"},"countryName":"United States","fcodeName":"building(s)","adminName1":"Pennsylvania","lat":"40.58464","fcode":"BLDG"},{"adminCode1":"PA","lng":"-75.6272","geonameId":9855681,"toponymName":"Hawthorn Suites By Wyndham Allentown-Fogelsville","countryId":"6252001","fcl":"S","population":0,"countryCode":"US","name":"Hawthorn Suites By Wyndham Allentown-Fogelsville","fclName":"spot, building, farm","adminCodes1":{"ISO3166_2":"PA"},"countryName":"United States","fcodeName":"hotel","adminName1":"Pennsylvania","lat":"40.58282","fcode":"HTL"},{"adminCode1":"PA","lng":"-75.62875","geonameId":11392264,"toponymName":"Pennsylvania State Police Troop M Fogelsville Station","countryId":"6252001","fcl":"S","population":0,"countryCode":"US","name":"Pennsylvania State Police Troop M Fogelsville Station","fclName":"spot, building, farm","adminCodes1":{"ISO3166_2":"PA"},"countryName":"United States","fcodeName":"building(s)","adminName1":"Pennsylvania","lat":"40.56644","fcode":"BLDG"},{"adminCode1":"PA","lng":"-75.63209","geonameId":11393795,"toponymName":"Fogelsville Post Office","countryId":"6252001","fcl":"S","population":0,"countryCode":"US","name":"Fogelsville Post Office","fclName":"spot, building, farm","adminCodes1":{"ISO3166_2":"PA"},"countryName":"United States","fcodeName":"post office","adminName1":"Pennsylvania","lat":"40.58316","fcode":"PO"}]}
