{"totalResultsCount":22,"geonames":[{"adminCode1":"GA","lng":"-84.99128","geonameId":6298577,"toponymName":"Lawson Army Airfield","countryId":"6252001","fcl":"S","population":0,"countryCode":"US","name":"Lawson AAF","fclName":"spot, building, farm","adminCodes1":{"ISO3166_2":"GA"},"countryName":"United States","fcodeName":"airport","adminName1":"Georgia","lat":"32.33732","fcode":"AIRP"},{"adminCode1":"GA","lng":"-84.94833","geonameId":7259768,"toponymName":"Fort Benning South  (historical)","countryId":"6252001","fcl":"P","population":0,"countryCode":"US","name":"Fort Benning South  (historical)","fclName":"city, village,...","adminCodes1":{"ISO3166_2":"GA"},"countryName":"United States","fcodeName":"populated place","adminName1":"Georgia","lat":"32.36412","fcode":"PPL"},{"adminCode1":"GA","lng":"-84.96882","geonameId":4195789,"toponymName":"Fort Benning","countryId":"6252001","fcl":"P","population":0,"countryCode":"US","name":"Fort Benning","fclName":"city, village,...","adminCodes1":{"ISO3166_2":"GA"},"countryName":"United States","fcodeName":"populated place","adminName1":"Georgia","lat":"32.35237","fcode":"PPL"},{"adminCode1":"GA","lng":"-84.96632","geonameId":4195792,"toponymName":"Fort Benning Post Office","countryId":"6252001","fcl":"S","population":0,"countryCode":"US","name":"Fort Benning Post Office","fclName":"spot, building, farm","adminCodes1":{"ISO3166_2":"GA"},"countryName":"United States","fcodeName":"post office","adminName1":"Georgia","lat":"32.36626","fcode":"PO"},{"adminCode1":"GA","lng":"-84.82942","geonameId":7267459,"toponymName":"Fort Benning","countryId":"6252001","fcl":"S","population":0,"countryCode":"US","name":"Fort Benning","fclName":"spot, building, farm","adminCodes1":{"ISO3166_2":"GA"},"countryName":"United States","fcodeName":"military installation","adminName1":"Georgia","lat":"32.38934","fcode":"INSM"},{"adminCode1":"GA","lng":"-84.93382","geonameId":4195790,"toponymName":"Fort Benning Junction","countryId":"6252001","fcl":"S","population":0,"countryCode":"US","name":"Fort Benning Junction","fclName":"spot, building, farm","adminCodes1":{"ISO3166_2":"GA"},"countryName":"United States","fcodeName":"","adminName1":"Georgia","lat":"32.43487"},{"adminCode1":"GA","lng":"-84.92021","geonameId":4195791,"toponymName":"Fort Benning Mall Shopping Center","countryId":"6252001","fcl":"S","population":0,"countryCode":"US","name":"Fort Benning Mall Shopping Center","fclName":"spot, building, farm","adminCodes1":{"ISO3166_2":"GA"},"countryName":"United States","fcodeName":"mall","adminName1":"Georgia","lat":"32.37237","fcode":"MALL"},{"adminCode1":"GA","lng":"-84.10169","geonameId":7711821,"toponymName":"Fort Benning Fire Department Station 36","countryId":"6252001","fcl":"S","population":0,"countryCode":"US","name":"Fort Benning Fire Department Station 36","fclName":"spot, building, farm","adminCodes1":{"ISO3166_2":"GA"},"countryName":"United States","fcodeName":"building(s)","adminName1":"Georgia","lat":"34.62772","fcode":"BLDG"},{"adminCode1":"GA","lng":"-84.94543","geonameId":9853567,"toponymName":"Suburban Extended Stay Fort Benning","countryId":"6252001","fcl":"S","population":0,"countryCode":"US","name":"Suburban Extended Stay Fort Benning","fclName":"spot, building, farm","adminCodes1":{"ISO3166_2":"GA"},"countryName":"United States","fcodeName":"hotel","adminName1":"Georgia","lat":"32.41846","fcode":"HTL"},{"adminCode1":"GA","lng":"-84.95036","geonameId":9853918,"toponymName":"Candlewood Suites Columbus Fort Benning","countryId":"6252001","fcl":"S","population":0,"countryCode":"US","name":"Candlewood Suites Columbus Fort Benning","fclName":"spot, building, farm","adminCodes1":{"ISO3166_2":"GA"},"countryName":"United States","fcodeName":"hotel","adminName1":"Georgia","lat":"32.42797","fcode":"HTL"},{"adminCode1":"GA","lng":"-84.95646","geonameId":9854306,"toponymName":"Columbus Inn At Fort Benning","countryId":"6252001","fcl":"S","population":0,"countryCode":"US","name":"Columbus Inn At Fort Benning","fclName":"spot, building, farm","adminCodes1":{"ISO3166_2":"GA"},"countryName":"United States","fcodeName":"hotel","adminName1":"Georgia","lat":"32.43386","fcode":"HTL"},{"adminCode1":"GA","lng":"-84.9378","geonameId":9854823,"toponymName":"Days Inn Columbus-North Fort Benning-Airport","countryId":"6252001","fcl":"S","population":0,"countryCode":"US","name":"Days Inn Columbus-North Fort Benning-Airport","fclName":"spot, building, farm","adminCodes1":{"ISO3166_2":"GA"},"countryName":"United States","fcodeName":"hotel","adminName1":"Georgia","lat":"32.4839","fcode":"HTL"},{"adminCode1":"GA","lng":"-84.9612","geonameId":9854826,"toponymName":"Wingate By Wyndham Columbus Fort Benning","countryId":"6252001","fcl":"S","population":0,"countryCode":"US","name":"Wingate By Wyndham Columbus Fort Benning","fclName":"spot, building, farm","adminCodes1":{"ISO3166_2":"GA"},"countryName":"United States","fcodeName":"hotel","adminName1":"Georgia","lat":"32.538","fcode":"HTL"},{"adminCode1":"GA","lng":"-84.97459","geonameId":9675973,"toponymName":"Fort Benning Military Police Department","countryId":"6252001","fcl":"S","population":0,"countryCode":"US","name":"Fort Benning Military Police Department","fclName":"spot, building, farm","adminCodes1":{"ISO3166_2":"GA"},"countryName":"United States","fcodeName":"building(s)","adminName1":"Georgia","lat":"32.36112","fcode":"BLDG"},{"adminCode1":"GA","lng":"-84.98809","geonameId":10302825,"toponymName":"Days Inn Columbus Downtown Near Fort Benning","countryId":"6252001","fcl":"S","population":0,"countryCode":"US","name":"Days Inn Columbus Downtown Near Fort Benning","fclName":"spot, building, farm","adminCodes1":{"ISO3166_2":"GA"},"countryName":"United States","fcodeName":"hotel","adminName1":"Georgia","lat":"32.47127","fcode":"HTL"},{"adminCode1":"GA","lng":"-84.96707","geonameId":9863229,"toponymName":"Staybridge Suites Columbus Fort Benning","countryId":"6252001","fcl":"S","population":0,"countryCode":"US","name":"Staybridge Suites Columbus Fort Benning","fclName":"spot, building, farm","adminCodes1":{"ISO3166_2":"GA"},"countryName":"United States","fcodeName":"hotel","adminName1":"Georgia","lat":"32.53944","fcode":"HTL"},{"adminCode1":"GA","lng":"-84.95447","geonameId":9968520,"toponymName":"Hampton Inn Columbus South Fort Benning","countryId":"6252001","fcl":"S","population":0,"countryCode":"US","name":"Hampton Inn Columbus South Fort Benning","fclName":"spot, building, farm","adminCodes1":{"ISO3166_2":"GA"},"countryName":"United States","fcodeName":"hotel","adminName1":"Georgia","lat":"32.39298","fcode":"HTL"},{"adminCode1":"GA","lng":"-84.95646","geonameId":9964194,"toponymName":"Days Inn Columbus South Fort Benning","countryId":"6252001","fcl":"S","population":0,"countryCode":"US","name":"Days Inn Columbus South Fort Benning","fclName":"spot, building, farm","adminCodes1":{"ISO3166_2":"GA"},"countryName":"United States","fcodeName":"hotel","adminName1":"Georgia","lat":"32.43386","fcode":"HTL"},{"adminCode1":"GA","lng":"-84.9265","geonameId":10237447,"toponymName":"Microtel Inn & Suites Columbus (Fort Benning)","countryId":"6252001","fcl":"S","population":0,"countryCode":"US","name":"Microtel Inn & Suites Columbus (Fort Benning)","fclName":"spot, building, farm","adminCodes1":{"ISO3166_2":"GA"},"countryName":"United States","fcodeName":"hotel","adminName1":"Georgia","lat":"32.44548","fcode":"HTL"},{"adminCode1":"AL","lng":"-85.01756","geonameId":9857285,"toponymName":"Quality Inn Near Fort Benning","countryId":"6252001","fcl":"S","population":0,"countryCode":"US","name":"Quality Inn Near Fort Benning","fclName":"spot, building, farm","adminCodes1":{"ISO3166_2":"AL"},"countryName":"United States","fcodeName":"hotel","adminName1":"Alabama","lat":"32.46047","fcode":"HTL"},{"adminCode1":"GA","lng":"-84.96782","geonameId":9861561,"toponymName":"Country Inn & Suites By Carlson. Columbus Fort Benning . Ga","countryId":"6252001","fcl":"S","population":0,"countryCode":"US","name":"Country Inn & Suites By Carlson. Columbus Fort Benning . Ga","fclName":"spot, building, farm","adminCodes1":{"ISO3166_2":"GA"},"countryName":"United States","fcodeName":"hotel","adminName1":"Georgia","lat":"32.53523","fcode":"HTL"},{"adminCode1":"GA","lng":"-84.94183","geonameId":9968522,"toponymName":"Holiday Inn Express Hotel & Suites Columbus Fort Benning","countryId":"6252001","fcl":"S","population":0,"countryCode":"US","name":"Holiday Inn Express Hotel & Suites Columbus Fort Benning","fclName":"spot, building, farm","adminCodes1":{"ISO3166_2":"GA"},"countryName":"United States","fcodeName":"hotel","adminName1":"Georgia","lat":"32.41234","fcode":"HTL"}]}
