{"totalResultsCount":18,"geonames":[{"adminCode1":"OK","lng":"-98.41672","geonameId":4540749,"toponymName":"Lawton\u2013Fort Sill Regional Airport","countryId":"6252001","fcl":"S","population":0,"countryCode":"US","name":"Lawton\u2013Fort Sill Regional Airport","fclName":"spot, building, farm","adminCodes1":{"ISO3166_2":"OK"},"countryName":"United States","fcodeName":"airport","adminName1":"Oklahoma","lat":"34.56758","fcode":"AIRP"},{"adminCode1":"OK","lng":"-98.38116","geonameId":4537137,"toponymName":"Fort Sill Indian School Reservation (historical)","countryId":"6252001","fcl":"A","population":0,"countryCode":"US","name":"Fort Sill Indian School Reservation (historical)","fclName":"country, state, region,...","adminCodes1":{"ISO3166_2":"OK"},"countryName":"United States","fcodeName":"administrative division","adminName1":"Oklahoma","lat":"34.62396","fcode":"ADMD"},{"adminCode1":"OK","lng":"-98.382","geonameId":4537139,"toponymName":"Fort Sill National Historic Site","countryId":"6252001","fcl":"L","population":0,"countryCode":"US","name":"Fort Sill National Historic Site","fclName":"parks,area, ...","adminCodes1":{"ISO3166_2":"OK"},"countryName":"United States","fcodeName":"park","adminName1":"Oklahoma","lat":"34.66591","fcode":"PRK"},{"adminCode1":"OK","lng":"-98.38662","geonameId":7267494,"toponymName":"Fort Sill","countryId":"6252001","fcl":"S","population":0,"countryCode":"US","name":"Fort Sill","fclName":"spot, building, farm","adminCodes1":{"ISO3166_2":"OK"},"countryName":"United States","fcodeName":"military installation","adminName1":"Oklahoma","lat":"34.67072","fcode":"INSM"},{"adminCode1":"OK","lng":"-98.34746","geonameId":6351940,"toponymName":"Fort Sill National Cemetery","countryId":"6252001","fcl":"S","population":0,"countryCode":"US","name":"Fort Sill National Cemetery","fclName":"spot, building, farm","adminCodes1":{"ISO3166_2":"OK"},"countryName":"United States","fcodeName":"cemetery","adminName1":"Oklahoma","lat":"34.76389","fcode":"CMTY"},{"adminCode1":"OK","lng":"-98.91051","geonameId":7276532,"toponymName":"Kiowa-Comanche-Apache-Fort Sill Apache Oklahoma Tribal Statistical Area","countryId":"6252001","population":0,"countryCode":"US","name":"Kiowa-Comanche-Apache-Fort Sill Apache Oklahoma Tribal Statistical Area","fclName":"n/a","adminCodes1":{"ISO3166_2":"OK"},"countryName":"United States","fcodeName":"","adminName1":"Oklahoma","lat":"34.65291"},{"adminCode1":"OK","lng":"-98.32133","geonameId":7276533,"toponymName":"Kiowa-Comanche-Apache-Fort Sill Apache/Caddo-Wichita-Delaware Joint-Use Oklahoma Tribal Statistical Area","countryId":"6252001","population":0,"countryCode":"US","name":"Kiowa-Comanche-Apache-Fort Sill Apache/Caddo-Wichita-Delaware Joint-Use Oklahoma Tribal Statistical Area","fclName":"n/a","adminCodes1":{"ISO3166_2":"OK"},"countryName":"United States","fcodeName":"","adminName1":"Oklahoma","lat":"35.05699"},{"adminCode1":"OK","lng":"-98.39528","geonameId":8125611,"toponymName":"Fort Sill Post Cemetery","countryId":"6252001","fcl":"S","population":0,"countryCode":"US","name":"Fort Sill Post Cemetery","fclName":"spot, building, farm","adminCodes1":{"ISO3166_2":"OK"},"countryName":"United States","fcodeName":"cemetery","adminName1":"Oklahoma","lat":"34.66972","fcode":"CMTY"},{"adminCode1":"TN","lng":"-86.805","geonameId":4623188,"toponymName":"Fort Gillem (historical)","countryId":"6252001","fcl":"S","population":0,"countryCode":"US","name":"Fort Gillem (historical)","fclName":"spot, building, farm","adminCodes1":{"ISO3166_2":"TN"},"countryName":"United States","fcodeName":"military installation","adminName1":"Tennessee","lat":"36.16889","fcode":"INSM"},{"adminCode1":"OK","lng":"-98.35644","geonameId":4537136,"toponymName":"Fort Sill Apache Tribal Complex","countryId":"6252001","fcl":"S","population":0,"countryCode":"US","name":"Fort Sill Apache Tribal Complex","fclName":"spot, building, farm","adminCodes1":{"ISO3166_2":"OK"},"countryName":"United States","fcodeName":"","adminName1":"Oklahoma","lat":"34.9284"},{"adminCode1":"OK","lng":"-98.38783","geonameId":4537138,"toponymName":"Fort Sill Museum","countryId":"6252001","fcl":"S","population":0,"countryCode":"US","name":"Fort Sill Museum","fclName":"spot, building, farm","adminCodes1":{"ISO3166_2":"OK"},"countryName":"United States","fcodeName":"museum","adminName1":"Oklahoma","lat":"34.66896","fcode":"MUS"},{"adminCode1":"OK","lng":"-98.42058","geonameId":8101082,"toponymName":"Fort Sill Fire Station 3","countryId":"6252001","fcl":"S","population":0,"countryCode":"US","name":"Fort Sill Fire Station 3","fclName":"spot, building, farm","adminCodes1":{"ISO3166_2":"OK"},"countryName":"United States","fcodeName":"building(s)","adminName1":"Oklahoma","lat":"34.65499","fcode":"BLDG"},{"adminCode1":"OK","lng":"-98.39677","geonameId":8101320,"toponymName":"Fort Sill Fire Station 2","countryId":"6252001","fcl":"S","population":0,"countryCode":"US","name":"Fort Sill Fire Station 2","fclName":"spot, building, farm","adminCodes1":{"ISO3166_2":"OK"},"countryName":"United States","fcodeName":"building(s)","adminName1":"Oklahoma","lat":"34.64964","fcode":"BLDG"},{"adminCode1":"OK","lng":"-98.37511","geonameId":8101321,"toponymName":"Fort Sill Fire Station 1","countryId":"6252001","fcl":"S","population":0,"countryCode":"US","name":"Fort Sill Fire Station 1","fclName":"spot, building, farm","adminCodes1":{"ISO3166_2":"OK"},"countryName":"United States","fcodeName":"building(s)","adminName1":"Oklahoma","lat":"34.66107","fcode":"BLDG"},{"adminCode1":"OK","lng":"-98.40304","geonameId":8101324,"toponymName":"Fort Sill Fire Station 4","countryId":"6252001","fcl":"S","population":0,"countryCode":"US","name":"Fort Sill Fire Station 4","fclName":"spot, building, farm","adminCodes1":{"ISO3166_2":"OK"},"countryName":"United States","fcodeName":"building(s)","adminName1":"Oklahoma","lat":"34.67351","fcode":"BLDG"},{"adminCode1":"OK","lng":"-98.43981","geonameId":9828076,"toponymName":"Candlewood Suites Lawton Fort Sill","countryId":"6252001","fcl":"S","population":0,"countryCode":"US","name":"Candlewood Suites Lawton Fort Sill","fclName":"spot, building, farm","adminCodes1":{"ISO3166_2":"OK"},"countryName":"United States","fcodeName":"hotel","adminName1":"Oklahoma","lat":"34.61871","fcode":"HTL"},{"adminCode1":"OK","lng":"-98.3772","geonameId":9828079,"toponymName":"Holiday Inn Express Hotel & Suites Lawton-Fort Sill","countryId":"6252001","fcl":"S","population":0,"countryCode":"US","name":"Holiday Inn Express Hotel & Suites Lawton-Fort Sill","fclName":"spot, building, farm","adminCodes1":{"ISO3166_2":"OK"},"countryName":"United States","fcodeName":"hotel","adminName1":"Oklahoma","lat":"34.6062","fcode":"HTL"},{"adminCode1":"OK","lng":"-98.38971","geonameId":10234071,"toponymName":"Hilton Garden Inn Lawton-Fort Sill","countryId":"6252001","fcl":"S","population":0,"countryCode":"US","name":"Hilton Garden Inn Lawton-Fort Sill","fclName":"spot, building, farm","adminCodes1":{"ISO3166_2":"OK"},"countryName":"United States","fcodeName":"hotel","adminName1":"Oklahoma","lat":"34.61071","fcode":"HTL"}]}
