{"totalResultsCount":12,"geonames":[{"adminCode1":"OR","lng":"-121.99585","geonameId":5727263,"toponymName":"Fort Klamath","countryId":"6252001","fcl":"P","population":0,"countryCode":"US","name":"Fort Klamath","fclName":"city, village,...","adminCodes1":{"ISO3166_2":"OR"},"countryName":"United States","fcodeName":"populated place","adminName1":"Oregon","lat":"42.70458","fcode":"PPL"},{"adminCode1":"OR","lng":"-121.97335","geonameId":5727268,"toponymName":"Fort Klamath Park","countryId":"6252001","fcl":"L","population":0,"countryCode":"US","name":"Fort Klamath Park","fclName":"parks,area, ...","adminCodes1":{"ISO3166_2":"OR"},"countryName":"United States","fcodeName":"park","adminName1":"Oregon","lat":"42.69152","fcode":"PRK"},{"adminCode1":"OR","lng":"-121.97252","geonameId":5727269,"toponymName":"Fort Klamath Park Museum","countryId":"6252001","fcl":"L","population":0,"countryCode":"US","name":"Fort Klamath Park Museum","fclName":"parks,area, ...","adminCodes1":{"ISO3166_2":"OR"},"countryName":"United States","fcodeName":"park","adminName1":"Oregon","lat":"42.69375","fcode":"PRK"},{"adminCode1":"OR","lng":"-121.95391","geonameId":5727262,"toponymName":"Fort Creek Ditch","countryId":"6252001","fcl":"H","population":0,"countryCode":"US","name":"Fort Creek Ditch","fclName":"stream, lake, ...","adminCodes1":{"ISO3166_2":"OR"},"countryName":"United States","fcodeName":"canal","adminName1":"Oregon","lat":"42.6443","fcode":"CNL"},{"adminCode1":"OR","lng":"-121.96944","geonameId":5727264,"toponymName":"Fort Klamath (historical)","countryId":"6252001","fcl":"S","population":0,"countryCode":"US","name":"Fort Klamath (historical)","fclName":"spot, building, farm","adminCodes1":{"ISO3166_2":"OR"},"countryName":"United States","fcodeName":"military installation","adminName1":"Oregon","lat":"42.69361","fcode":"INSM"},{"adminCode1":"OR","lng":"-121.97664","geonameId":5727265,"toponymName":"Fort Klamath Cemetery","countryId":"6252001","fcl":"S","population":0,"countryCode":"US","name":"Fort Klamath Cemetery","fclName":"spot, building, farm","adminCodes1":{"ISO3166_2":"OR"},"countryName":"United States","fcodeName":"cemetery","adminName1":"Oregon","lat":"42.69598","fcode":"CMTY"},{"adminCode1":"OR","lng":"-122.00113","geonameId":5727266,"toponymName":"Fort Klamath Elementary School (historical)","countryId":"6252001","fcl":"S","population":0,"countryCode":"US","name":"Fort Klamath Elementary School (historical)","fclName":"spot, building, farm","adminCodes1":{"ISO3166_2":"OR"},"countryName":"United States","fcodeName":"school","adminName1":"Oregon","lat":"42.70541","fcode":"SCH"},{"adminCode1":"OR","lng":"-121.9728","geonameId":5727267,"toponymName":"Fort Klamath Junction","countryId":"6252001","fcl":"S","population":0,"countryCode":"US","name":"Fort Klamath Junction","fclName":"spot, building, farm","adminCodes1":{"ISO3166_2":"OR"},"countryName":"United States","fcodeName":"","adminName1":"Oregon","lat":"42.69486"},{"adminCode1":"OR","lng":"-121.99585","geonameId":5727270,"toponymName":"Fort Klamath Post Office","countryId":"6252001","fcl":"S","population":0,"countryCode":"US","name":"Fort Klamath Post Office","fclName":"spot, building, farm","adminCodes1":{"ISO3166_2":"OR"},"countryName":"United States","fcodeName":"post office","adminName1":"Oregon","lat":"42.70458","fcode":"PO"},{"adminCode1":"OR","lng":"-121.97403","geonameId":8485910,"toponymName":"Fort Klamath Museum","countryId":"6252001","fcl":"S","population":0,"countryCode":"US","name":"Fort Klamath Museum","fclName":"spot, building, farm","adminCodes1":{"ISO3166_2":"OR"},"countryName":"United States","fcodeName":"museum","adminName1":"Oregon","lat":"42.69127","fcode":"MUS"},{"adminCode1":"OR","lng":"-121.98085","geonameId":5727244,"toponymName":"Fort Creek","countryId":"6252001","fcl":"H","population":0,"countryCode":"US","name":"Fort Creek","fclName":"stream, lake, ...","adminCodes1":{"ISO3166_2":"OR"},"countryName":"United States","fcodeName":"stream","adminName1":"Oregon","lat":"42.67236","fcode":"STM"},{"adminCode1":"OR","lng":"-120.94259","geonameId":5727290,"toponymName":"Fort Spring","countryId":"6252001","fcl":"H","population":0,"countryCode":"US","name":"Fort Spring","fclName":"stream, lake, ...","adminCodes1":{"ISO3166_2":"OR"},"countryName":"United States","fcodeName":"spring(s)","adminName1":"Oregon","lat":"41.99956","fcode":"SPNG"}]}
