{"totalResultsCount":1226,"geonames":[{"adminCode1":"ND","lng":"-98.88302","geonameId":5059254,"toponymName":"Foster County","countryId":"6252001","fcl":"A","population":3343,"countryCode":"US","name":"Foster","fclName":"country, state, region,...","adminCodes1":{"ISO3166_2":"ND"},"countryName":"United States","fcodeName":"second-order administrative division","adminName1":"North Dakota","lat":"47.45708","fcode":"ADM2"},{"adminCode1":"CA","lng":"-122.27108","geonameId":5350159,"toponymName":"Foster City","countryId":"6252001","fcl":"P","population":33477,"countryCode":"US","name":"Foster City","fclName":"city, village,...","adminCodes1":{"ISO3166_2":"CA"},"countryName":"United States","fcodeName":"populated place","adminName1":"California","lat":"37.55855","fcode":"PPL"},{"adminCode1":"ND","lng":"-99.12622","geonameId":5058552,"toponymName":"Carrington","countryId":"6252001","fcl":"P","population":2072,"countryCode":"US","name":"Carrington","fclName":"city, village,...","adminCodes1":{"ISO3166_2":"ND"},"countryName":"United States","fcodeName":"seat of a second-order administrative division","adminName1":"North Dakota","lat":"47.44972","fcode":"PPLA2"},{"adminCode1":"ND","lng":"-98.56732","geonameId":5059369,"toponymName":"Glenfield","countryId":"6252001","fcl":"P","population":91,"countryCode":"US","name":"Glenfield","fclName":"city, village,...","adminCodes1":{"ISO3166_2":"ND"},"countryName":"United States","fcodeName":"populated place","adminName1":"North Dakota","lat":"47.45333","fcode":"PPL"},{"adminCode1":"ND","lng":"-98.80538","geonameId":5059412,"toponymName":"Grace City","countryId":"6252001","fcl":"P","population":63,"countryCode":"US","name":"Grace City","fclName":"city, village,...","adminCodes1":{"ISO3166_2":"ND"},"countryName":"United States","fcodeName":"populated place","adminName1":"North Dakota","lat":"47.55139","fcode":"PPL"},{"adminCode1":"ND","lng":"-99.15091","geonameId":5060328,"toponymName":"Carrington Municipal Airport","countryId":"6252001","fcl":"S","population":0,"countryCode":"US","name":"Carrington Municipal Airport","fclName":"spot, building, farm","adminCodes1":{"ISO3166_2":"ND"},"countryName":"United States","fcodeName":"airport","adminName1":"North Dakota","lat":"47.45439","fcode":"AIRP"},{"adminCode1":"ND","lng":"-98.59149","geonameId":5060356,"toponymName":"McHenry","countryId":"6252001","fcl":"P","population":56,"countryCode":"US","name":"McHenry","fclName":"city, village,...","adminCodes1":{"ISO3166_2":"ND"},"countryName":"United States","fcodeName":"populated place","adminName1":"North Dakota","lat":"47.57611","fcode":"PPL"},{"adminCode1":"FL","lng":"-82.76679","geonameId":4174091,"toponymName":"Stephen Foster Folk Culture Center State Park","countryId":"6252001","fcl":"L","population":0,"countryCode":"US","name":"Stephen Foster Folk Culture Center State Park","fclName":"parks,area, ...","adminCodes1":{"ISO3166_2":"FL"},"countryName":"United States","fcodeName":"park","adminName1":"Florida","lat":"30.33161","fcode":"PRK"},{"adminCode1":"RI","lng":"-71.75812","geonameId":5222169,"toponymName":"Foster","countryId":"6252001","fcl":"P","population":4598,"countryCode":"US","name":"Foster","fclName":"city, village,...","adminCodes1":{"ISO3166_2":"RI"},"countryName":"United States","fcodeName":"populated place","adminName1":"Rhode Island","lat":"41.85371","fcode":"PPL"},{"adminCode1":"IL","lng":"-90.23289","geonameId":4238894,"toponymName":"Foster Pond","countryId":"6252001","fcl":"H","population":0,"countryCode":"US","name":"Foster Pond","fclName":"stream, lake, ...","adminCodes1":{"ISO3166_2":"IL"},"countryName":"United States","fcodeName":"lake","adminName1":"Illinois","lat":"38.31228","fcode":"LK"},{"adminCode1":"TX","lng":"-100.45315","geonameId":5521777,"toponymName":"Foster Field","countryId":"6252001","fcl":"L","population":0,"countryCode":"US","name":"Foster Field","fclName":"parks,area, ...","adminCodes1":{"ISO3166_2":"TX"},"countryName":"United States","fcodeName":"park","adminName1":"Texas","lat":"31.43433","fcode":"PRK"},{"adminCode1":"ND","lng":"-98.6882","geonameId":5062065,"toponymName":"Stony Lake","countryId":"6252001","fcl":"H","population":0,"countryCode":"US","name":"Stony Lake","fclName":"stream, lake, ...","adminCodes1":{"ISO3166_2":"ND"},"countryName":"United States","fcodeName":"lake","adminName1":"North Dakota","lat":"47.54349","fcode":"LK"},{"adminCode1":"ND","lng":"-99.13789","geonameId":5058185,"toponymName":"Barlow","countryId":"6252001","fcl":"P","population":0,"countryCode":"US","name":"Barlow","fclName":"city, village,...","adminCodes1":{"ISO3166_2":"ND"},"countryName":"United States","fcodeName":"populated place","adminName1":"North Dakota","lat":"47.56972","fcode":"PPL"},{"adminCode1":"ND","lng":"-99.03567","geonameId":5060401,"toponymName":"Melville","countryId":"6252001","fcl":"P","population":0,"countryCode":"US","name":"Melville","fclName":"city, village,...","adminCodes1":{"ISO3166_2":"ND"},"countryName":"United States","fcodeName":"populated place","adminName1":"North Dakota","lat":"47.33472","fcode":"PPL"},{"adminCode1":"FL","lng":"-82.51139","geonameId":7306338,"toponymName":"Foster Park","countryId":"6252001","fcl":"L","population":0,"countryCode":"US","name":"Foster Park","fclName":"parks,area, ...","adminCodes1":{"ISO3166_2":"FL"},"countryName":"United States","fcodeName":"park","adminName1":"Florida","lat":"27.89583","fcode":"PRK"},{"adminCode1":"PA","lng":"-78.61725","geonameId":5190117,"toponymName":"Foster Brook","countryId":"6252001","fcl":"P","population":1251,"countryCode":"US","name":"Foster Brook","fclName":"city, village,...","adminCodes1":{"ISO3166_2":"PA"},"countryName":"United States","fcodeName":"populated place","adminName1":"Pennsylvania","lat":"41.97506","fcode":"PPL"},{"adminCode1":"MO","lng":"-94.50745","geonameId":4387019,"toponymName":"Foster","countryId":"6252001","fcl":"P","population":113,"countryCode":"US","name":"Foster","fclName":"city, village,...","adminCodes1":{"ISO3166_2":"MO"},"countryName":"United States","fcodeName":"populated place","adminName1":"Missouri","lat":"38.16614","fcode":"PPL"},{"adminCode1":"KY","lng":"-84.21299","geonameId":4292078,"toponymName":"Foster","countryId":"6252001","fcl":"P","population":44,"countryCode":"US","name":"Foster","fclName":"city, village,...","adminCodes1":{"ISO3166_2":"KY"},"countryName":"United States","fcodeName":"populated place","adminName1":"Kentucky","lat":"38.79924","fcode":"PPL"},{"adminCode1":"MI","lng":"-87.63674","geonameId":4993205,"toponymName":"Foster Lake","countryId":"6252001","fcl":"H","population":0,"countryCode":"US","name":"Foster Lake","fclName":"stream, lake, ...","adminCodes1":{"ISO3166_2":"MI"},"countryName":"United States","fcodeName":"lake","adminName1":"Michigan","lat":"46.45422","fcode":"LK"},{"adminCode1":"MN","lng":"-96.6759","geonameId":5027196,"toponymName":"Foster","countryId":"6252001","fcl":"P","population":0,"countryCode":"US","name":"Foster","fclName":"city, village,...","adminCodes1":{"ISO3166_2":"MN"},"countryName":"United States","fcodeName":"populated place","adminName1":"Minnesota","lat":"45.41635","fcode":"PPL"},{"adminCode1":"GA","lng":"-85.34273","geonameId":4195929,"toponymName":"Foster Mills","countryId":"6252001","fcl":"P","population":0,"countryCode":"US","name":"Foster Mills","fclName":"city, village,...","adminCodes1":{"ISO3166_2":"GA"},"countryName":"United States","fcodeName":"populated place","adminName1":"Georgia","lat":"34.16621","fcode":"PPL"},{"adminCode1":"ND","lng":"-99.13274","geonameId":11383031,"toponymName":"Foster County Waterfowl Production Area","countryId":"6252001","fcl":"L","population":0,"countryCode":"US","name":"Foster County Waterfowl Production Area","fclName":"parks,area, ...","adminCodes1":{"ISO3166_2":"ND"},"countryName":"United States","fcodeName":"park","adminName1":"North Dakota","lat":"47.55157","fcode":"PRK"},{"adminCode1":"OR","lng":"-122.67231","geonameId":5727327,"toponymName":"Foster","countryId":"6252001","fcl":"P","population":0,"countryCode":"US","name":"Foster","fclName":"city, village,...","adminCodes1":{"ISO3166_2":"OR"},"countryName":"United States","fcodeName":"populated place","adminName1":"Oregon","lat":"44.4104","fcode":"PPL"},{"adminCode1":"VA","lng":"-76.38495","geonameId":4759801,"toponymName":"Foster","countryId":"6252001","fcl":"P","population":0,"countryCode":"US","name":"Foster","fclName":"city, village,...","adminCodes1":{"ISO3166_2":"VA"},"countryName":"United States","fcodeName":"populated place","adminName1":"Virginia","lat":"37.45291","fcode":"PPL"},{"adminCode1":"NY","lng":"-73.71291","geonameId":5116508,"toponymName":"Elmont","countryId":"6252001","fcl":"P","population":33198,"countryCode":"US","name":"Elmont","fclName":"city, village,...","adminCodes1":{"ISO3166_2":"NY"},"countryName":"United States","fcodeName":"populated place","adminName1":"New York","lat":"40.70094","fcode":"PPL"},{"adminCode1":"IL","lng":"-88.14143","geonameId":4888205,"toponymName":"Clifford D Foster Airport","countryId":"6252001","fcl":"S","population":0,"countryCode":"US","name":"Clifford D Foster Airport","fclName":"spot, building, farm","adminCodes1":{"ISO3166_2":"IL"},"countryName":"United States","fcodeName":"airport","adminName1":"Illinois","lat":"40.45559","fcode":"AIRP"},{"adminCode1":"PA","lng":"-76.36646","geonameId":5211209,"toponymName":"Schuylkill County /Joe Zerbey/ Airport","countryId":"6252001","fcl":"S","population":0,"countryCode":"US","name":"Schuylkill County /Joe Zerbey/ Airport","fclName":"spot, building, farm","adminCodes1":{"ISO3166_2":"PA"},"countryName":"United States","fcodeName":"airport","adminName1":"Pennsylvania","lat":"40.70866","fcode":"AIRP"},{"adminCode1":"ND","lng":"-99.07226","geonameId":7165534,"toponymName":"Township of Carrington","countryId":"6252001","fcl":"A","population":0,"countryCode":"US","name":"Township of Carrington","fclName":"country, state, region,...","adminCodes1":{"ISO3166_2":"ND"},"countryName":"United States","fcodeName":"third-order administrative division","adminName1":"North Dakota","lat":"47.45757","fcode":"ADM3"},{"adminCode1":"ND","lng":"-98.56377","geonameId":7165558,"toponymName":"Township of Glenfield","countryId":"6252001","fcl":"A","population":0,"countryCode":"US","name":"Township of Glenfield","fclName":"country, state, region,...","adminCodes1":{"ISO3166_2":"ND"},"countryName":"United States","fcodeName":"third-order administrative division","adminName1":"North Dakota","lat":"47.45695","fcode":"ADM3"},{"adminCode1":"ND","lng":"-98.56386","geonameId":7165590,"toponymName":"Township of McHenry","countryId":"6252001","fcl":"A","population":0,"countryCode":"US","name":"Township of McHenry","fclName":"country, state, region,...","adminCodes1":{"ISO3166_2":"ND"},"countryName":"United States","fcodeName":"third-order administrative division","adminName1":"North Dakota","lat":"47.5436","fcode":"ADM3"},{"adminCode1":"ND","lng":"-99.20307","geonameId":5062591,"toponymName":"Township of Wyard","countryId":"6252001","fcl":"A","population":0,"countryCode":"US","name":"Wyard Township","fclName":"country, state, region,...","adminCodes1":{"ISO3166_2":"ND"},"countryName":"United States","fcodeName":"third-order administrative division","adminName1":"North Dakota","lat":"47.45757","fcode":"ADM3"},{"adminCode1":"ND","lng":"-99.20217","geonameId":5058329,"toponymName":"Township of Birtsell","countryId":"6252001","fcl":"A","population":0,"countryCode":"US","name":"Birtsell Township","fclName":"country, state, region,...","adminCodes1":{"ISO3166_2":"ND"},"countryName":"United States","fcodeName":"third-order administrative division","adminName1":"North Dakota","lat":"47.54427","fcode":"ADM3"},{"adminCode1":"ND","lng":"-98.76951","geonameId":5058361,"toponymName":"Blue Cloud Lake","countryId":"6252001","fcl":"H","population":0,"countryCode":"US","name":"Blue Cloud Lake","fclName":"stream, lake, ...","adminCodes1":{"ISO3166_2":"ND"},"countryName":"United States","fcodeName":"lake","adminName1":"North Dakota","lat":"47.54667","fcode":"LK"},{"adminCode1":"ND","lng":"-98.94693","geonameId":5058381,"toponymName":"Township of Bordulac","countryId":"6252001","fcl":"A","population":0,"countryCode":"US","name":"Bordulac Township","fclName":"country, state, region,...","adminCodes1":{"ISO3166_2":"ND"},"countryName":"United States","fcodeName":"third-order administrative division","adminName1":"North Dakota","lat":"47.3702","fcode":"ADM3"},{"adminCode1":"ND","lng":"-98.81919","geonameId":5058452,"toponymName":"Township of Bucephalia","countryId":"6252001","fcl":"A","population":0,"countryCode":"US","name":"Township of Bucephalia","fclName":"country, state, region,...","adminCodes1":{"ISO3166_2":"ND"},"countryName":"United States","fcodeName":"third-order administrative division","adminName1":"North Dakota","lat":"47.37026","fcode":"ADM3"},{"adminCode1":"ND","lng":"-99.13001","geonameId":5058555,"toponymName":"City of Carrington","countryId":"6252001","fcl":"A","population":2065,"countryCode":"US","name":"City of Carrington","fclName":"country, state, region,...","adminCodes1":{"ISO3166_2":"ND"},"countryName":"United States","fcodeName":"third-order administrative division","adminName1":"North Dakota","lat":"47.45079","fcode":"ADM3"},{"adminCode1":"ND","lng":"-98.88872","geonameId":5058929,"toponymName":"Dry Lake","countryId":"6252001","fcl":"H","population":0,"countryCode":"US","name":"Dry Lake","fclName":"stream, lake, ...","adminCodes1":{"ISO3166_2":"ND"},"countryName":"United States","fcodeName":"lake","adminName1":"North Dakota","lat":"47.3775","fcode":"LK"},{"adminCode1":"ND","lng":"-98.56343","geonameId":5058979,"toponymName":"Township of Eastman","countryId":"6252001","fcl":"A","population":0,"countryCode":"US","name":"Eastman Township","fclName":"country, state, region,...","adminCodes1":{"ISO3166_2":"ND"},"countryName":"United States","fcodeName":"third-order administrative division","adminName1":"North Dakota","lat":"47.37002","fcode":"ADM3"},{"adminCode1":"ND","lng":"-99.07441","geonameId":5059132,"toponymName":"Township of Estabrook","countryId":"6252001","fcl":"A","population":0,"countryCode":"US","name":"Estabrook Township","fclName":"country, state, region,...","adminCodes1":{"ISO3166_2":"ND"},"countryName":"United States","fcodeName":"third-order administrative division","adminName1":"North Dakota","lat":"47.54415","fcode":"ADM3"},{"adminCode1":"ND","lng":"-98.69193","geonameId":5059219,"toponymName":"Township of Florance","countryId":"6252001","fcl":"A","population":0,"countryCode":"US","name":"Florance Township","fclName":"country, state, region,...","adminCodes1":{"ISO3166_2":"ND"},"countryName":"United States","fcodeName":"third-order administrative division","adminName1":"North Dakota","lat":"47.54394","fcode":"ADM3"},{"adminCode1":"ND","lng":"-98.9545","geonameId":5059333,"toponymName":"Lake George","countryId":"6252001","fcl":"H","population":0,"countryCode":"US","name":"Lake George","fclName":"stream, lake, ...","adminCodes1":{"ISO3166_2":"ND"},"countryName":"United States","fcodeName":"lake","adminName1":"North Dakota","lat":"47.39929","fcode":"LK"},{"adminCode1":"ND","lng":"-98.56622","geonameId":5059371,"toponymName":"City of Glenfield","countryId":"6252001","fcl":"A","population":91,"countryCode":"US","name":"City of Glenfield","fclName":"country, state, region,...","adminCodes1":{"ISO3166_2":"ND"},"countryName":"United States","fcodeName":"third-order administrative division","adminName1":"North Dakota","lat":"47.45505","fcode":"ADM3"},{"adminCode1":"ND","lng":"-98.80417","geonameId":5059413,"toponymName":"City of Grace City","countryId":"6252001","fcl":"A","population":63,"countryCode":"US","name":"City of Grace City","fclName":"country, state, region,...","adminCodes1":{"ISO3166_2":"ND"},"countryName":"United States","fcodeName":"third-order administrative division","adminName1":"North Dakota","lat":"47.55284","fcode":"ADM3"},{"adminCode1":"ND","lng":"-98.81955","geonameId":5059594,"toponymName":"Township of Haven","countryId":"6252001","fcl":"A","population":0,"countryCode":"US","name":"Haven Township","fclName":"country, state, region,...","adminCodes1":{"ISO3166_2":"ND"},"countryName":"United States","fcodeName":"third-order administrative division","adminName1":"North Dakota","lat":"47.45712","fcode":"ADM3"},{"adminCode1":"ND","lng":"-98.82271","geonameId":5059828,"toponymName":"Jack Lake","countryId":"6252001","fcl":"H","population":0,"countryCode":"US","name":"Jack Lake","fclName":"stream, lake, ...","adminCodes1":{"ISO3166_2":"ND"},"countryName":"United States","fcodeName":"lake","adminName1":"North Dakota","lat":"47.41368","fcode":"LK"},{"adminCode1":"ND","lng":"-98.73558","geonameId":5059879,"toponymName":"Juanita Lake","countryId":"6252001","fcl":"H","population":0,"countryCode":"US","name":"Juanita Lake","fclName":"stream, lake, ...","adminCodes1":{"ISO3166_2":"ND"},"countryName":"United States","fcodeName":"lake","adminName1":"North Dakota","lat":"47.55361","fcode":"LK"},{"adminCode1":"ND","lng":"-98.81981","geonameId":5060087,"toponymName":"Township of Larrabee","countryId":"6252001","fcl":"A","population":0,"countryCode":"US","name":"Larrabee Township","fclName":"country, state, region,...","adminCodes1":{"ISO3166_2":"ND"},"countryName":"United States","fcodeName":"third-order administrative division","adminName1":"North Dakota","lat":"47.54386","fcode":"ADM3"},{"adminCode1":"ND","lng":"-99.2025","geonameId":5060218,"toponymName":"Township of Longview","countryId":"6252001","fcl":"A","population":0,"countryCode":"US","name":"Longview Township","fclName":"country, state, region,...","adminCodes1":{"ISO3166_2":"ND"},"countryName":"United States","fcodeName":"third-order administrative division","adminName1":"North Dakota","lat":"47.37052","fcode":"ADM3"},{"adminCode1":"ND","lng":"-98.59117","geonameId":5060358,"toponymName":"City of McHenry","countryId":"6252001","fcl":"A","population":56,"countryCode":"US","name":"City of McHenry","fclName":"country, state, region,...","adminCodes1":{"ISO3166_2":"ND"},"countryName":"United States","fcodeName":"third-order administrative division","adminName1":"North Dakota","lat":"47.57642","fcode":"ADM3"},{"adminCode1":"ND","lng":"-98.69128","geonameId":5060368,"toponymName":"Township of McKinnon","countryId":"6252001","fcl":"A","population":0,"countryCode":"US","name":"McKinnon Township","fclName":"country, state, region,...","adminCodes1":{"ISO3166_2":"ND"},"countryName":"United States","fcodeName":"third-order administrative division","adminName1":"North Dakota","lat":"47.3701","fcode":"ADM3"},{"adminCode1":"ND","lng":"-99.07463","geonameId":5060402,"toponymName":"Township of Melville","countryId":"6252001","fcl":"A","population":0,"countryCode":"US","name":"Melville Township","fclName":"country, state, region,...","adminCodes1":{"ISO3166_2":"ND"},"countryName":"United States","fcodeName":"third-order administrative division","adminName1":"North Dakota","lat":"47.37034","fcode":"ADM3"},{"adminCode1":"ND","lng":"-98.94697","geonameId":5060660,"toponymName":"Township of Nordmore","countryId":"6252001","fcl":"A","population":0,"countryCode":"US","name":"Nordmore Township","fclName":"country, state, region,...","adminCodes1":{"ISO3166_2":"ND"},"countryName":"United States","fcodeName":"third-order administrative division","adminName1":"North Dakota","lat":"47.54392","fcode":"ADM3"},{"adminCode1":"ND","lng":"-98.69169","geonameId":5061162,"toponymName":"Township of Rolling Prairie","countryId":"6252001","fcl":"A","population":0,"countryCode":"US","name":"Rolling Prairie Township","fclName":"country, state, region,...","adminCodes1":{"ISO3166_2":"ND"},"countryName":"United States","fcodeName":"third-order administrative division","adminName1":"North Dakota","lat":"47.45701","fcode":"ADM3"},{"adminCode1":"ND","lng":"-98.94703","geonameId":5061177,"toponymName":"Township of Rose Hill","countryId":"6252001","fcl":"A","population":0,"countryCode":"US","name":"Rose Hill Township","fclName":"country, state, region,...","adminCodes1":{"ISO3166_2":"ND"},"countryName":"United States","fcodeName":"third-order administrative division","adminName1":"North Dakota","lat":"47.45703","fcode":"ADM3"},{"adminCode1":"ND","lng":"-99.15993","geonameId":5061238,"toponymName":"Russell Lake","countryId":"6252001","fcl":"H","population":0,"countryCode":"US","name":"Russell Lake","fclName":"stream, lake, ...","adminCodes1":{"ISO3166_2":"ND"},"countryName":"United States","fcodeName":"lake","adminName1":"North Dakota","lat":"47.3787","fcode":"LK"},{"adminCode1":"ND","lng":"-98.8723","geonameId":5061242,"toponymName":"Rusten Slough","countryId":"6252001","fcl":"H","population":0,"countryCode":"US","name":"Rusten Slough","fclName":"stream, lake, ...","adminCodes1":{"ISO3166_2":"ND"},"countryName":"United States","fcodeName":"lake","adminName1":"North Dakota","lat":"47.54184","fcode":"LK"},{"adminCode1":"ME","lng":"-69.53532","geonameId":4964708,"toponymName":"Foster Island","countryId":"6252001","fcl":"T","population":0,"countryCode":"US","name":"Foster Island","fclName":"mountain,hill,rock,... ","adminCodes1":{"ISO3166_2":"ME"},"countryName":"United States","fcodeName":"island","adminName1":"Maine","lat":"43.90619","fcode":"ISL"},{"adminCode1":"ME","lng":"-70.6871","geonameId":4964717,"toponymName":"Foster Pond","countryId":"6252001","fcl":"H","population":0,"countryCode":"US","name":"Foster Pond","fclName":"stream, lake, ...","adminCodes1":{"ISO3166_2":"ME"},"countryName":"United States","fcodeName":"lake","adminName1":"Maine","lat":"43.9665","fcode":"LK"},{"adminCode1":"AR","lng":"-90.9891","geonameId":4111469,"toponymName":"Township of Foster","countryId":"6252001","fcl":"A","population":0,"countryCode":"US","name":"Foster Township","fclName":"country, state, region,...","adminCodes1":{"ISO3166_2":"AR"},"countryName":"United States","fcodeName":"third-order administrative division","adminName1":"Arkansas","lat":"36.34776","fcode":"ADM3"},{"adminCode1":"MI","lng":"-84.2909","geonameId":4993211,"toponymName":"Township of Foster","countryId":"6252001","fcl":"A","population":0,"countryCode":"US","name":"Foster Township","fclName":"country, state, region,...","adminCodes1":{"ISO3166_2":"MI"},"countryName":"United States","fcodeName":"third-order administrative division","adminName1":"Michigan","lat":"44.42933","fcode":"ADM3"},{"adminCode1":"MN","lng":"-93.70849","geonameId":5027204,"toponymName":"Township of Foster","countryId":"6252001","fcl":"A","population":0,"countryCode":"US","name":"Foster Township","fclName":"country, state, region,...","adminCodes1":{"ISO3166_2":"MN"},"countryName":"United States","fcodeName":"third-order administrative division","adminName1":"Minnesota","lat":"43.63038","fcode":"ADM3"},{"adminCode1":"NY","lng":"-73.73541","geonameId":5134395,"toponymName":"Rosedale","countryId":"6252001","fcl":"P","population":25812,"countryCode":"US","name":"Rosedale","fclName":"city, village,...","adminCodes1":{"ISO3166_2":"NY"},"countryName":"United States","fcodeName":"populated place","adminName1":"New York","lat":"40.66205","fcode":"PPL"},{"adminCode1":"WA","lng":"-119.70394","geonameId":5794854,"toponymName":"Foster Creek Wildlife Recreation Area","countryId":"6252001","fcl":"L","population":0,"countryCode":"US","name":"Foster Creek Wildlife Recreation Area","fclName":"parks,area, ...","adminCodes1":{"ISO3166_2":"WA"},"countryName":"United States","fcodeName":"park","adminName1":"Washington","lat":"47.90459","fcode":"PRK"},{"adminCode1":"CA","lng":"-119.31178","geonameId":5350174,"toponymName":"Foster Park","countryId":"6252001","fcl":"L","population":0,"countryCode":"US","name":"Foster Park","fclName":"parks,area, ...","adminCodes1":{"ISO3166_2":"CA"},"countryName":"United States","fcodeName":"park","adminName1":"California","lat":"34.35278","fcode":"PRK"},{"adminCode1":"OK","lng":"-97.48919","geonameId":4537163,"toponymName":"Foster","countryId":"6252001","fcl":"P","population":162,"countryCode":"US","name":"Foster","fclName":"city, village,...","adminCodes1":{"ISO3166_2":"OK"},"countryName":"United States","fcodeName":"populated place","adminName1":"Oklahoma","lat":"34.61647","fcode":"PPL"},{"adminCode1":"WI","lng":"-90.70407","geonameId":5253535,"toponymName":"Foster Junction","countryId":"6252001","fcl":"P","population":0,"countryCode":"US","name":"Foster Junction","fclName":"city, village,...","adminCodes1":{"ISO3166_2":"WI"},"countryName":"United States","fcodeName":"populated place","adminName1":"Wisconsin","lat":"46.31356","fcode":"PPL"},{"adminCode1":"NE","lng":"-97.66451","geonameId":5068599,"toponymName":"Foster","countryId":"6252001","fcl":"P","population":50,"countryCode":"US","name":"Foster","fclName":"city, village,...","adminCodes1":{"ISO3166_2":"NE"},"countryName":"United States","fcodeName":"populated place","adminName1":"Nebraska","lat":"42.27389","fcode":"PPL"},{"adminCode1":"IN","lng":"-87.4714","geonameId":4920433,"toponymName":"Foster","countryId":"6252001","fcl":"P","population":0,"countryCode":"US","name":"Foster","fclName":"city, village,...","adminCodes1":{"ISO3166_2":"IN"},"countryName":"United States","fcodeName":"populated place","adminName1":"Indiana","lat":"40.1467","fcode":"PPL"},{"adminCode1":"PA","lng":"-78.53919","geonameId":5208082,"toponymName":"Rew","countryId":"6252001","fcl":"P","population":199,"countryCode":"US","name":"Rew","fclName":"city, village,...","adminCodes1":{"ISO3166_2":"PA"},"countryName":"United States","fcodeName":"populated place","adminName1":"Pennsylvania","lat":"41.90145","fcode":"PPL"},{"adminCode1":"PA","lng":"-78.57141","geonameId":5186769,"toponymName":"Derrick City","countryId":"6252001","fcl":"P","population":0,"countryCode":"US","name":"Derrick City","fclName":"city, village,...","adminCodes1":{"ISO3166_2":"PA"},"countryName":"United States","fcodeName":"populated place","adminName1":"Pennsylvania","lat":"41.97062","fcode":"PPL"},{"adminCode1":"RI","lng":"-71.71951","geonameId":5222170,"toponymName":"Foster Center","countryId":"6252001","fcl":"P","population":355,"countryCode":"US","name":"Foster Center","fclName":"city, village,...","adminCodes1":{"ISO3166_2":"RI"},"countryName":"United States","fcodeName":"populated place","adminName1":"Rhode Island","lat":"41.7851","fcode":"PPL"},{"adminCode1":"CA","lng":"-122.85643","geonameId":5563859,"toponymName":"Foster Lake","countryId":"6252001","fcl":"H","population":0,"countryCode":"US","name":"Foster Lake","fclName":"stream, lake, ...","adminCodes1":{"ISO3166_2":"CA"},"countryName":"United States","fcodeName":"lake","adminName1":"California","lat":"41.04678","fcode":"LK"},{"adminCode1":"WI","lng":"-91.31182","geonameId":5253532,"toponymName":"Foster","countryId":"6252001","fcl":"P","population":0,"countryCode":"US","name":"Foster","fclName":"city, village,...","adminCodes1":{"ISO3166_2":"WI"},"countryName":"United States","fcodeName":"populated place","adminName1":"Wisconsin","lat":"44.64302","fcode":"PPL"},{"adminCode1":"WV","lng":"-81.77984","geonameId":4806401,"toponymName":"Foster","countryId":"6252001","fcl":"P","population":0,"countryCode":"US","name":"Foster","fclName":"city, village,...","adminCodes1":{"ISO3166_2":"WV"},"countryName":"United States","fcodeName":"populated place","adminName1":"West Virginia","lat":"38.09732","fcode":"PPL"},{"adminCode1":"KY","lng":"-84.21322","geonameId":7203517,"toponymName":"City of Foster (historical)","countryId":"6252001","fcl":"A","population":44,"countryCode":"US","name":"City of Foster (historical)","fclName":"country, state, region,...","adminCodes1":{"ISO3166_2":"KY"},"countryName":"United States","fcodeName":"third-order administrative division","adminName1":"Kentucky","lat":"38.80011","fcode":"ADM3"},{"adminCode1":"WI","lng":"-90.86131","geonameId":5253540,"toponymName":"Town of Foster","countryId":"6252001","fcl":"A","population":96,"countryCode":"US","name":"Town of Foster","fclName":"country, state, region,...","adminCodes1":{"ISO3166_2":"WI"},"countryName":"United States","fcodeName":"third-order administrative division","adminName1":"Wisconsin","lat":"44.68322","fcode":"ADM3"},{"adminCode1":"ME","lng":"-69.69922","geonameId":4964719,"toponymName":"Foster Ridge","countryId":"6252001","fcl":"T","population":0,"countryCode":"US","name":"Foster Ridge","fclName":"mountain,hill,rock,... ","adminCodes1":{"ISO3166_2":"ME"},"countryName":"United States","fcodeName":"ridge(s)","adminName1":"Maine","lat":"45.22255","fcode":"RDGE"},{"adminCode1":"GA","lng":"-82.56207","geonameId":4224494,"toponymName":"Stephen Foster Memorial Monument","countryId":"6252001","fcl":"L","population":0,"countryCode":"US","name":"Stephen Foster Memorial Monument","fclName":"parks,area, ...","adminCodes1":{"ISO3166_2":"GA"},"countryName":"United States","fcodeName":"park","adminName1":"Georgia","lat":"30.68466","fcode":"PRK"},{"adminCode1":"FL","lng":"-80.04286","geonameId":10338770,"toponymName":"Phil Foster Park","countryId":"6252001","fcl":"L","population":0,"countryCode":"US","name":"Phil Foster Park","fclName":"parks,area, ...","adminCodes1":{"ISO3166_2":"FL"},"countryName":"United States","fcodeName":"park","adminName1":"Florida","lat":"26.78439","fcode":"PRK"},{"adminCode1":"IL","lng":"-90.07511","geonameId":4238899,"toponymName":"Fosterburg","countryId":"6252001","fcl":"P","population":0,"countryCode":"US","name":"Fosterburg","fclName":"city, village,...","adminCodes1":{"ISO3166_2":"IL"},"countryName":"United States","fcodeName":"populated place","adminName1":"Illinois","lat":"38.97171","fcode":"PPL"},{"adminCode1":"MN","lng":"-96.74007","geonameId":5053546,"toponymName":"Yankeetown","countryId":"6252001","fcl":"P","population":0,"countryCode":"US","name":"Yankeetown","fclName":"city, village,...","adminCodes1":{"ISO3166_2":"MN"},"countryName":"United States","fcodeName":"populated place","adminName1":"Minnesota","lat":"45.49107","fcode":"PPL"},{"adminCode1":"OR","lng":"-119.21724","geonameId":5754308,"toponymName":"Stanfield","countryId":"6252001","fcl":"P","population":2082,"countryCode":"US","name":"Stanfield","fclName":"city, village,...","adminCodes1":{"ISO3166_2":"OR"},"countryName":"United States","fcodeName":"populated place","adminName1":"Oregon","lat":"45.78041","fcode":"PPL"},{"adminCode1":"CT","lng":"-73.00942","geonameId":4835845,"toponymName":"Hartland Pond","countryId":"6252001","fcl":"H","population":0,"countryCode":"US","name":"Hartland Pond","fclName":"stream, lake, ...","adminCodes1":{"ISO3166_2":"CT"},"countryName":"United States","fcodeName":"lake","adminName1":"Connecticut","lat":"42.01859","fcode":"LK"},{"adminCode1":"IL","lng":"-90.09764","geonameId":4238897,"toponymName":"Township of Foster","countryId":"6252001","fcl":"A","population":0,"countryCode":"US","name":"Foster Township","fclName":"country, state, region,...","adminCodes1":{"ISO3166_2":"IL"},"countryName":"United States","fcodeName":"third-order administrative division","adminName1":"Illinois","lat":"38.96183","fcode":"ADM3"},{"adminCode1":"IL","lng":"-88.97612","geonameId":4238898,"toponymName":"Township of Foster","countryId":"6252001","fcl":"A","population":0,"countryCode":"US","name":"Foster Township","fclName":"country, state, region,...","adminCodes1":{"ISO3166_2":"IL"},"countryName":"United States","fcodeName":"third-order administrative division","adminName1":"Illinois","lat":"38.77998","fcode":"ADM3"},{"adminCode1":"PA","lng":"-75.833","geonameId":5190133,"toponymName":"Township of Foster","countryId":"6252001","fcl":"A","population":0,"countryCode":"US","name":"Foster Township","fclName":"country, state, region,...","adminCodes1":{"ISO3166_2":"PA"},"countryName":"United States","fcodeName":"third-order administrative division","adminName1":"Pennsylvania","lat":"41.01789","fcode":"ADM3"},{"adminCode1":"PA","lng":"-78.61699","geonameId":5190134,"toponymName":"Township of Foster","countryId":"6252001","fcl":"A","population":0,"countryCode":"US","name":"Foster Township","fclName":"country, state, region,...","adminCodes1":{"ISO3166_2":"PA"},"countryName":"United States","fcodeName":"third-order administrative division","adminName1":"Pennsylvania","lat":"41.96087","fcode":"ADM3"},{"adminCode1":"PA","lng":"-76.3609","geonameId":5190135,"toponymName":"Township of Foster","countryId":"6252001","fcl":"A","population":0,"countryCode":"US","name":"Foster Township","fclName":"country, state, region,...","adminCodes1":{"ISO3166_2":"PA"},"countryName":"United States","fcodeName":"third-order administrative division","adminName1":"Pennsylvania","lat":"40.69755","fcode":"ADM3"},{"adminCode1":"MN","lng":"-96.67233","geonameId":5027203,"toponymName":"Township of Foster","countryId":"6252001","fcl":"A","population":0,"countryCode":"US","name":"Foster Township","fclName":"country, state, region,...","adminCodes1":{"ISO3166_2":"MN"},"countryName":"United States","fcodeName":"third-order administrative division","adminName1":"Minnesota","lat":"45.46036","fcode":"ADM3"},{"adminCode1":"OH","lng":"-84.25299","geonameId":4512127,"toponymName":"Foster","countryId":"6252001","fcl":"P","population":0,"countryCode":"US","name":"Foster","fclName":"city, village,...","adminCodes1":{"ISO3166_2":"OH"},"countryName":"United States","fcodeName":"populated place","adminName1":"Ohio","lat":"39.31923","fcode":"PPL"},{"adminCode1":"VA","lng":"-77.75333","geonameId":4759804,"toponymName":"Foster Fork","countryId":"6252001","fcl":"P","population":0,"countryCode":"US","name":"Foster Fork","fclName":"city, village,...","adminCodes1":{"ISO3166_2":"VA"},"countryName":"United States","fcodeName":"populated place","adminName1":"Virginia","lat":"38.77484","fcode":"PPL"},{"adminCode1":"NE","lng":"-97.65867","geonameId":5068605,"toponymName":"Township of Foster","countryId":"6252001","fcl":"A","population":0,"countryCode":"US","name":"Foster Township","fclName":"country, state, region,...","adminCodes1":{"ISO3166_2":"NE"},"countryName":"United States","fcodeName":"administrative division","adminName1":"Nebraska","lat":"42.30556","fcode":"ADMD"},{"adminCode1":"ME","lng":"-69.56643","geonameId":4964715,"toponymName":"Foster Point","countryId":"6252001","fcl":"T","population":0,"countryCode":"US","name":"Foster Point","fclName":"mountain,hill,rock,... ","adminCodes1":{"ISO3166_2":"ME"},"countryName":"United States","fcodeName":"cape","adminName1":"Maine","lat":"43.84314","fcode":"CAPE"},{"adminCode1":"MA","lng":"-72.12452","geonameId":4937143,"toponymName":"Foster Hill","countryId":"6252001","fcl":"T","population":0,"countryCode":"US","name":"Foster Hill","fclName":"mountain,hill,rock,... ","adminCodes1":{"ISO3166_2":"MA"},"countryName":"United States","fcodeName":"mountain","adminName1":"Massachusetts","lat":"42.22787","fcode":"MT"},{"adminCode1":"WA","lng":"-122.27568","geonameId":5794848,"toponymName":"Foster","countryId":"6252001","fcl":"P","population":0,"countryCode":"US","name":"Foster","fclName":"city, village,...","adminCodes1":{"ISO3166_2":"WA"},"countryName":"United States","fcodeName":"populated place","adminName1":"Washington","lat":"47.48149","fcode":"PPL"},{"adminCode1":"WA","lng":"-119.36476","geonameId":5794849,"toponymName":"Foster Coulee","countryId":"6252001","fcl":"T","population":0,"countryCode":"US","name":"Foster Coulee","fclName":"mountain,hill,rock,... ","adminCodes1":{"ISO3166_2":"WA"},"countryName":"United States","fcodeName":"valley","adminName1":"Washington","lat":"47.91237","fcode":"VAL"},{"adminCode1":"WA","lng":"-122.29429","geonameId":5794859,"toponymName":"Foster Island","countryId":"6252001","fcl":"T","population":0,"countryCode":"US","name":"Foster Island","fclName":"mountain,hill,rock,... ","adminCodes1":{"ISO3166_2":"WA"},"countryName":"United States","fcodeName":"island","adminName1":"Washington","lat":"47.64454","fcode":"ISL"},{"adminCode1":"CT","lng":"-72.76612","geonameId":5282441,"toponymName":"Bishops Pond","countryId":"6252001","fcl":"H","population":0,"countryCode":"US","name":"Bishops Pond","fclName":"stream, lake, ...","adminCodes1":{"ISO3166_2":"CT"},"countryName":"United States","fcodeName":"lake","adminName1":"Connecticut","lat":"41.50762","fcode":"LK"},{"adminCode1":"RI","lng":"-71.73569","geonameId":5222177,"toponymName":"Town of Foster","countryId":"6252001","fcl":"A","population":4698,"countryCode":"US","name":"Town of Foster","fclName":"country, state, region,...","adminCodes1":{"ISO3166_2":"RI"},"countryName":"United States","fcodeName":"third-order administrative division","adminName1":"Rhode Island","lat":"41.78911","fcode":"ADM3"},{"adminCode1":"GA","lng":"-85.1819","geonameId":4195922,"toponymName":"Foster Hills","countryId":"6252001","fcl":"P","population":0,"countryCode":"US","name":"Foster Hills","fclName":"city, village,...","adminCodes1":{"ISO3166_2":"GA"},"countryName":"United States","fcodeName":"populated place","adminName1":"Georgia","lat":"34.96896","fcode":"PPL"}]}
