{"totalResultsCount":7229,"geonames":[{"adminCode1":"OH","lng":"-83.09296","geonameId":4513409,"toponymName":"Grove City","countryId":"6252001","fcl":"P","population":39388,"countryCode":"US","name":"Grove City","fclName":"city, village,...","adminCodes1":{"ISO3166_2":"OH"},"countryName":"United States","fcodeName":"populated place","adminName1":"Ohio","lat":"39.88145","fcode":"PPL"},{"adminCode1":"OH","lng":"-82.81212","geonameId":4522411,"toponymName":"Reynoldsburg","countryId":"6252001","fcl":"P","population":37158,"countryCode":"US","name":"Reynoldsburg","fclName":"city, village,...","adminCodes1":{"ISO3166_2":"OH"},"countryName":"United States","fcodeName":"populated place","adminName1":"Ohio","lat":"39.95479","fcode":"PPL"},{"adminCode1":"MO","lng":"-91.01209","geonameId":4413621,"toponymName":"Washington","countryId":"6252001","fcl":"P","population":14050,"countryCode":"US","name":"Washington","fclName":"city, village,...","adminCodes1":{"ISO3166_2":"MO"},"countryName":"United States","fcodeName":"populated place","adminName1":"Missouri","lat":"38.55811","fcode":"PPL"},{"adminCode1":"MO","lng":"-91.21904","geonameId":4400289,"toponymName":"New Haven","countryId":"6252001","fcl":"P","population":2096,"countryCode":"US","name":"New Haven","fclName":"city, village,...","adminCodes1":{"ISO3166_2":"MO"},"countryName":"United States","fcodeName":"populated place","adminName1":"Missouri","lat":"38.60838","fcode":"PPL"},{"adminCode1":"IN","lng":"-85.25772","geonameId":4258943,"toponymName":"Hillenbrand Industries Airport","countryId":"6252001","fcl":"S","population":0,"countryCode":"US","name":"Hillenbrand Industries Airport","fclName":"spot, building, farm","adminCodes1":{"ISO3166_2":"IN"},"countryName":"United States","fcodeName":"airport","adminName1":"Indiana","lat":"39.35088","fcode":"AIRP"},{"adminCode1":"IA","lng":"-93.61994","geonameId":4846834,"toponymName":"Ames","countryId":"6252001","fcl":"P","population":65060,"countryCode":"US","name":"Ames","fclName":"city, village,...","adminCodes1":{"ISO3166_2":"IA"},"countryName":"United States","fcodeName":"populated place","adminName1":"Iowa","lat":"42.03471","fcode":"PPL"},{"adminCode1":"OH","lng":"-82.88379","geonameId":4513425,"toponymName":"Groveport","countryId":"6252001","fcl":"P","population":5737,"countryCode":"US","name":"Groveport","fclName":"city, village,...","adminCodes1":{"ISO3166_2":"OH"},"countryName":"United States","fcodeName":"populated place","adminName1":"Ohio","lat":"39.8784","fcode":"PPL"},{"adminCode1":"AR","lng":"-94.03632","geonameId":4105377,"toponymName":"Charleston","countryId":"6252001","fcl":"P","population":2483,"countryCode":"US","name":"Charleston","fclName":"city, village,...","adminCodes1":{"ISO3166_2":"AR"},"countryName":"United States","fcodeName":"populated place","adminName1":"Arkansas","lat":"35.29704","fcode":"PPL"},{"adminCode1":"OH","lng":"-82.87934","geonameId":5155393,"toponymName":"Gahanna","countryId":"6252001","fcl":"P","population":34590,"countryCode":"US","name":"Gahanna","fclName":"city, village,...","adminCodes1":{"ISO3166_2":"OH"},"countryName":"United States","fcodeName":"populated place","adminName1":"Ohio","lat":"40.01923","fcode":"PPL"},{"adminCode1":"OH","lng":"-83.15825","geonameId":5157588,"toponymName":"Hilliard","countryId":"6252001","fcl":"P","population":33649,"countryCode":"US","name":"Hilliard","fclName":"city, village,...","adminCodes1":{"ISO3166_2":"OH"},"countryName":"United States","fcodeName":"populated place","adminName1":"Ohio","lat":"40.0334","fcode":"PPL"},{"adminCode1":"KS","lng":"-95.08164","geonameId":4281412,"toponymName":"Wellsville","countryId":"6252001","fcl":"P","population":1818,"countryCode":"US","name":"Wellsville","fclName":"city, village,...","adminCodes1":{"ISO3166_2":"KS"},"countryName":"United States","fcodeName":"populated place","adminName1":"Kansas","lat":"38.71834","fcode":"PPL"},{"adminCode1":"OH","lng":"-84.30411","geonameId":4512203,"toponymName":"Franklin","countryId":"6252001","fcl":"P","population":11783,"countryCode":"US","name":"Franklin","fclName":"city, village,...","adminCodes1":{"ISO3166_2":"OH"},"countryName":"United States","fcodeName":"populated place","adminName1":"Ohio","lat":"39.55895","fcode":"PPL"},{"adminCode1":"NC","lng":"-78.33028","geonameId":6298551,"toponymName":"Louisburg, Franklin County Airport","countryId":"6252001","fcl":"S","population":0,"countryCode":"US","name":"Louisburg, Franklin County Airport","fclName":"spot, building, farm","adminCodes1":{"ISO3166_2":"NC"},"countryName":"United States","fcodeName":"airport","adminName1":"North Carolina","lat":"36.02333","fcode":"AIRP"},{"adminCode1":"MO","lng":"-90.74152","geonameId":4402300,"toponymName":"Pacific","countryId":"6252001","fcl":"P","population":7161,"countryCode":"US","name":"Pacific","fclName":"city, village,...","adminCodes1":{"ISO3166_2":"MO"},"countryName":"United States","fcodeName":"populated place","adminName1":"Missouri","lat":"38.482","fcode":"PPL"},{"adminCode1":"IL","lng":"-89.11452","geonameId":4248562,"toponymName":"Royalton","countryId":"6252001","fcl":"P","population":1138,"countryCode":"US","name":"Royalton","fclName":"city, village,...","adminCodes1":{"ISO3166_2":"IL"},"countryName":"United States","fcodeName":"populated place","adminName1":"Illinois","lat":"37.87699","fcode":"PPL"},{"adminCode1":"IL","lng":"-89.05035","geonameId":4249704,"toponymName":"Sesser","countryId":"6252001","fcl":"P","population":1906,"countryCode":"US","name":"Sesser","fclName":"city, village,...","adminCodes1":{"ISO3166_2":"IL"},"countryName":"United States","fcodeName":"populated place","adminName1":"Illinois","lat":"38.09172","fcode":"PPL"},{"adminCode1":"IL","lng":"-89.05341","geonameId":4235804,"toponymName":"Christopher","countryId":"6252001","fcl":"P","population":2779,"countryCode":"US","name":"Christopher","fclName":"city, village,...","adminCodes1":{"ISO3166_2":"IL"},"countryName":"United States","fcodeName":"populated place","adminName1":"Illinois","lat":"37.97255","fcode":"PPL"},{"adminCode1":"IL","lng":"-88.93146","geonameId":4252812,"toponymName":"West Frankfort","countryId":"6252001","fcl":"P","population":8067,"countryCode":"US","name":"West Frankfort","fclName":"city, village,...","adminCodes1":{"ISO3166_2":"IL"},"countryName":"United States","fcodeName":"populated place","adminName1":"Illinois","lat":"37.89783","fcode":"PPL"},{"adminCode1":"IL","lng":"-89.05202","geonameId":4253591,"toponymName":"Zeigler","countryId":"6252001","fcl":"P","population":1765,"countryCode":"US","name":"Zeigler","fclName":"city, village,...","adminCodes1":{"ISO3166_2":"IL"},"countryName":"United States","fcodeName":"populated place","adminName1":"Illinois","lat":"37.89949","fcode":"PPL"},{"adminCode1":"MO","lng":"-91.33071","geonameId":4387807,"toponymName":"Gerald","countryId":"6252001","fcl":"P","population":1318,"countryCode":"US","name":"Gerald","fclName":"city, village,...","adminCodes1":{"ISO3166_2":"MO"},"countryName":"United States","fcodeName":"populated place","adminName1":"Missouri","lat":"38.39977","fcode":"PPL"},{"adminCode1":"MO","lng":"-90.98097","geonameId":4406840,"toponymName":"Saint Clair","countryId":"6252001","fcl":"P","population":4724,"countryCode":"US","name":"Saint Clair","fclName":"city, village,...","adminCodes1":{"ISO3166_2":"MO"},"countryName":"United States","fcodeName":"populated place","adminName1":"Missouri","lat":"38.34533","fcode":"PPL"},{"adminCode1":"MO","lng":"-90.8168","geonameId":4388632,"toponymName":"Gray Summit","countryId":"6252001","fcl":"P","population":2701,"countryCode":"US","name":"Gray Summit","fclName":"city, village,...","adminCodes1":{"ISO3166_2":"MO"},"countryName":"United States","fcodeName":"populated place","adminName1":"Missouri","lat":"38.48978","fcode":"PPL"},{"adminCode1":"MO","lng":"-91.16042","geonameId":4410669,"toponymName":"Sullivan","countryId":"6252001","fcl":"P","population":7135,"countryCode":"US","name":"Sullivan","fclName":"city, village,...","adminCodes1":{"ISO3166_2":"MO"},"countryName":"United States","fcodeName":"populated place","adminName1":"Missouri","lat":"38.2081","fcode":"PPL"},{"adminCode1":"MO","lng":"-91.00848","geonameId":4412454,"toponymName":"Union","countryId":"6252001","fcl":"P","population":10957,"countryCode":"US","name":"Union","fclName":"city, village,...","adminCodes1":{"ISO3166_2":"MO"},"countryName":"United States","fcodeName":"seat of a second-order administrative division","adminName1":"Missouri","lat":"38.45005","fcode":"PPLA2"},{"adminCode1":"IN","lng":"-85.01274","geonameId":4254999,"toponymName":"Brookville","countryId":"6252001","fcl":"P","population":2566,"countryCode":"US","name":"Brookville","fclName":"city, village,...","adminCodes1":{"ISO3166_2":"IN"},"countryName":"United States","fcodeName":"seat of a second-order administrative division","adminName1":"Indiana","lat":"39.42311","fcode":"PPLA2"},{"adminCode1":"ME","lng":"-70.22812","geonameId":4983257,"toponymName":"Wilton","countryId":"6252001","fcl":"P","population":2198,"countryCode":"US","name":"Wilton","fclName":"city, village,...","adminCodes1":{"ISO3166_2":"ME"},"countryName":"United States","fcodeName":"populated place","adminName1":"Maine","lat":"44.59284","fcode":"PPL"},{"adminCode1":"MA","lng":"-72.69676","geonameId":4933660,"toponymName":"Colrain","countryId":"6252001","fcl":"P","population":1845,"countryCode":"US","name":"Colrain","fclName":"city, village,...","adminCodes1":{"ISO3166_2":"MA"},"countryName":"United States","fcodeName":"populated place","adminName1":"Massachusetts","lat":"42.67314","fcode":"PPL"},{"adminCode1":"MO","lng":"-90.8868","geonameId":4828696,"toponymName":"Villa Ridge","countryId":"6252001","fcl":"P","population":2636,"countryCode":"US","name":"Villa Ridge","fclName":"city, village,...","adminCodes1":{"ISO3166_2":"MO"},"countryName":"United States","fcodeName":"populated place","adminName1":"Missouri","lat":"38.47255","fcode":"PPL"},{"adminCode1":"OH","lng":"-82.80879","geonameId":5164202,"toponymName":"New Albany","countryId":"6252001","fcl":"P","population":9879,"countryCode":"US","name":"New Albany","fclName":"city, village,...","adminCodes1":{"ISO3166_2":"OH"},"countryName":"United States","fcodeName":"populated place","adminName1":"Ohio","lat":"40.08117","fcode":"PPL"},{"adminCode1":"OH","lng":"-82.81129","geonameId":4506652,"toponymName":"Blacklick","countryId":"6252001","fcl":"P","population":0,"countryCode":"US","name":"Blacklick","fclName":"city, village,...","adminCodes1":{"ISO3166_2":"OH"},"countryName":"United States","fcodeName":"populated place","adminName1":"Ohio","lat":"39.99562","fcode":"PPL"},{"adminCode1":"OH","lng":"-83.17102","geonameId":4513798,"toponymName":"Harrisburg","countryId":"6252001","fcl":"P","population":334,"countryCode":"US","name":"Harrisburg","fclName":"city, village,...","adminCodes1":{"ISO3166_2":"OH"},"countryName":"United States","fcodeName":"populated place","adminName1":"Ohio","lat":"39.80951","fcode":"PPL"},{"adminCode1":"OH","lng":"-82.80462","geonameId":4507883,"toponymName":"Canal Winchester","countryId":"6252001","fcl":"P","population":7818,"countryCode":"US","name":"Canal Winchester","fclName":"city, village,...","adminCodes1":{"ISO3166_2":"OH"},"countryName":"United States","fcodeName":"populated place","adminName1":"Ohio","lat":"39.84284","fcode":"PPL"},{"adminCode1":"AR","lng":"-93.76242","geonameId":4099350,"toponymName":"Altus","countryId":"6252001","fcl":"P","population":730,"countryCode":"US","name":"Altus","fclName":"city, village,...","adminCodes1":{"ISO3166_2":"AR"},"countryName":"United States","fcodeName":"populated place","adminName1":"Arkansas","lat":"35.4462","fcode":"PPL"},{"adminCode1":"AR","lng":"-93.8277","geonameId":4125181,"toponymName":"Ozark","countryId":"6252001","fcl":"P","population":3590,"countryCode":"US","name":"Ozark","fclName":"city, village,...","adminCodes1":{"ISO3166_2":"AR"},"countryName":"United States","fcodeName":"populated place","adminName1":"Arkansas","lat":"35.48703","fcode":"PPL"},{"adminCode1":"OH","lng":"-83.01796","geonameId":5177396,"toponymName":"Worthington","countryId":"6252001","fcl":"P","population":14498,"countryCode":"US","name":"Worthington","fclName":"city, village,...","adminCodes1":{"ISO3166_2":"OH"},"countryName":"United States","fcodeName":"populated place","adminName1":"Ohio","lat":"40.09312","fcode":"PPL"},{"adminCode1":"ME","lng":"-70.33951","geonameId":5281077,"toponymName":"Phillips","countryId":"6252001","fcl":"P","population":1029,"countryCode":"US","name":"Phillips","fclName":"city, village,...","adminCodes1":{"ISO3166_2":"ME"},"countryName":"United States","fcodeName":"populated place","adminName1":"Maine","lat":"44.82311","fcode":"PPL"},{"adminCode1":"ME","lng":"-70.01561","geonameId":4973288,"toponymName":"New Sharon","countryId":"6252001","fcl":"P","population":1348,"countryCode":"US","name":"New Sharon","fclName":"city, village,...","adminCodes1":{"ISO3166_2":"ME"},"countryName":"United States","fcodeName":"populated place","adminName1":"Maine","lat":"44.63895","fcode":"PPL"},{"adminCode1":"ME","lng":"-70.2209","geonameId":4980051,"toponymName":"Strong","countryId":"6252001","fcl":"P","population":1309,"countryCode":"US","name":"Strong","fclName":"city, village,...","adminCodes1":{"ISO3166_2":"ME"},"countryName":"United States","fcodeName":"populated place","adminName1":"Maine","lat":"44.80756","fcode":"PPL"},{"adminCode1":"ME","lng":"-70.21617","geonameId":4968234,"toponymName":"Jay","countryId":"6252001","fcl":"P","population":4988,"countryCode":"US","name":"Jay","fclName":"city, village,...","adminCodes1":{"ISO3166_2":"ME"},"countryName":"United States","fcodeName":"populated place","adminName1":"Maine","lat":"44.50395","fcode":"PPL"},{"adminCode1":"ME","lng":"-70.15395","geonameId":4968894,"toponymName":"Kingfield","countryId":"6252001","fcl":"P","population":1147,"countryCode":"US","name":"Kingfield","fclName":"city, village,...","adminCodes1":{"ISO3166_2":"ME"},"countryName":"United States","fcodeName":"populated place","adminName1":"Maine","lat":"44.95922","fcode":"PPL"},{"adminCode1":"PA","lng":"-77.54999","geonameId":4557920,"toponymName":"Fayetteville","countryId":"6252001","fcl":"P","population":3128,"countryCode":"US","name":"Fayetteville","fclName":"city, village,...","adminCodes1":{"ISO3166_2":"PA"},"countryName":"United States","fcodeName":"populated place","adminName1":"Pennsylvania","lat":"39.9112","fcode":"PPL"},{"adminCode1":"PA","lng":"-77.58721","geonameId":4561120,"toponymName":"Scotland","countryId":"6252001","fcl":"P","population":1395,"countryCode":"US","name":"Scotland","fclName":"city, village,...","adminCodes1":{"ISO3166_2":"PA"},"countryName":"United States","fcodeName":"populated place","adminName1":"Pennsylvania","lat":"39.9687","fcode":"PPL"},{"adminCode1":"IL","lng":"-88.92007","geonameId":4233586,"toponymName":"Benton","countryId":"6252001","fcl":"P","population":7041,"countryCode":"US","name":"Benton","fclName":"city, village,...","adminCodes1":{"ISO3166_2":"IL"},"countryName":"United States","fcodeName":"seat of a second-order administrative division","adminName1":"Illinois","lat":"37.99672","fcode":"PPLA2"},{"adminCode1":"NE","lng":"-98.73202","geonameId":5065153,"toponymName":"Campbell","countryId":"6252001","fcl":"P","population":306,"countryCode":"US","name":"Campbell","fclName":"city, village,...","adminCodes1":{"ISO3166_2":"NE"},"countryName":"United States","fcodeName":"populated place","adminName1":"Nebraska","lat":"40.29835","fcode":"PPL"},{"adminCode1":"MO","lng":"-91.33877","geonameId":4376618,"toponymName":"Berger","countryId":"6252001","fcl":"P","population":220,"countryCode":"US","name":"Berger","fclName":"city, village,...","adminCodes1":{"ISO3166_2":"MO"},"countryName":"United States","fcodeName":"populated place","adminName1":"Missouri","lat":"38.67421","fcode":"PPL"},{"adminCode1":"IL","lng":"-88.93342","geonameId":4233596,"toponymName":"Benton Municipal Airport","countryId":"6252001","fcl":"S","population":0,"countryCode":"US","name":"Benton Municipal Airport","fclName":"spot, building, farm","adminCodes1":{"ISO3166_2":"IL"},"countryName":"United States","fcodeName":"airport","adminName1":"Illinois","lat":"38.00568","fcode":"AIRP"},{"adminCode1":"IL","lng":"-89.01618","geonameId":4234753,"toponymName":"Buckner","countryId":"6252001","fcl":"P","population":451,"countryCode":"US","name":"Buckner","fclName":"city, village,...","adminCodes1":{"ISO3166_2":"IL"},"countryName":"United States","fcodeName":"populated place","adminName1":"Illinois","lat":"37.98311","fcode":"PPL"},{"adminCode1":"IL","lng":"-88.76228","geonameId":4251252,"toponymName":"Thompsonville","countryId":"6252001","fcl":"P","population":536,"countryCode":"US","name":"Thompsonville","fclName":"city, village,...","adminCodes1":{"ISO3166_2":"IL"},"countryName":"United States","fcodeName":"populated place","adminName1":"Illinois","lat":"37.91755","fcode":"PPL"},{"adminCode1":"IL","lng":"-89.04257","geonameId":4251879,"toponymName":"Valier","countryId":"6252001","fcl":"P","population":659,"countryCode":"US","name":"Valier","fclName":"city, village,...","adminCodes1":{"ISO3166_2":"IL"},"countryName":"United States","fcodeName":"populated place","adminName1":"Illinois","lat":"38.01533","fcode":"PPL"},{"adminCode1":"IL","lng":"-88.84034","geonameId":4240174,"toponymName":"Logan","countryId":"6252001","fcl":"P","population":327,"countryCode":"US","name":"Logan","fclName":"city, village,...","adminCodes1":{"ISO3166_2":"IL"},"countryName":"United States","fcodeName":"populated place","adminName1":"Illinois","lat":"37.95588","fcode":"PPL"},{"adminCode1":"IL","lng":"-89.11147","geonameId":4245311,"toponymName":"Mulkeytown","countryId":"6252001","fcl":"P","population":175,"countryCode":"US","name":"Mulkeytown","fclName":"city, village,...","adminCodes1":{"ISO3166_2":"IL"},"countryName":"United States","fcodeName":"populated place","adminName1":"Illinois","lat":"37.97088","fcode":"PPL"},{"adminCode1":"IL","lng":"-88.97757","geonameId":4246449,"toponymName":"Orient","countryId":"6252001","fcl":"P","population":353,"countryCode":"US","name":"Orient","fclName":"city, village,...","adminCodes1":{"ISO3166_2":"IL"},"countryName":"United States","fcodeName":"populated place","adminName1":"Illinois","lat":"37.91838","fcode":"PPL"},{"adminCode1":"IL","lng":"-88.85229","geonameId":4238049,"toponymName":"Ewing","countryId":"6252001","fcl":"P","population":304,"countryCode":"US","name":"Ewing","fclName":"city, village,...","adminCodes1":{"ISO3166_2":"IL"},"countryName":"United States","fcodeName":"populated place","adminName1":"Illinois","lat":"38.08866","fcode":"PPL"},{"adminCode1":"IL","lng":"-88.90284","geonameId":4253064,"toponymName":"Whittington","countryId":"6252001","fcl":"P","population":0,"countryCode":"US","name":"Whittington","fclName":"city, village,...","adminCodes1":{"ISO3166_2":"IL"},"countryName":"United States","fcodeName":"populated place","adminName1":"Illinois","lat":"38.08922","fcode":"PPL"},{"adminCode1":"KS","lng":"-95.46692","geonameId":4281806,"toponymName":"Williamsburg","countryId":"6252001","fcl":"P","population":384,"countryCode":"US","name":"Williamsburg","fclName":"city, village,...","adminCodes1":{"ISO3166_2":"KS"},"countryName":"United States","fcodeName":"populated place","adminName1":"Kansas","lat":"38.48057","fcode":"PPL"},{"adminCode1":"KS","lng":"-95.27525","geonameId":4277762,"toponymName":"Princeton","countryId":"6252001","fcl":"P","population":265,"countryCode":"US","name":"Princeton","fclName":"city, village,...","adminCodes1":{"ISO3166_2":"KS"},"countryName":"United States","fcodeName":"populated place","adminName1":"Kansas","lat":"38.4889","fcode":"PPL"},{"adminCode1":"KS","lng":"-95.10025","geonameId":4277890,"toponymName":"Rantoul","countryId":"6252001","fcl":"P","population":182,"countryCode":"US","name":"Rantoul","fclName":"city, village,...","adminCodes1":{"ISO3166_2":"KS"},"countryName":"United States","fcodeName":"populated place","adminName1":"Kansas","lat":"38.54862","fcode":"PPL"},{"adminCode1":"KS","lng":"-95.25386","geonameId":4278034,"toponymName":"Richmond","countryId":"6252001","fcl":"P","population":455,"countryCode":"US","name":"Richmond","fclName":"city, village,...","adminCodes1":{"ISO3166_2":"KS"},"countryName":"United States","fcodeName":"populated place","adminName1":"Kansas","lat":"38.4028","fcode":"PPL"},{"adminCode1":"KS","lng":"-95.08219","geonameId":4274213,"toponymName":"Lane","countryId":"6252001","fcl":"P","population":223,"countryCode":"US","name":"Lane","fclName":"city, village,...","adminCodes1":{"ISO3166_2":"KS"},"countryName":"United States","fcodeName":"populated place","adminName1":"Kansas","lat":"38.43974","fcode":"PPL"},{"adminCode1":"IA","lng":"-93.42604","geonameId":4871852,"toponymName":"Popejoy","countryId":"6252001","fcl":"P","population":77,"countryCode":"US","name":"Popejoy","fclName":"city, village,...","adminCodes1":{"ISO3166_2":"IA"},"countryName":"United States","fcodeName":"populated place","adminName1":"Iowa","lat":"42.59387","fcode":"PPL"},{"adminCode1":"IA","lng":"-93.36826","geonameId":4864232,"toponymName":"Latimer","countryId":"6252001","fcl":"P","population":483,"countryCode":"US","name":"Latimer","fclName":"city, village,...","adminCodes1":{"ISO3166_2":"IA"},"countryName":"United States","fcodeName":"populated place","adminName1":"Iowa","lat":"42.76331","fcode":"PPL"},{"adminCode1":"IA","lng":"-93.47659","geonameId":4846596,"toponymName":"Alexander","countryId":"6252001","fcl":"P","population":170,"countryCode":"US","name":"Alexander","fclName":"city, village,...","adminCodes1":{"ISO3166_2":"IA"},"countryName":"United States","fcodeName":"populated place","adminName1":"Iowa","lat":"42.8058","fcode":"PPL"},{"adminCode1":"IA","lng":"-93.24492","geonameId":4849210,"toponymName":"Bradford","countryId":"6252001","fcl":"P","population":99,"countryCode":"US","name":"Bradford","fclName":"city, village,...","adminCodes1":{"ISO3166_2":"IA"},"countryName":"United States","fcodeName":"populated place","adminName1":"Iowa","lat":"42.63303","fcode":"PPL"},{"adminCode1":"IA","lng":"-93.22215","geonameId":4851134,"toponymName":"Chapin","countryId":"6252001","fcl":"P","population":87,"countryCode":"US","name":"Chapin","fclName":"city, village,...","adminCodes1":{"ISO3166_2":"IA"},"countryName":"United States","fcodeName":"populated place","adminName1":"Iowa","lat":"42.83358","fcode":"PPL"},{"adminCode1":"IA","lng":"-93.36993","geonameId":4852825,"toponymName":"Coulter","countryId":"6252001","fcl":"P","population":271,"countryCode":"US","name":"Coulter","fclName":"city, village,...","adminCodes1":{"ISO3166_2":"IA"},"countryName":"United States","fcodeName":"populated place","adminName1":"Iowa","lat":"42.7372","fcode":"PPL"},{"adminCode1":"MO","lng":"-90.78263","geonameId":4380318,"toponymName":"Catawissa","countryId":"6252001","fcl":"P","population":0,"countryCode":"US","name":"Catawissa","fclName":"city, village,...","adminCodes1":{"ISO3166_2":"MO"},"countryName":"United States","fcodeName":"populated place","adminName1":"Missouri","lat":"38.42478","fcode":"PPL"},{"adminCode1":"MO","lng":"-91.23209","geonameId":4394950,"toponymName":"Leslie","countryId":"6252001","fcl":"P","population":169,"countryCode":"US","name":"Leslie","fclName":"city, village,...","adminCodes1":{"ISO3166_2":"MO"},"countryName":"United States","fcodeName":"populated place","adminName1":"Missouri","lat":"38.41783","fcode":"PPL"},{"adminCode1":"MO","lng":"-90.81402","geonameId":4405946,"toponymName":"Robertsville","countryId":"6252001","fcl":"P","population":0,"countryCode":"US","name":"Robertsville","fclName":"city, village,...","adminCodes1":{"ISO3166_2":"MO"},"countryName":"United States","fcodeName":"populated place","adminName1":"Missouri","lat":"38.41477","fcode":"PPL"},{"adminCode1":"NE","lng":"-99.03703","geonameId":5064303,"toponymName":"Bloomington","countryId":"6252001","fcl":"P","population":97,"countryCode":"US","name":"Bloomington","fclName":"city, village,...","adminCodes1":{"ISO3166_2":"NE"},"countryName":"United States","fcodeName":"populated place","adminName1":"Nebraska","lat":"40.09418","fcode":"PPL"},{"adminCode1":"MA","lng":"-72.33897","geonameId":4954537,"toponymName":"Warwick","countryId":"6252001","fcl":"P","population":763,"countryCode":"US","name":"Warwick","fclName":"city, village,...","adminCodes1":{"ISO3166_2":"MA"},"countryName":"United States","fcodeName":"populated place","adminName1":"Massachusetts","lat":"42.68203","fcode":"PPL"},{"adminCode1":"MA","lng":"-72.86982","geonameId":4932757,"toponymName":"Charlemont","countryId":"6252001","fcl":"P","population":1382,"countryCode":"US","name":"Charlemont","fclName":"city, village,...","adminCodes1":{"ISO3166_2":"MA"},"countryName":"United States","fcodeName":"populated place","adminName1":"Massachusetts","lat":"42.62786","fcode":"PPL"},{"adminCode1":"MO","lng":"-91.18904","geonameId":4376185,"toponymName":"Beaufort","countryId":"6252001","fcl":"P","population":0,"countryCode":"US","name":"Beaufort","fclName":"city, village,...","adminCodes1":{"ISO3166_2":"MO"},"countryName":"United States","fcodeName":"populated place","adminName1":"Missouri","lat":"38.42088","fcode":"PPL"},{"adminCode1":"MO","lng":"-90.85014","geonameId":4393999,"toponymName":"Labadie","countryId":"6252001","fcl":"P","population":0,"countryCode":"US","name":"Labadie","fclName":"city, village,...","adminCodes1":{"ISO3166_2":"MO"},"countryName":"United States","fcodeName":"populated place","adminName1":"Missouri","lat":"38.52894","fcode":"PPL"},{"adminCode1":"MO","lng":"-90.82763","geonameId":4396180,"toponymName":"Lonedell","countryId":"6252001","fcl":"P","population":0,"countryCode":"US","name":"Lonedell","fclName":"city, village,...","adminCodes1":{"ISO3166_2":"MO"},"countryName":"United States","fcodeName":"populated place","adminName1":"Missouri","lat":"38.30811","fcode":"PPL"},{"adminCode1":"MO","lng":"-90.8193","geonameId":4396589,"toponymName":"Luebbering","countryId":"6252001","fcl":"P","population":0,"countryCode":"US","name":"Luebbering","fclName":"city, village,...","adminCodes1":{"ISO3166_2":"MO"},"countryName":"United States","fcodeName":"populated place","adminName1":"Missouri","lat":"38.27033","fcode":"PPL"},{"adminCode1":"MO","lng":"-91.1057","geonameId":4410000,"toponymName":"Stanton","countryId":"6252001","fcl":"P","population":0,"countryCode":"US","name":"Stanton","fclName":"city, village,...","adminCodes1":{"ISO3166_2":"MO"},"countryName":"United States","fcodeName":"populated place","adminName1":"Missouri","lat":"38.27449","fcode":"PPL"},{"adminCode1":"MO","lng":"-91.16479","geonameId":4410677,"toponymName":"Sullivan Regional Airport","countryId":"6252001","fcl":"S","population":0,"countryCode":"US","name":"Sullivan Regional Airport","fclName":"spot, building, farm","adminCodes1":{"ISO3166_2":"MO"},"countryName":"United States","fcodeName":"airport","adminName1":"Missouri","lat":"38.23217","fcode":"AIRP"},{"adminCode1":"IN","lng":"-85.13941","geonameId":4261292,"toponymName":"Metamora","countryId":"6252001","fcl":"P","population":188,"countryCode":"US","name":"Metamora","fclName":"city, village,...","adminCodes1":{"ISO3166_2":"IN"},"countryName":"United States","fcodeName":"populated place","adminName1":"Indiana","lat":"39.44977","fcode":"PPL"},{"adminCode1":"IN","lng":"-84.90051","geonameId":4262151,"toponymName":"New Trenton","countryId":"6252001","fcl":"P","population":252,"countryCode":"US","name":"New Trenton","fclName":"city, village,...","adminCodes1":{"ISO3166_2":"IN"},"countryName":"United States","fcodeName":"populated place","adminName1":"Indiana","lat":"39.3095","fcode":"PPL"},{"adminCode1":"IN","lng":"-85.20441","geonameId":4262555,"toponymName":"Oldenburg","countryId":"6252001","fcl":"P","population":666,"countryCode":"US","name":"Oldenburg","fclName":"city, village,...","adminCodes1":{"ISO3166_2":"IN"},"countryName":"United States","fcodeName":"populated place","adminName1":"Indiana","lat":"39.33977","fcode":"PPL"},{"adminCode1":"IN","lng":"-84.86246","geonameId":4254187,"toponymName":"Bath","countryId":"6252001","fcl":"P","population":0,"countryCode":"US","name":"Bath","fclName":"city, village,...","adminCodes1":{"ISO3166_2":"IN"},"countryName":"United States","fcodeName":"populated place","adminName1":"Indiana","lat":"39.50838","fcode":"PPL"},{"adminCode1":"IN","lng":"-84.93773","geonameId":4255571,"toponymName":"Cedar Grove","countryId":"6252001","fcl":"P","population":154,"countryCode":"US","name":"Cedar Grove","fclName":"city, village,...","adminCodes1":{"ISO3166_2":"IN"},"countryName":"United States","fcodeName":"populated place","adminName1":"Indiana","lat":"39.357","fcode":"PPL"},{"adminCode1":"IN","lng":"-85.18635","geonameId":4260199,"toponymName":"Laurel","countryId":"6252001","fcl":"P","population":505,"countryCode":"US","name":"Laurel","fclName":"city, village,...","adminCodes1":{"ISO3166_2":"IN"},"countryName":"United States","fcodeName":"populated place","adminName1":"Indiana","lat":"39.50088","fcode":"PPL"},{"adminCode1":"NE","lng":"-99.0437","geonameId":5070125,"toponymName":"Hildreth","countryId":"6252001","fcl":"P","population":346,"countryCode":"US","name":"Hildreth","fclName":"city, village,...","adminCodes1":{"ISO3166_2":"NE"},"countryName":"United States","fcodeName":"populated place","adminName1":"Nebraska","lat":"40.33723","fcode":"PPL"},{"adminCode1":"NE","lng":"-99.14148","geonameId":5073628,"toponymName":"Naponee","countryId":"6252001","fcl":"P","population":100,"countryCode":"US","name":"Naponee","fclName":"city, village,...","adminCodes1":{"ISO3166_2":"NE"},"countryName":"United States","fcodeName":"populated place","adminName1":"Nebraska","lat":"40.07668","fcode":"PPL"},{"adminCode1":"NE","lng":"-98.75896","geonameId":5076300,"toponymName":"Riverton","countryId":"6252001","fcl":"P","population":84,"countryCode":"US","name":"Riverton","fclName":"city, village,...","adminCodes1":{"ISO3166_2":"NE"},"countryName":"United States","fcodeName":"populated place","adminName1":"Nebraska","lat":"40.08946","fcode":"PPL"},{"adminCode1":"NE","lng":"-98.90119","geonameId":5080895,"toponymName":"Upland","countryId":"6252001","fcl":"P","population":135,"countryCode":"US","name":"Upland","fclName":"city, village,...","adminCodes1":{"ISO3166_2":"NE"},"countryName":"United States","fcodeName":"populated place","adminName1":"Nebraska","lat":"40.31862","fcode":"PPL"},{"adminCode1":"ME","lng":"-70.20978","geonameId":4962889,"toponymName":"Dryden","countryId":"6252001","fcl":"P","population":0,"countryCode":"US","name":"Dryden","fclName":"city, village,...","adminCodes1":{"ISO3166_2":"ME"},"countryName":"United States","fcodeName":"populated place","adminName1":"Maine","lat":"44.58673","fcode":"PPL"},{"adminCode1":"ME","lng":"-70.30367","geonameId":4963252,"toponymName":"East Dixfield","countryId":"6252001","fcl":"P","population":0,"countryCode":"US","name":"East Dixfield","fclName":"city, village,...","adminCodes1":{"ISO3166_2":"ME"},"countryName":"United States","fcodeName":"populated place","adminName1":"Maine","lat":"44.5734","fcode":"PPL"},{"adminCode1":"ME","lng":"-70.19284","geonameId":4963409,"toponymName":"East Wilton","countryId":"6252001","fcl":"P","population":0,"countryCode":"US","name":"East Wilton","fclName":"city, village,...","adminCodes1":{"ISO3166_2":"ME"},"countryName":"United States","fcodeName":"populated place","adminName1":"Maine","lat":"44.61589","fcode":"PPL"},{"adminCode1":"OH","lng":"-82.94379","geonameId":5163149,"toponymName":"Minerva Park","countryId":"6252001","fcl":"P","population":1318,"countryCode":"US","name":"Minerva Park","fclName":"city, village,...","adminCodes1":{"ISO3166_2":"OH"},"countryName":"United States","fcodeName":"populated place","adminName1":"Ohio","lat":"40.07645","fcode":"PPL"},{"adminCode1":"OH","lng":"-82.91657","geonameId":5158156,"toponymName":"Huber Ridge","countryId":"6252001","fcl":"P","population":4604,"countryCode":"US","name":"Huber Ridge","fclName":"city, village,...","adminCodes1":{"ISO3166_2":"OH"},"countryName":"United States","fcodeName":"populated place","adminName1":"Ohio","lat":"40.08867","fcode":"PPL"},{"adminCode1":"OH","lng":"-82.92879","geonameId":5147669,"toponymName":"Blendon Corner","countryId":"6252001","fcl":"P","population":0,"countryCode":"US","name":"Blendon Corner","fclName":"city, village,...","adminCodes1":{"ISO3166_2":"OH"},"countryName":"United States","fcodeName":"populated place","adminName1":"Ohio","lat":"40.08034","fcode":"PPL"},{"adminCode1":"PA","lng":"-77.64692","geonameId":4557100,"toponymName":"Franklin County Regional Airport","countryId":"6252001","fcl":"S","population":0,"countryCode":"US","name":"Franklin County Regional Airport","fclName":"spot, building, farm","adminCodes1":{"ISO3166_2":"PA"},"countryName":"United States","fcodeName":"airport","adminName1":"Pennsylvania","lat":"39.97251","fcode":"AIRP"},{"adminCode1":"OH","lng":"-82.86434","geonameId":4506666,"toponymName":"Blacklick Estates","countryId":"6252001","fcl":"P","population":8682,"countryCode":"US","name":"Blacklick Estates","fclName":"city, village,...","adminCodes1":{"ISO3166_2":"OH"},"countryName":"United States","fcodeName":"populated place","adminName1":"Ohio","lat":"39.90506","fcode":"PPL"},{"adminCode1":"OH","lng":"-83.16241","geonameId":4512456,"toponymName":"Galloway","countryId":"6252001","fcl":"P","population":0,"countryCode":"US","name":"Galloway","fclName":"city, village,...","adminCodes1":{"ISO3166_2":"OH"},"countryName":"United States","fcodeName":"populated place","adminName1":"Ohio","lat":"39.91312","fcode":"PPL"},{"adminCode1":"OH","lng":"-82.83212","geonameId":4507045,"toponymName":"Brice","countryId":"6252001","fcl":"P","population":121,"countryCode":"US","name":"Brice","fclName":"city, village,...","adminCodes1":{"ISO3166_2":"OH"},"countryName":"United States","fcodeName":"populated place","adminName1":"Ohio","lat":"39.91812","fcode":"PPL"},{"adminCode1":"OH","lng":"-83.18565","geonameId":4509204,"toponymName":"Columbus Southwest Airport","countryId":"6252001","fcl":"S","population":0,"countryCode":"US","name":"Columbus Southwest Airport","fclName":"spot, building, farm","adminCodes1":{"ISO3166_2":"OH"},"countryName":"United States","fcodeName":"airport","adminName1":"Ohio","lat":"39.91354","fcode":"AIRP"},{"adminCode1":"OH","lng":"-83.2288","geonameId":4516127,"toponymName":"Lake Darby","countryId":"6252001","fcl":"P","population":4592,"countryCode":"US","name":"Lake Darby","fclName":"city, village,...","adminCodes1":{"ISO3166_2":"OH"},"countryName":"United States","fcodeName":"populated place","adminName1":"Ohio","lat":"39.95728","fcode":"PPL"},{"adminCode1":"OH","lng":"-83.13074","geonameId":4516701,"toponymName":"Lincoln Village","countryId":"6252001","fcl":"P","population":9032,"countryCode":"US","name":"Lincoln Village","fclName":"city, village,...","adminCodes1":{"ISO3166_2":"OH"},"countryName":"United States","fcodeName":"populated place","adminName1":"Ohio","lat":"39.95479","fcode":"PPL"}]}
