{"totalResultsCount":109,"geonames":[{"adminCode1":"MO","lng":"-91.32015","geonameId":4387168,"toponymName":"Frankford","countryId":"6252001","fcl":"P","population":321,"countryCode":"US","name":"Frankford","fclName":"city, village,...","adminCodes1":{"ISO3166_2":"MO"},"countryName":"United States","fcodeName":"populated place","adminName1":"Missouri","lat":"39.49004","fcode":"PPL"},{"adminCode1":"DE","lng":"-75.23491","geonameId":4142601,"toponymName":"Frankford","countryId":"6252001","fcl":"P","population":933,"countryCode":"US","name":"Frankford","fclName":"city, village,...","adminCodes1":{"ISO3166_2":"DE"},"countryName":"United States","fcodeName":"populated place","adminName1":"Delaware","lat":"38.51734","fcode":"PPL"},{"adminCode1":"AR","lng":"-91.73625","geonameId":4130430,"toponymName":"Searcy","countryId":"6252001","fcl":"P","population":24196,"countryCode":"US","name":"Searcy","fclName":"city, village,...","adminCodes1":{"ISO3166_2":"AR"},"countryName":"United States","fcodeName":"seat of a second-order administrative division","adminName1":"Arkansas","lat":"35.25064","fcode":"PPLA2"},{"adminCode1":"MN","lng":"-92.50906","geonameId":5027328,"toponymName":"Township of Frankford","countryId":"6252001","fcl":"A","population":0,"countryCode":"US","name":"Frankford Township","fclName":"country, state, region,...","adminCodes1":{"ISO3166_2":"MN"},"countryName":"United States","fcodeName":"third-order administrative division","adminName1":"Minnesota","lat":"43.71057","fcode":"ADM3"},{"adminCode1":"DE","lng":"-75.2342","geonameId":7161356,"toponymName":"Town of Frankford","countryId":"6252001","fcl":"A","population":847,"countryCode":"US","name":"Town of Frankford","fclName":"country, state, region,...","adminCodes1":{"ISO3166_2":"DE"},"countryName":"United States","fcodeName":"third-order administrative division","adminName1":"Delaware","lat":"38.52146","fcode":"ADM3"},{"adminCode1":"PA","lng":"-75.0135","geonameId":9681527,"toponymName":"Pennypack and Frankford Park","countryId":"6252001","fcl":"L","population":0,"countryCode":"US","name":"Pennypack and Frankford Park","fclName":"parks,area, ...","adminCodes1":{"ISO3166_2":"PA"},"countryName":"United States","fcodeName":"park","adminName1":"Pennsylvania","lat":"40.04713","fcode":"PRK"},{"adminCode1":"PA","lng":"-75.07859","geonameId":5190311,"toponymName":"Frankford","countryId":"6252001","fcl":"P","population":0,"countryCode":"US","name":"Frankford","fclName":"city, village,...","adminCodes1":{"ISO3166_2":"PA"},"countryName":"United States","fcodeName":"populated place","adminName1":"Pennsylvania","lat":"40.01384","fcode":"PPL"},{"adminCode1":"PA","lng":"-77.29447","geonameId":5199102,"toponymName":"Township of Lower Frankford","countryId":"6252001","fcl":"A","population":0,"countryCode":"US","name":"Lower Frankford Township","fclName":"country, state, region,...","adminCodes1":{"ISO3166_2":"PA"},"countryName":"United States","fcodeName":"third-order administrative division","adminName1":"Pennsylvania","lat":"40.24268","fcode":"ADM3"},{"adminCode1":"PA","lng":"-77.36903","geonameId":5216823,"toponymName":"Township of Upper Frankford","countryId":"6252001","fcl":"A","population":0,"countryCode":"US","name":"Upper Frankford Township","fclName":"country, state, region,...","adminCodes1":{"ISO3166_2":"PA"},"countryName":"United States","fcodeName":"third-order administrative division","adminName1":"Pennsylvania","lat":"40.23931","fcode":"ADM3"},{"adminCode1":"NJ","lng":"-74.73781","geonameId":5098209,"toponymName":"Township of Frankford","countryId":"6252001","fcl":"A","population":0,"countryCode":"US","name":"Frankford Township","fclName":"country, state, region,...","adminCodes1":{"ISO3166_2":"NJ"},"countryName":"United States","fcodeName":"third-order administrative division","adminName1":"New Jersey","lat":"41.16148","fcode":"ADM3"},{"adminCode1":"WV","lng":"-80.38452","geonameId":4806497,"toponymName":"Frankford","countryId":"6252001","fcl":"P","population":0,"countryCode":"US","name":"Frankford","fclName":"city, village,...","adminCodes1":{"ISO3166_2":"WV"},"countryName":"United States","fcodeName":"populated place","adminName1":"West Virginia","lat":"37.92512","fcode":"PPL"},{"adminCode1":"OH","lng":"-83.18074","geonameId":4512200,"toponymName":"Frankfort","countryId":"6252001","fcl":"P","population":1065,"countryCode":"US","name":"Frankfort","fclName":"city, village,...","adminCodes1":{"ISO3166_2":"OH"},"countryName":"United States","fcodeName":"populated place","adminName1":"Ohio","lat":"39.40145","fcode":"PPL"},{"adminCode1":"NJ","lng":"-74.72822","geonameId":5095321,"toponymName":"Augusta","countryId":"6252001","fcl":"P","population":0,"countryCode":"US","name":"Augusta","fclName":"city, village,...","adminCodes1":{"ISO3166_2":"NJ"},"countryName":"United States","fcodeName":"populated place","adminName1":"New Jersey","lat":"41.12899","fcode":"PPL"},{"adminCode1":"MO","lng":"-91.32094","geonameId":7163591,"toponymName":"City of Frankford","countryId":"6252001","fcl":"A","population":323,"countryCode":"US","name":"City of Frankford","fclName":"country, state, region,...","adminCodes1":{"ISO3166_2":"MO"},"countryName":"United States","fcodeName":"administrative division","adminName1":"Missouri","lat":"39.49337","fcode":"ADMD"},{"adminCode1":"PA","lng":"-77.34582","geonameId":5188808,"toponymName":"Entlerville","countryId":"6252001","fcl":"P","population":0,"countryCode":"US","name":"Entlerville","fclName":"city, village,...","adminCodes1":{"ISO3166_2":"PA"},"countryName":"United States","fcodeName":"populated place","adminName1":"Pennsylvania","lat":"40.26259","fcode":"PPL"},{"adminCode1":"PA","lng":"-77.28304","geonameId":5190312,"toponymName":"Frankford Airport","countryId":"6252001","fcl":"S","population":0,"countryCode":"US","name":"Frankford Airport","fclName":"spot, building, farm","adminCodes1":{"ISO3166_2":"PA"},"countryName":"United States","fcodeName":"airport","adminName1":"Pennsylvania","lat":"40.25092","fcode":"AIRP"},{"adminCode1":"WV","lng":"-78.76863","geonameId":4806346,"toponymName":"Fort Ashby","countryId":"6252001","fcl":"P","population":1380,"countryCode":"US","name":"Fort Ashby","fclName":"city, village,...","adminCodes1":{"ISO3166_2":"WV"},"countryName":"United States","fcodeName":"populated place","adminName1":"West Virginia","lat":"39.50315","fcode":"PPL"},{"adminCode1":"NJ","lng":"-74.71266","geonameId":5103548,"toponymName":"Ross Corner","countryId":"6252001","fcl":"P","population":13,"countryCode":"US","name":"Ross Corner","fclName":"city, village,...","adminCodes1":{"ISO3166_2":"NJ"},"countryName":"United States","fcodeName":"populated place","adminName1":"New Jersey","lat":"41.1201","fcode":"PPL"},{"adminCode1":"NJ","lng":"-74.72044","geonameId":5105146,"toponymName":"Sunrise Mountain","countryId":"6252001","fcl":"T","population":0,"countryCode":"US","name":"Sunrise Mountain","fclName":"mountain,hill,rock,... ","adminCodes1":{"ISO3166_2":"NJ"},"countryName":"United States","fcodeName":"mountain","adminName1":"New Jersey","lat":"41.21815","fcode":"MT"},{"adminCode1":"TX","lng":"-96.7725","geonameId":4692187,"toponymName":"Frankford Middle School","countryId":"6252001","fcl":"S","population":0,"countryCode":"US","name":"Frankford Middle School","fclName":"spot, building, farm","adminCodes1":{"ISO3166_2":"TX"},"countryName":"United States","fcodeName":"school","adminName1":"Texas","lat":"32.99873","fcode":"SCH"},{"adminCode1":"PA","lng":"-75.07045","geonameId":4558045,"toponymName":"Frankford Creek","countryId":"6252001","fcl":"H","population":0,"countryCode":"US","name":"Frankford Creek","fclName":"stream, lake, ...","adminCodes1":{"ISO3166_2":"PA"},"countryName":"United States","fcodeName":"stream","adminName1":"Pennsylvania","lat":"39.98483","fcode":"STM"},{"adminCode1":"NJ","lng":"-74.67461","geonameId":4833006,"toponymName":"Pellettown","countryId":"6252001","fcl":"P","population":0,"countryCode":"US","name":"Pellettown","fclName":"city, village,...","adminCodes1":{"ISO3166_2":"NJ"},"countryName":"United States","fcodeName":"populated place","adminName1":"New Jersey","lat":"41.16148","fcode":"PPL"},{"adminCode1":"PA","lng":"-75.0887","geonameId":7147693,"toponymName":"Frankford Stadium","countryId":"6252001","fcl":"S","population":0,"countryCode":"US","name":"Frankford Stadium","fclName":"spot, building, farm","adminCodes1":{"ISO3166_2":"PA"},"countryName":"United States","fcodeName":"stadium","adminName1":"Pennsylvania","lat":"40.0253","fcode":"STDM"},{"adminCode1":"PA","lng":"-75.0791","geonameId":7147695,"toponymName":"Frankford Transportation Center","countryId":"6252001","fcl":"S","population":0,"countryCode":"US","name":"Frankford Transportation Center","fclName":"spot, building, farm","adminCodes1":{"ISO3166_2":"PA"},"countryName":"United States","fcodeName":"building(s)","adminName1":"Pennsylvania","lat":"40.0233","fcode":"BLDG"},{"adminCode1":"PA","lng":"-75.0849","geonameId":5190315,"toponymName":"Frankford High School","countryId":"6252001","fcl":"S","population":0,"countryCode":"US","name":"Frankford High School","fclName":"spot, building, farm","adminCodes1":{"ISO3166_2":"PA"},"countryName":"United States","fcodeName":"school","adminName1":"Pennsylvania","lat":"40.02178","fcode":"SCH"},{"adminCode1":"PA","lng":"-75.0804","geonameId":7147692,"toponymName":"McIlvain Playground","countryId":"6252001","fcl":"L","population":0,"countryCode":"US","name":"McIlvain Playground","fclName":"parks,area, ...","adminCodes1":{"ISO3166_2":"PA"},"countryName":"United States","fcodeName":"park","adminName1":"Pennsylvania","lat":"40.0244","fcode":"PRK"},{"adminCode1":"WV","lng":"-79.33115","geonameId":4806504,"toponymName":"Franklin","countryId":"6252001","fcl":"P","population":677,"countryCode":"US","name":"Franklin","fclName":"city, village,...","adminCodes1":{"ISO3166_2":"WV"},"countryName":"United States","fcodeName":"seat of a second-order administrative division","adminName1":"West Virginia","lat":"38.64289","fcode":"PPLA2"},{"adminCode1":"FL","lng":"-81.80704","geonameId":4156208,"toponymName":"Frankfort Bank","countryId":"6252001","fcl":"T","population":0,"countryCode":"US","name":"Frankfort Bank","fclName":"mountain,hill,rock,... ","adminCodes1":{"ISO3166_2":"FL"},"countryName":"United States","fcodeName":"bar","adminName1":"Florida","lat":"24.57404","fcode":"BAR"},{"adminCode1":"MD","lng":"-76.07161","geonameId":4355538,"toponymName":"Frankford","countryId":"6252001","fcl":"P","population":0,"countryCode":"US","name":"Frankford","fclName":"city, village,...","adminCodes1":{"ISO3166_2":"MD"},"countryName":"United States","fcodeName":"populated place","adminName1":"Maryland","lat":"38.74706","fcode":"PPL"},{"adminCode1":"MN","lng":"-92.56906","geonameId":5037128,"toponymName":"Meadow Mobile Home Park","countryId":"6252001","fcl":"P","population":0,"countryCode":"US","name":"Meadow Mobile Home Park","fclName":"city, village,...","adminCodes1":{"ISO3166_2":"MN"},"countryName":"United States","fcodeName":"populated place","adminName1":"Minnesota","lat":"43.70135","fcode":"PPL"},{"adminCode1":"PA","lng":"-77.36054","geonameId":5190314,"toponymName":"Frankford Elementary School","countryId":"6252001","fcl":"S","population":0,"countryCode":"US","name":"Frankford Elementary School","fclName":"spot, building, farm","adminCodes1":{"ISO3166_2":"PA"},"countryName":"United States","fcodeName":"school","adminName1":"Pennsylvania","lat":"40.24786","fcode":"SCH"},{"adminCode1":"PA","lng":"-77.36221","geonameId":5180950,"toponymName":"Blosserville","countryId":"6252001","fcl":"P","population":0,"countryCode":"US","name":"Blosserville","fclName":"city, village,...","adminCodes1":{"ISO3166_2":"PA"},"countryName":"United States","fcodeName":"populated place","adminName1":"Pennsylvania","lat":"40.24009","fcode":"PPL"},{"adminCode1":"PA","lng":"-77.4136","geonameId":5189809,"toponymName":"Flat Rock","countryId":"6252001","fcl":"T","population":0,"countryCode":"US","name":"Flat Rock","fclName":"mountain,hill,rock,... ","adminCodes1":{"ISO3166_2":"PA"},"countryName":"United States","fcodeName":"mountain","adminName1":"Pennsylvania","lat":"40.25453","fcode":"MT"},{"adminCode1":"NJ","lng":"-74.76517","geonameId":5101534,"toponymName":"Mount Pisgah","countryId":"6252001","fcl":"P","population":0,"countryCode":"US","name":"Mount Pisgah","fclName":"city, village,...","adminCodes1":{"ISO3166_2":"NJ"},"countryName":"United States","fcodeName":"populated place","adminName1":"New Jersey","lat":"41.15093","fcode":"PPL"},{"adminCode1":"NJ","lng":"-74.71711","geonameId":5101964,"toponymName":"Northrup","countryId":"6252001","fcl":"P","population":0,"countryCode":"US","name":"Northrup","fclName":"city, village,...","adminCodes1":{"ISO3166_2":"NJ"},"countryName":"United States","fcodeName":"populated place","adminName1":"New Jersey","lat":"41.13621","fcode":"PPL"},{"adminCode1":"NJ","lng":"-74.70183","geonameId":5102727,"toponymName":"Plains","countryId":"6252001","fcl":"P","population":0,"countryCode":"US","name":"Plains","fclName":"city, village,...","adminCodes1":{"ISO3166_2":"NJ"},"countryName":"United States","fcodeName":"populated place","adminName1":"New Jersey","lat":"41.14065","fcode":"PPL"},{"adminCode1":"NJ","lng":"-74.79211","geonameId":5097096,"toponymName":"Culvers Inlet","countryId":"6252001","fcl":"P","population":0,"countryCode":"US","name":"Culvers Inlet","fclName":"city, village,...","adminCodes1":{"ISO3166_2":"NJ"},"countryName":"United States","fcodeName":"populated place","adminName1":"New Jersey","lat":"41.16871","fcode":"PPL"},{"adminCode1":"NJ","lng":"-74.70016","geonameId":5106623,"toponymName":"Wykertown","countryId":"6252001","fcl":"P","population":0,"countryCode":"US","name":"Wykertown","fclName":"city, village,...","adminCodes1":{"ISO3166_2":"NJ"},"countryName":"United States","fcodeName":"populated place","adminName1":"New Jersey","lat":"41.17398","fcode":"PPL"},{"adminCode1":"NJ","lng":"-74.68989","geonameId":5095260,"toponymName":"Armstrong","countryId":"6252001","fcl":"P","population":0,"countryCode":"US","name":"Armstrong","fclName":"city, village,...","adminCodes1":{"ISO3166_2":"NJ"},"countryName":"United States","fcodeName":"populated place","adminName1":"New Jersey","lat":"41.14954","fcode":"PPL"},{"adminCode1":"MD","lng":"-76.54463","geonameId":11979894,"toponymName":"Frankford","countryId":"6252001","fcl":"P","population":0,"countryCode":"US","name":"Frankford","fclName":"city, village,...","adminCodes1":{"ISO3166_2":"MD"},"countryName":"United States","fcodeName":"section of populated place","adminName1":"Maryland","lat":"39.32928","fcode":"PPLX"},{"adminCode1":"KY","lng":"-84.22944","geonameId":6335231,"toponymName":"Frankford Baptist Church","countryId":"6252001","fcl":"S","population":0,"countryCode":"US","name":"Frankford Baptist Church","fclName":"spot, building, farm","adminCodes1":{"ISO3166_2":"KY"},"countryName":"United States","fcodeName":"church","adminName1":"Kentucky","lat":"36.89444","fcode":"CH"},{"adminCode1":"DE","lng":"-75.22357","geonameId":4142602,"toponymName":"Frankford Elementary School","countryId":"6252001","fcl":"S","population":0,"countryCode":"US","name":"Frankford Elementary School","fclName":"spot, building, farm","adminCodes1":{"ISO3166_2":"DE"},"countryName":"United States","fcodeName":"school","adminName1":"Delaware","lat":"38.52043","fcode":"SCH"},{"adminCode1":"PA","lng":"-75.08168","geonameId":7147690,"toponymName":"Aria Frankford Hospital","countryId":"6252001","fcl":"S","population":0,"countryCode":"US","name":"Aria Frankford Hospital","fclName":"spot, building, farm","adminCodes1":{"ISO3166_2":"PA"},"countryName":"United States","fcodeName":"hospital","adminName1":"Pennsylvania","lat":"40.01978","fcode":"HSP"},{"adminCode1":"MD","lng":"-75.59687","geonameId":4355539,"toponymName":"Frankford (historical)","countryId":"6252001","fcl":"P","population":0,"countryCode":"US","name":"Frankford (historical)","fclName":"city, village,...","adminCodes1":{"ISO3166_2":"MD"},"countryName":"United States","fcodeName":"abandoned populated place","adminName1":"Maryland","lat":"38.35984","fcode":"PPLQ"},{"adminCode1":"MN","lng":"-92.46073","geonameId":5019933,"toponymName":"Caldbeck Field","countryId":"6252001","fcl":"S","population":0,"countryCode":"US","name":"Caldbeck Field","fclName":"spot, building, farm","adminCodes1":{"ISO3166_2":"MN"},"countryName":"United States","fcodeName":"airfield","adminName1":"Minnesota","lat":"43.70524","fcode":"AIRF"},{"adminCode1":"WV","lng":"-80.38369","geonameId":4806498,"toponymName":"Frankford Elementary School (historical)","countryId":"6252001","fcl":"S","population":0,"countryCode":"US","name":"Frankford Elementary School (historical)","fclName":"spot, building, farm","adminCodes1":{"ISO3166_2":"WV"},"countryName":"United States","fcodeName":"school","adminName1":"West Virginia","lat":"37.92762","fcode":"SCH"},{"adminCode1":"WV","lng":"-80.38344","geonameId":8479063,"toponymName":"Frankford Elementary School","countryId":"6252001","fcl":"S","population":0,"countryCode":"US","name":"Frankford Elementary School","fclName":"spot, building, farm","adminCodes1":{"ISO3166_2":"WV"},"countryName":"United States","fcodeName":"school","adminName1":"West Virginia","lat":"37.92781","fcode":"SCH"},{"adminCode1":"PA","lng":"-77.38459","geonameId":9687525,"toponymName":"Pennsylvania State Police Troop T Newville","countryId":"6252001","fcl":"S","population":0,"countryCode":"US","name":"Pennsylvania State Police Troop T Newville","fclName":"spot, building, farm","adminCodes1":{"ISO3166_2":"PA"},"countryName":"United States","fcodeName":"building(s)","adminName1":"Pennsylvania","lat":"40.20148","fcode":"BLDG"},{"adminCode1":"AR","lng":"-91.74375","geonameId":4130439,"toponymName":"Searcy Post Office","countryId":"6252001","fcl":"S","population":0,"countryCode":"US","name":"Searcy Post Office","fclName":"spot, building, farm","adminCodes1":{"ISO3166_2":"AR"},"countryName":"United States","fcodeName":"post office","adminName1":"Arkansas","lat":"35.25342","fcode":"PO"},{"adminCode1":"MN","lng":"-92.45822","geonameId":5027327,"toponymName":"Frankford Cemetery","countryId":"6252001","fcl":"S","population":0,"countryCode":"US","name":"Frankford Cemetery","fclName":"spot, building, farm","adminCodes1":{"ISO3166_2":"MN"},"countryName":"United States","fcodeName":"cemetery","adminName1":"Minnesota","lat":"43.71384","fcode":"CMTY"},{"adminCode1":"MD","lng":"-76.5408","geonameId":4355540,"toponymName":"Frankford Elementary School","countryId":"6252001","fcl":"S","population":0,"countryCode":"US","name":"Frankford Elementary School","fclName":"spot, building, farm","adminCodes1":{"ISO3166_2":"MD"},"countryName":"United States","fcodeName":"school","adminName1":"Maryland","lat":"39.31955","fcode":"SCH"},{"adminCode1":"MD","lng":"-76.53996","geonameId":4355541,"toponymName":"Frankford Gardens Shopping Center","countryId":"6252001","fcl":"S","population":0,"countryCode":"US","name":"Frankford Gardens Shopping Center","fclName":"spot, building, farm","adminCodes1":{"ISO3166_2":"MD"},"countryName":"United States","fcodeName":"mall","adminName1":"Maryland","lat":"39.32455","fcode":"MALL"},{"adminCode1":"MD","lng":"-76.54246","geonameId":4355542,"toponymName":"Frankford Plaza Shopping Center","countryId":"6252001","fcl":"S","population":0,"countryCode":"US","name":"Frankford Plaza Shopping Center","fclName":"spot, building, farm","adminCodes1":{"ISO3166_2":"MD"},"countryName":"United States","fcodeName":"mall","adminName1":"Maryland","lat":"39.31455","fcode":"MALL"},{"adminCode1":"PA","lng":"-74.98297","geonameId":7147694,"toponymName":"Aria Health Hospital Torresdale Campus","countryId":"6252001","fcl":"S","population":0,"countryCode":"US","name":"Aria Health Hospital Torresdale Campus","fclName":"spot, building, farm","adminCodes1":{"ISO3166_2":"PA"},"countryName":"United States","fcodeName":"hospital","adminName1":"Pennsylvania","lat":"40.07167","fcode":"HSP"},{"adminCode1":"PA","lng":"-77.37665","geonameId":5210483,"toponymName":"Saint Peters Upper Frankford Church","countryId":"6252001","fcl":"S","population":0,"countryCode":"US","name":"Saint Peters Upper Frankford Church","fclName":"spot, building, farm","adminCodes1":{"ISO3166_2":"PA"},"countryName":"United States","fcodeName":"church","adminName1":"Pennsylvania","lat":"40.21509","fcode":"CH"},{"adminCode1":"PA","lng":"-77.36294","geonameId":8482074,"toponymName":"Upper Frankford Township Volunteer Fire Company Station 48","countryId":"6252001","fcl":"S","population":0,"countryCode":"US","name":"Upper Frankford Township Volunteer Fire Company Station 48","fclName":"spot, building, farm","adminCodes1":{"ISO3166_2":"PA"},"countryName":"United States","fcodeName":"building(s)","adminName1":"Pennsylvania","lat":"40.24159","fcode":"BLDG"},{"adminCode1":"DE","lng":"-75.23548","geonameId":7160773,"toponymName":"Frankford Post Office","countryId":"6252001","fcl":"S","population":0,"countryCode":"US","name":"Frankford Post Office","fclName":"spot, building, farm","adminCodes1":{"ISO3166_2":"DE"},"countryName":"United States","fcodeName":"post office","adminName1":"Delaware","lat":"38.51829","fcode":"PO"},{"adminCode1":"DE","lng":"-75.2351","geonameId":7160774,"toponymName":"Frankford Town Hall","countryId":"6252001","fcl":"S","population":0,"countryCode":"US","name":"Frankford Town Hall","fclName":"spot, building, farm","adminCodes1":{"ISO3166_2":"DE"},"countryName":"United States","fcodeName":"building(s)","adminName1":"Delaware","lat":"38.5179","fcode":"BLDG"},{"adminCode1":"DE","lng":"-75.23479","geonameId":7160775,"toponymName":"Frankford Public Library","countryId":"6252001","fcl":"S","population":0,"countryCode":"US","name":"Frankford Public Library","fclName":"spot, building, farm","adminCodes1":{"ISO3166_2":"DE"},"countryName":"United States","fcodeName":"library","adminName1":"Delaware","lat":"38.51719","fcode":"LIBR"},{"adminCode1":"TX","lng":"-96.88776","geonameId":4692188,"toponymName":"Frankford Village Branch Library","countryId":"6252001","fcl":"S","population":0,"countryCode":"US","name":"Frankford Village Branch Library","fclName":"spot, building, farm","adminCodes1":{"ISO3166_2":"TX"},"countryName":"United States","fcodeName":"library","adminName1":"Texas","lat":"30.21938","fcode":"LIBR"},{"adminCode1":"TX","lng":"-96.7947","geonameId":4722238,"toponymName":"Renner Frankford Branch Library","countryId":"6252001","fcl":"S","population":0,"countryCode":"US","name":"Renner Frankford Branch Library","fclName":"spot, building, farm","adminCodes1":{"ISO3166_2":"TX"},"countryName":"United States","fcodeName":"library","adminName1":"Texas","lat":"29.67996","fcode":"LIBR"},{"adminCode1":"DE","lng":"-75.23574","geonameId":4142603,"toponymName":"Frankford United Methodist Church","countryId":"6252001","fcl":"S","population":0,"countryCode":"US","name":"Frankford United Methodist Church","fclName":"spot, building, farm","adminCodes1":{"ISO3166_2":"DE"},"countryName":"United States","fcodeName":"church","adminName1":"Delaware","lat":"38.51817","fcode":"CH"},{"adminCode1":"KY","lng":"-84.23021","geonameId":4292195,"toponymName":"Frankford School Number 1","countryId":"6252001","fcl":"S","population":0,"countryCode":"US","name":"Frankford School Number 1","fclName":"spot, building, farm","adminCodes1":{"ISO3166_2":"KY"},"countryName":"United States","fcodeName":"school","adminName1":"Kentucky","lat":"36.89453","fcode":"SCH"},{"adminCode1":"MO","lng":"-91.32131","geonameId":8096617,"toponymName":"Frankford Elementary School","countryId":"6252001","fcl":"S","population":0,"countryCode":"US","name":"Frankford Elementary School","fclName":"spot, building, farm","adminCodes1":{"ISO3166_2":"MO"},"countryName":"United States","fcodeName":"school","adminName1":"Missouri","lat":"39.49713","fcode":"SCH"},{"adminCode1":"MO","lng":"-91.31945","geonameId":7722088,"toponymName":"Frankford Fire Department","countryId":"6252001","fcl":"S","population":0,"countryCode":"US","name":"Frankford Fire Department","fclName":"spot, building, farm","adminCodes1":{"ISO3166_2":"MO"},"countryName":"United States","fcodeName":"building(s)","adminName1":"Missouri","lat":"39.49262","fcode":"BLDG"},{"adminCode1":"DE","lng":"-75.23444","geonameId":7717397,"toponymName":"Frankford Volunteer Fire Company","countryId":"6252001","fcl":"S","population":0,"countryCode":"US","name":"Frankford Volunteer Fire Company","fclName":"spot, building, farm","adminCodes1":{"ISO3166_2":"DE"},"countryName":"United States","fcodeName":"building(s)","adminName1":"Delaware","lat":"38.51762","fcode":"BLDG"},{"adminCode1":"NJ","lng":"-74.70433","geonameId":5098208,"toponymName":"Frankford Plains Church","countryId":"6252001","fcl":"S","population":0,"countryCode":"US","name":"Frankford Plains Church","fclName":"spot, building, farm","adminCodes1":{"ISO3166_2":"NJ"},"countryName":"United States","fcodeName":"church","adminName1":"New Jersey","lat":"41.14565","fcode":"CH"},{"adminCode1":"NJ","lng":"-74.78043","geonameId":7718661,"toponymName":"Frankford Township Fire Department Station 1","countryId":"6252001","fcl":"S","population":0,"countryCode":"US","name":"Frankford Township Fire Department Station 1","fclName":"spot, building, farm","adminCodes1":{"ISO3166_2":"NJ"},"countryName":"United States","fcodeName":"building(s)","adminName1":"New Jersey","lat":"41.15569","fcode":"BLDG"},{"adminCode1":"NJ","lng":"-74.67506","geonameId":7719212,"toponymName":"Frankford Township Fire Department Station 2","countryId":"6252001","fcl":"S","population":0,"countryCode":"US","name":"Frankford Township Fire Department Station 2","fclName":"spot, building, farm","adminCodes1":{"ISO3166_2":"NJ"},"countryName":"United States","fcodeName":"building(s)","adminName1":"New Jersey","lat":"41.16125","fcode":"BLDG"},{"adminCode1":"PA","lng":"-75.0853","geonameId":7147691,"toponymName":"Frankford Library","countryId":"6252001","fcl":"S","population":0,"countryCode":"US","name":"Frankford Library","fclName":"spot, building, farm","adminCodes1":{"ISO3166_2":"PA"},"countryName":"United States","fcodeName":"library","adminName1":"Pennsylvania","lat":"40.0164","fcode":"LIBR"},{"adminCode1":"PA","lng":"-75.09785","geonameId":7283344,"toponymName":"Frankford Railway Substation","countryId":"6252001","fcl":"S","population":0,"countryCode":"US","name":"Frankford Railway Substation","fclName":"spot, building, farm","adminCodes1":{"ISO3166_2":"PA"},"countryName":"United States","fcodeName":"power station","adminName1":"Pennsylvania","lat":"40.00196","fcode":"PS"},{"adminCode1":"PA","lng":"-74.99045","geonameId":5215841,"toponymName":"Torresdale-Frankford Country Club","countryId":"6252001","fcl":"S","population":0,"countryCode":"US","name":"Torresdale-Frankford Country Club","fclName":"spot, building, farm","adminCodes1":{"ISO3166_2":"PA"},"countryName":"United States","fcodeName":"resort","adminName1":"Pennsylvania","lat":"40.06122","fcode":"RSRT"},{"adminCode1":"PA","lng":"-75.08462","geonameId":5190316,"toponymName":"Frankford Station","countryId":"6252001","fcl":"S","population":0,"countryCode":"US","name":"Frankford Station","fclName":"spot, building, farm","adminCodes1":{"ISO3166_2":"PA"},"countryName":"United States","fcodeName":"building(s)","adminName1":"Pennsylvania","lat":"40.00678","fcode":"BLDG"},{"adminCode1":"MN","lng":"-92.54184","geonameId":5041638,"toponymName":"Pine Lawn Park Structure Dam","countryId":"6252001","fcl":"S","population":0,"countryCode":"US","name":"Pine Lawn Park Structure Dam","fclName":"spot, building, farm","adminCodes1":{"ISO3166_2":"MN"},"countryName":"United States","fcodeName":"dam","adminName1":"Minnesota","lat":"43.7083","fcode":"DAM"},{"adminCode1":"MN","lng":"-92.47878","geonameId":5024061,"toponymName":"Deer Creek Campground","countryId":"6252001","fcl":"S","population":0,"countryCode":"US","name":"Deer Creek Campground","fclName":"spot, building, farm","adminCodes1":{"ISO3166_2":"MN"},"countryName":"United States","fcodeName":"camp(s)","adminName1":"Minnesota","lat":"43.72219","fcode":"CMP"},{"adminCode1":"MN","lng":"-92.47878","geonameId":5024063,"toponymName":"Deer Creek Speedway","countryId":"6252001","fcl":"S","population":0,"countryCode":"US","name":"Deer Creek Speedway","fclName":"spot, building, farm","adminCodes1":{"ISO3166_2":"MN"},"countryName":"United States","fcodeName":"","adminName1":"Minnesota","lat":"43.72219"},{"adminCode1":"MN","lng":"-92.55573","geonameId":5017453,"toponymName":"Bear Creek Cemetery","countryId":"6252001","fcl":"S","population":0,"countryCode":"US","name":"Bear Creek Cemetery","fclName":"spot, building, farm","adminCodes1":{"ISO3166_2":"MN"},"countryName":"United States","fcodeName":"cemetery","adminName1":"Minnesota","lat":"43.73913","fcode":"CMTY"},{"adminCode1":"MN","lng":"-92.55434","geonameId":5017454,"toponymName":"Bear Creek Church","countryId":"6252001","fcl":"S","population":0,"countryCode":"US","name":"Bear Creek Church","fclName":"spot, building, farm","adminCodes1":{"ISO3166_2":"MN"},"countryName":"United States","fcodeName":"church","adminName1":"Minnesota","lat":"43.73885","fcode":"CH"},{"adminCode1":"MN","lng":"-92.55629","geonameId":5037354,"toponymName":"Methodist Norwegian Cemetery","countryId":"6252001","fcl":"S","population":0,"countryCode":"US","name":"Methodist Norwegian Cemetery","fclName":"spot, building, farm","adminCodes1":{"ISO3166_2":"MN"},"countryName":"United States","fcodeName":"cemetery","adminName1":"Minnesota","lat":"43.73996","fcode":"CMTY"},{"adminCode1":"PA","lng":"-77.29887","geonameId":5204520,"toponymName":"Opossum Hill School","countryId":"6252001","fcl":"S","population":0,"countryCode":"US","name":"Opossum Hill School","fclName":"spot, building, farm","adminCodes1":{"ISO3166_2":"PA"},"countryName":"United States","fcodeName":"school","adminName1":"Pennsylvania","lat":"40.22648","fcode":"SCH"},{"adminCode1":"PA","lng":"-77.29665","geonameId":5204522,"toponymName":"Opossum Hill Union Church","countryId":"6252001","fcl":"S","population":0,"countryCode":"US","name":"Opossum Hill Union Church","fclName":"spot, building, farm","adminCodes1":{"ISO3166_2":"PA"},"countryName":"United States","fcodeName":"church","adminName1":"Pennsylvania","lat":"40.22759","fcode":"CH"},{"adminCode1":"PA","lng":"-77.27971","geonameId":5204523,"toponymName":"Opossum Lake Dam","countryId":"6252001","fcl":"S","population":0,"countryCode":"US","name":"Opossum Lake Dam","fclName":"spot, building, farm","adminCodes1":{"ISO3166_2":"PA"},"countryName":"United States","fcodeName":"dam","adminName1":"Pennsylvania","lat":"40.22675","fcode":"DAM"},{"adminCode1":"PA","lng":"-77.27693","geonameId":5214242,"toponymName":"Stone Church","countryId":"6252001","fcl":"S","population":0,"countryCode":"US","name":"Stone Church","fclName":"spot, building, farm","adminCodes1":{"ISO3166_2":"PA"},"countryName":"United States","fcodeName":"church","adminName1":"Pennsylvania","lat":"40.24842","fcode":"CH"},{"adminCode1":"PA","lng":"-77.27693","geonameId":5214292,"toponymName":"Stone School","countryId":"6252001","fcl":"S","population":0,"countryCode":"US","name":"Stone School","fclName":"spot, building, farm","adminCodes1":{"ISO3166_2":"PA"},"countryName":"United States","fcodeName":"school","adminName1":"Pennsylvania","lat":"40.24786","fcode":"SCH"},{"adminCode1":"PA","lng":"-77.38415","geonameId":5214433,"toponymName":"Stouts School","countryId":"6252001","fcl":"S","population":0,"countryCode":"US","name":"Stouts School","fclName":"spot, building, farm","adminCodes1":{"ISO3166_2":"PA"},"countryName":"United States","fcodeName":"school","adminName1":"Pennsylvania","lat":"40.20564","fcode":"SCH"},{"adminCode1":"PA","lng":"-77.31887","geonameId":5198701,"toponymName":"Locust Point School","countryId":"6252001","fcl":"S","population":0,"countryCode":"US","name":"Locust Point School","fclName":"spot, building, farm","adminCodes1":{"ISO3166_2":"PA"},"countryName":"United States","fcodeName":"school","adminName1":"Pennsylvania","lat":"40.24703","fcode":"SCH"},{"adminCode1":"PA","lng":"-77.34598","geonameId":5200303,"toponymName":"McClures Gap Cemetery","countryId":"6252001","fcl":"S","population":0,"countryCode":"US","name":"McClures Gap Cemetery","fclName":"spot, building, farm","adminCodes1":{"ISO3166_2":"PA"},"countryName":"United States","fcodeName":"cemetery","adminName1":"Pennsylvania","lat":"40.26047","fcode":"CMTY"},{"adminCode1":"PA","lng":"-77.35248","geonameId":5200304,"toponymName":"McClures Gap Church","countryId":"6252001","fcl":"S","population":0,"countryCode":"US","name":"McClures Gap Church","fclName":"spot, building, farm","adminCodes1":{"ISO3166_2":"PA"},"countryName":"United States","fcodeName":"church","adminName1":"Pennsylvania","lat":"40.25814","fcode":"CH"},{"adminCode1":"PA","lng":"-77.34582","geonameId":5200305,"toponymName":"McClures Gap School","countryId":"6252001","fcl":"S","population":0,"countryCode":"US","name":"McClures Gap School","fclName":"spot, building, farm","adminCodes1":{"ISO3166_2":"PA"},"countryName":"United States","fcodeName":"school","adminName1":"Pennsylvania","lat":"40.26342","fcode":"SCH"},{"adminCode1":"PA","lng":"-77.34832","geonameId":5202322,"toponymName":"Mount Pleasant School","countryId":"6252001","fcl":"S","population":0,"countryCode":"US","name":"Mount Pleasant School","fclName":"spot, building, farm","adminCodes1":{"ISO3166_2":"PA"},"countryName":"United States","fcodeName":"school","adminName1":"Pennsylvania","lat":"40.22036","fcode":"SCH"},{"adminCode1":"PA","lng":"-77.26721","geonameId":5202481,"toponymName":"Mount Zion School","countryId":"6252001","fcl":"S","population":0,"countryCode":"US","name":"Mount Zion School","fclName":"spot, building, farm","adminCodes1":{"ISO3166_2":"PA"},"countryName":"United States","fcodeName":"school","adminName1":"Pennsylvania","lat":"40.22981","fcode":"SCH"},{"adminCode1":"PA","lng":"-77.39499","geonameId":5191117,"toponymName":"Gillespie School","countryId":"6252001","fcl":"S","population":0,"countryCode":"US","name":"Gillespie School","fclName":"spot, building, farm","adminCodes1":{"ISO3166_2":"PA"},"countryName":"United States","fcodeName":"school","adminName1":"Pennsylvania","lat":"40.23036","fcode":"SCH"},{"adminCode1":"NJ","lng":"-75.04267","geonameId":5098207,"toponymName":"Frankford Channel","countryId":"6252001","fcl":"H","population":0,"countryCode":"US","name":"Frankford Channel","fclName":"stream, lake, ...","adminCodes1":{"ISO3166_2":"NJ"},"countryName":"United States","fcodeName":"channel","adminName1":"New Jersey","lat":"40.01122","fcode":"CHN"},{"adminCode1":"NJ","lng":"-74.76655","geonameId":5101871,"toponymName":"Normanook Lookout Tower","countryId":"6252001","fcl":"S","population":0,"countryCode":"US","name":"Normanook Lookout Tower","fclName":"spot, building, farm","adminCodes1":{"ISO3166_2":"NJ"},"countryName":"United States","fcodeName":"tower","adminName1":"New Jersey","lat":"41.1876","fcode":"TOWR"},{"adminCode1":"NJ","lng":"-74.78128","geonameId":5097098,"toponymName":"Culvers Lake Dam","countryId":"6252001","fcl":"S","population":0,"countryCode":"US","name":"Culvers Lake Dam","fclName":"spot, building, farm","adminCodes1":{"ISO3166_2":"NJ"},"countryName":"United States","fcodeName":"dam","adminName1":"New Jersey","lat":"41.15843","fcode":"DAM"},{"adminCode1":"NJ","lng":"-74.71683","geonameId":5099406,"toponymName":"Ideal Farms","countryId":"6252001","fcl":"S","population":0,"countryCode":"US","name":"Ideal Farms","fclName":"spot, building, farm","adminCodes1":{"ISO3166_2":"NJ"},"countryName":"United States","fcodeName":"farm","adminName1":"New Jersey","lat":"41.12426","fcode":"FRM"},{"adminCode1":"NJ","lng":"-74.81961","geonameId":5100204,"toponymName":"Lake Owassa Dam","countryId":"6252001","fcl":"S","population":0,"countryCode":"US","name":"Lake Owassa Dam","fclName":"spot, building, farm","adminCodes1":{"ISO3166_2":"NJ"},"countryName":"United States","fcodeName":"dam","adminName1":"New Jersey","lat":"41.14121","fcode":"DAM"},{"adminCode1":"NJ","lng":"-74.71266","geonameId":5105240,"toponymName":"Tamarack Flyers Heliport","countryId":"6252001","fcl":"S","population":0,"countryCode":"US","name":"Tamarack Flyers Heliport","fclName":"spot, building, farm","adminCodes1":{"ISO3166_2":"NJ"},"countryName":"United States","fcodeName":"heliport","adminName1":"New Jersey","lat":"41.15426","fcode":"AIRH"},{"adminCode1":"NJ","lng":"-74.75322","geonameId":5105916,"toponymName":"WNNJ-FM (Newton)","countryId":"6252001","fcl":"S","population":0,"countryCode":"US","name":"WNNJ-FM (Newton)","fclName":"spot, building, farm","adminCodes1":{"ISO3166_2":"NJ"},"countryName":"United States","fcodeName":"tower","adminName1":"New Jersey","lat":"41.1926","fcode":"TOWR"},{"adminCode1":"NJ","lng":"-74.73544","geonameId":5095913,"toponymName":"Branchville Cemetery","countryId":"6252001","fcl":"S","population":0,"countryCode":"US","name":"Branchville Cemetery","fclName":"spot, building, farm","adminCodes1":{"ISO3166_2":"NJ"},"countryName":"United States","fcodeName":"cemetery","adminName1":"New Jersey","lat":"41.13815","fcode":"CMTY"}]}
