{"totalResultsCount":145,"geonames":[{"adminCode1":"NH","lng":"-71.74786","geonameId":5086325,"toponymName":"Franconia","countryId":"6252001","fcl":"P","population":984,"countryCode":"US","name":"Franconia","fclName":"city, village,...","adminCodes1":{"ISO3166_2":"NH"},"countryName":"United States","fcodeName":"populated place","adminName1":"New Hampshire","lat":"44.22701","fcode":"PPL"},{"adminCode1":"VA","lng":"-77.14637","geonameId":4759968,"toponymName":"Franconia","countryId":"6252001","fcl":"P","population":18245,"countryCode":"US","name":"Franconia","fclName":"city, village,...","adminCodes1":{"ISO3166_2":"VA"},"countryName":"United States","fcodeName":"populated place","adminName1":"Virginia","lat":"38.78206","fcode":"PPL"},{"adminCode1":"MN","lng":"-92.68611","geonameId":5027311,"toponymName":"Franconia Sculpture Park","countryId":"6252001","fcl":"L","population":0,"countryCode":"US","name":"Franconia Sculpture Park","fclName":"parks,area, ...","adminCodes1":{"ISO3166_2":"MN"},"countryName":"United States","fcodeName":"park","adminName1":"Minnesota","lat":"45.38","fcode":"PRK"},{"adminCode1":"NH","lng":"-71.68675","geonameId":5086334,"toponymName":"Franconia Notch State Park","countryId":"6252001","fcl":"L","population":0,"countryCode":"US","name":"Franconia Notch State Park","fclName":"parks,area, ...","adminCodes1":{"ISO3166_2":"NH"},"countryName":"United States","fcodeName":"park","adminName1":"New Hampshire","lat":"44.14951","fcode":"PRK"},{"adminCode1":"NH","lng":"-71.75067","geonameId":5086326,"toponymName":"Franconia Airport","countryId":"6252001","fcl":"S","population":0,"countryCode":"US","name":"Franconia Airport","fclName":"spot, building, farm","adminCodes1":{"ISO3166_2":"NH"},"countryName":"United States","fcodeName":"airport","adminName1":"New Hampshire","lat":"44.19495","fcode":"AIRP"},{"adminCode1":"MN","lng":"-92.6916","geonameId":5027308,"toponymName":"Franconia","countryId":"6252001","fcl":"P","population":0,"countryCode":"US","name":"Franconia","fclName":"city, village,...","adminCodes1":{"ISO3166_2":"MN"},"countryName":"United States","fcodeName":"populated place","adminName1":"Minnesota","lat":"45.37024","fcode":"PPL"},{"adminCode1":"MN","lng":"-92.75857","geonameId":5027312,"toponymName":"Township of Franconia","countryId":"6252001","fcl":"A","population":0,"countryCode":"US","name":"Franconia Township","fclName":"country, state, region,...","adminCodes1":{"ISO3166_2":"MN"},"countryName":"United States","fcodeName":"third-order administrative division","adminName1":"Minnesota","lat":"45.3432","fcode":"ADM3"},{"adminCode1":"PA","lng":"-75.3724","geonameId":5187744,"toponymName":"Earlington","countryId":"6252001","fcl":"P","population":0,"countryCode":"US","name":"Earlington","fclName":"city, village,...","adminCodes1":{"ISO3166_2":"PA"},"countryName":"United States","fcodeName":"populated place","adminName1":"Pennsylvania","lat":"40.32094","fcode":"PPL"},{"adminCode1":"AZ","lng":"-114.26829","geonameId":5295310,"toponymName":"Franconia","countryId":"6252001","fcl":"P","population":0,"countryCode":"US","name":"Franconia","fclName":"city, village,...","adminCodes1":{"ISO3166_2":"AZ"},"countryName":"United States","fcodeName":"populated place","adminName1":"Arizona","lat":"34.73945","fcode":"PPL"},{"adminCode1":"WI","lng":"-87.82593","geonameId":5264410,"toponymName":"New Franken","countryId":"6252001","fcl":"P","population":0,"countryCode":"US","name":"New Franken","fclName":"city, village,...","adminCodes1":{"ISO3166_2":"WI"},"countryName":"United States","fcodeName":"populated place","adminName1":"Wisconsin","lat":"44.53083","fcode":"PPL"},{"adminCode1":"PA","lng":"-75.35903","geonameId":5190305,"toponymName":"Township of Franconia","countryId":"6252001","fcl":"A","population":0,"countryCode":"US","name":"Franconia Township","fclName":"country, state, region,...","adminCodes1":{"ISO3166_2":"PA"},"countryName":"United States","fcodeName":"third-order administrative division","adminName1":"Pennsylvania","lat":"40.30559","fcode":"ADM3"},{"adminCode1":"NH","lng":"-71.67953","geonameId":5086333,"toponymName":"Franconia Notch","countryId":"6252001","fcl":"T","population":0,"countryCode":"US","name":"Franconia Notch","fclName":"mountain,hill,rock,... ","adminCodes1":{"ISO3166_2":"NH"},"countryName":"United States","fcodeName":"gap","adminName1":"New Hampshire","lat":"44.15256","fcode":"GAP"},{"adminCode1":"NH","lng":"-71.69842","geonameId":5084179,"toponymName":"Cannon Mountain","countryId":"6252001","fcl":"T","population":0,"countryCode":"US","name":"Cannon Mountain","fclName":"mountain,hill,rock,... ","adminCodes1":{"ISO3166_2":"NH"},"countryName":"United States","fcodeName":"mountain","adminName1":"New Hampshire","lat":"44.15645","fcode":"MT"},{"adminCode1":"NH","lng":"-71.66122","geonameId":5086340,"toponymName":"Town of Franconia","countryId":"6252001","fcl":"A","population":1117,"countryCode":"US","name":"Town of Franconia","fclName":"country, state, region,...","adminCodes1":{"ISO3166_2":"NH"},"countryName":"United States","fcodeName":"third-order administrative division","adminName1":"New Hampshire","lat":"44.18434","fcode":"ADM3"},{"adminCode1":"PA","lng":"-75.35768","geonameId":5190303,"toponymName":"Franconia","countryId":"6252001","fcl":"P","population":0,"countryCode":"US","name":"Franconia","fclName":"city, village,...","adminCodes1":{"ISO3166_2":"PA"},"countryName":"United States","fcodeName":"populated place","adminName1":"Pennsylvania","lat":"40.30788","fcode":"PPL"},{"adminCode1":"VA","lng":"-77.16054","geonameId":4759976,"toponymName":"Franconia Park","countryId":"6252001","fcl":"L","population":0,"countryCode":"US","name":"Franconia Park","fclName":"parks,area, ...","adminCodes1":{"ISO3166_2":"VA"},"countryName":"United States","fcodeName":"park","adminName1":"Virginia","lat":"38.78845","fcode":"PRK"},{"adminCode1":"PA","lng":"-75.3655","geonameId":7147684,"toponymName":"Franconia Community Park","countryId":"6252001","fcl":"L","population":0,"countryCode":"US","name":"Franconia Community Park","fclName":"parks,area, ...","adminCodes1":{"ISO3166_2":"PA"},"countryName":"United States","fcodeName":"park","adminName1":"Pennsylvania","lat":"40.313","fcode":"PRK"},{"adminCode1":"VA","lng":"-77.16193","geonameId":4759973,"toponymName":"Franconia Forest Park","countryId":"6252001","fcl":"L","population":0,"countryCode":"US","name":"Franconia Forest Park","fclName":"parks,area, ...","adminCodes1":{"ISO3166_2":"VA"},"countryName":"United States","fcodeName":"park","adminName1":"Virginia","lat":"38.77484","fcode":"PRK"},{"adminCode1":"NH","lng":"-71.57369","geonameId":5086441,"toponymName":"Galehead Mountain","countryId":"6252001","fcl":"T","population":0,"countryCode":"US","name":"Galehead Mountain","fclName":"mountain,hill,rock,... ","adminCodes1":{"ISO3166_2":"NH"},"countryName":"United States","fcodeName":"mountain","adminName1":"New Hampshire","lat":"44.18534","fcode":"MT"},{"adminCode1":"NH","lng":"-71.61092","geonameId":5086461,"toponymName":"Mount Garfield","countryId":"6252001","fcl":"T","population":0,"countryCode":"US","name":"Mount Garfield","fclName":"mountain,hill,rock,... ","adminCodes1":{"ISO3166_2":"NH"},"countryName":"United States","fcodeName":"mountain","adminName1":"New Hampshire","lat":"44.18701","fcode":"MT"},{"adminCode1":"NH","lng":"-71.64433","geonameId":5088464,"toponymName":"Mount Lafayette","countryId":"6252001","fcl":"T","population":0,"countryCode":"US","name":"Mount Lafayette","fclName":"mountain,hill,rock,... ","adminCodes1":{"ISO3166_2":"NH"},"countryName":"United States","fcodeName":"mountain","adminName1":"New Hampshire","lat":"44.16075","fcode":"MT"},{"adminCode1":"NH","lng":"-71.64453","geonameId":5088715,"toponymName":"Mount Lincoln","countryId":"6252001","fcl":"T","population":0,"countryCode":"US","name":"Mount Lincoln","fclName":"mountain,hill,rock,... ","adminCodes1":{"ISO3166_2":"NH"},"countryName":"United States","fcodeName":"mountain","adminName1":"New Hampshire","lat":"44.14895","fcode":"MT"},{"adminCode1":"NH","lng":"-71.6448","geonameId":5088789,"toponymName":"Little Haystack Mountain","countryId":"6252001","fcl":"T","population":0,"countryCode":"US","name":"Little Haystack Mountain","fclName":"mountain,hill,rock,... ","adminCodes1":{"ISO3166_2":"NH"},"countryName":"United States","fcodeName":"mountain","adminName1":"New Hampshire","lat":"44.14062","fcode":"MT"},{"adminCode1":"NH","lng":"-71.55786","geonameId":5090435,"toponymName":"North Twin Mountain","countryId":"6252001","fcl":"T","population":0,"countryCode":"US","name":"North Twin Mountain","fclName":"mountain,hill,rock,... ","adminCodes1":{"ISO3166_2":"NH"},"countryName":"United States","fcodeName":"mountain","adminName1":"New Hampshire","lat":"44.20256","fcode":"MT"},{"adminCode1":"NH","lng":"-71.5548","geonameId":5092948,"toponymName":"South Twin Mountain","countryId":"6252001","fcl":"T","population":0,"countryCode":"US","name":"South Twin Mountain","fclName":"mountain,hill,rock,... ","adminCodes1":{"ISO3166_2":"NH"},"countryName":"United States","fcodeName":"mountain","adminName1":"New Hampshire","lat":"44.18756","fcode":"MT"},{"adminCode1":"NH","lng":"-71.73148","geonameId":5086330,"toponymName":"Franconia College","countryId":"6252001","fcl":"S","population":0,"countryCode":"US","name":"Franconia College","fclName":"spot, building, farm","adminCodes1":{"ISO3166_2":"NH"},"countryName":"United States","fcodeName":"school","adminName1":"New Hampshire","lat":"44.22562","fcode":"SCH"},{"adminCode1":"PA","lng":"-75.30795","geonameId":5212898,"toponymName":"Souderton Airport","countryId":"6252001","fcl":"S","population":0,"countryCode":"US","name":"Souderton Airport","fclName":"spot, building, farm","adminCodes1":{"ISO3166_2":"PA"},"countryName":"United States","fcodeName":"airport","adminName1":"Pennsylvania","lat":"40.30844","fcode":"AIRP"},{"adminCode1":"PA","lng":"-75.33629","geonameId":5188649,"toponymName":"Elroy","countryId":"6252001","fcl":"P","population":0,"countryCode":"US","name":"Elroy","fclName":"city, village,...","adminCodes1":{"ISO3166_2":"PA"},"countryName":"United States","fcodeName":"populated place","adminName1":"Pennsylvania","lat":"40.28205","fcode":"PPL"},{"adminCode1":"OH","lng":"-84.30217","geonameId":5155052,"toponymName":"Franconia (historical)","countryId":"6252001","fcl":"P","population":0,"countryCode":"US","name":"Franconia (historical)","fclName":"city, village,...","adminCodes1":{"ISO3166_2":"OH"},"countryName":"United States","fcodeName":"abandoned populated place","adminName1":"Ohio","lat":"41.04227","fcode":"PPLQ"},{"adminCode1":"PA","lng":"-75.3449","geonameId":7147685,"toponymName":"Franconia Hunt","countryId":"6252001","fcl":"P","population":0,"countryCode":"US","name":"Franconia Hunt","fclName":"city, village,...","adminCodes1":{"ISO3166_2":"PA"},"countryName":"United States","fcodeName":"populated place","adminName1":"Pennsylvania","lat":"40.3099","fcode":"PPL"},{"adminCode1":"VA","lng":"-77.14648","geonameId":4758067,"toponymName":"Fairfax County Fire and Rescue Department Station 5 Franconia","countryId":"6252001","fcl":"S","population":0,"countryCode":"US","name":"Fairfax County Fire and Rescue Department Station 5 Franconia","fclName":"spot, building, farm","adminCodes1":{"ISO3166_2":"VA"},"countryName":"United States","fcodeName":"building(s)","adminName1":"Virginia","lat":"38.78073","fcode":"BLDG"},{"adminCode1":"NH","lng":"-71.70147","geonameId":5084182,"toponymName":"Cannon Mountain Ski Area","countryId":"6252001","fcl":"S","population":0,"countryCode":"US","name":"Cannon Mountain Ski Area","fclName":"spot, building, farm","adminCodes1":{"ISO3166_2":"NH"},"countryName":"United States","fcodeName":"","adminName1":"New Hampshire","lat":"44.17729"},{"adminCode1":"NH","lng":"-72.29064","geonameId":5086332,"toponymName":"Franconia Mountain Range","countryId":"6252001","fcl":"T","population":0,"countryCode":"US","name":"Franconia Mountain Range","fclName":"mountain,hill,rock,... ","adminCodes1":{"ISO3166_2":"NH"},"countryName":"United States","fcodeName":"ridge(s)","adminName1":"New Hampshire","lat":"42.80536","fcode":"RDGE"},{"adminCode1":"NH","lng":"-71.64425","geonameId":5086336,"toponymName":"Franconia Ridge","countryId":"6252001","fcl":"T","population":0,"countryCode":"US","name":"Franconia Ridge","fclName":"mountain,hill,rock,... ","adminCodes1":{"ISO3166_2":"NH"},"countryName":"United States","fcodeName":"ridge(s)","adminName1":"New Hampshire","lat":"44.15062","fcode":"RDGE"},{"adminCode1":"PA","lng":"-75.3224","geonameId":7147082,"toponymName":"Cambridge Reserve","countryId":"6252001","fcl":"P","population":0,"countryCode":"US","name":"Cambridge Reserve","fclName":"city, village,...","adminCodes1":{"ISO3166_2":"PA"},"countryName":"United States","fcodeName":"populated place","adminName1":"Pennsylvania","lat":"40.3009","fcode":"PPL"},{"adminCode1":"PA","lng":"-75.3358","geonameId":7147295,"toponymName":"Banbury","countryId":"6252001","fcl":"P","population":0,"countryCode":"US","name":"Banbury","fclName":"city, village,...","adminCodes1":{"ISO3166_2":"PA"},"countryName":"United States","fcodeName":"populated place","adminName1":"Pennsylvania","lat":"40.2841","fcode":"PPL"},{"adminCode1":"PA","lng":"-75.3328","geonameId":7147296,"toponymName":"Banbury Crossing","countryId":"6252001","fcl":"P","population":0,"countryCode":"US","name":"Banbury Crossing","fclName":"city, village,...","adminCodes1":{"ISO3166_2":"PA"},"countryName":"United States","fcodeName":"populated place","adminName1":"Pennsylvania","lat":"40.283","fcode":"PPL"},{"adminCode1":"PA","lng":"-75.3087","geonameId":7147377,"toponymName":"Hidden Springs Mobile Home Park","countryId":"6252001","fcl":"P","population":0,"countryCode":"US","name":"Hidden Springs Mobile Home Park","fclName":"city, village,...","adminCodes1":{"ISO3166_2":"PA"},"countryName":"United States","fcodeName":"populated place","adminName1":"Pennsylvania","lat":"40.309","fcode":"PPL"},{"adminCode1":"PA","lng":"-75.3649","geonameId":7147504,"toponymName":"Derstine Estates","countryId":"6252001","fcl":"P","population":0,"countryCode":"US","name":"Derstine Estates","fclName":"city, village,...","adminCodes1":{"ISO3166_2":"PA"},"countryName":"United States","fcodeName":"populated place","adminName1":"Pennsylvania","lat":"40.3098","fcode":"PPL"},{"adminCode1":"PA","lng":"-75.3457","geonameId":7147671,"toponymName":"Forrest View","countryId":"6252001","fcl":"P","population":0,"countryCode":"US","name":"Forrest View","fclName":"city, village,...","adminCodes1":{"ISO3166_2":"PA"},"countryName":"United States","fcodeName":"populated place","adminName1":"Pennsylvania","lat":"40.332","fcode":"PPL"},{"adminCode1":"PA","lng":"-75.3273","geonameId":7147858,"toponymName":"Lions Gate II","countryId":"6252001","fcl":"P","population":0,"countryCode":"US","name":"Lions Gate II","fclName":"city, village,...","adminCodes1":{"ISO3166_2":"PA"},"countryName":"United States","fcodeName":"populated place","adminName1":"Pennsylvania","lat":"40.3006","fcode":"PPL"},{"adminCode1":"PA","lng":"-75.3147","geonameId":7148156,"toponymName":"Hunters Greene","countryId":"6252001","fcl":"P","population":0,"countryCode":"US","name":"Hunters Greene","fclName":"city, village,...","adminCodes1":{"ISO3166_2":"PA"},"countryName":"United States","fcodeName":"populated place","adminName1":"Pennsylvania","lat":"40.3048","fcode":"PPL"},{"adminCode1":"PA","lng":"-75.3879","geonameId":7148238,"toponymName":"Kingscote","countryId":"6252001","fcl":"P","population":0,"countryCode":"US","name":"Kingscote","fclName":"city, village,...","adminCodes1":{"ISO3166_2":"PA"},"countryName":"United States","fcodeName":"populated place","adminName1":"Pennsylvania","lat":"40.2951","fcode":"PPL"},{"adminCode1":"PA","lng":"-75.3398","geonameId":7148492,"toponymName":"Pear Tree Village","countryId":"6252001","fcl":"P","population":0,"countryCode":"US","name":"Pear Tree Village","fclName":"city, village,...","adminCodes1":{"ISO3166_2":"PA"},"countryName":"United States","fcodeName":"populated place","adminName1":"Pennsylvania","lat":"40.3279","fcode":"PPL"},{"adminCode1":"PA","lng":"-75.33906","geonameId":5208005,"toponymName":"Reliance","countryId":"6252001","fcl":"P","population":0,"countryCode":"US","name":"Reliance","fclName":"city, village,...","adminCodes1":{"ISO3166_2":"PA"},"countryName":"United States","fcodeName":"populated place","adminName1":"Pennsylvania","lat":"40.31427","fcode":"PPL"},{"adminCode1":"PA","lng":"-75.39184","geonameId":5202006,"toponymName":"Morwood","countryId":"6252001","fcl":"P","population":0,"countryCode":"US","name":"Morwood","fclName":"city, village,...","adminCodes1":{"ISO3166_2":"PA"},"countryName":"United States","fcodeName":"populated place","adminName1":"Pennsylvania","lat":"40.31538","fcode":"PPL"},{"adminCode1":"NH","lng":"-71.64494","geonameId":6697238,"toponymName":"Mount North Lafayette","countryId":"6252001","fcl":"T","population":0,"countryCode":"US","name":"Mount North Lafayette","fclName":"mountain,hill,rock,... ","adminCodes1":{"ISO3166_2":"NH"},"countryName":"United States","fcodeName":"mountain","adminName1":"New Hampshire","lat":"44.16644","fcode":"MT"},{"adminCode1":"NH","lng":"-71.56099","geonameId":6697343,"toponymName":"Southwest Twin Mountain","countryId":"6252001","fcl":"T","population":0,"countryCode":"US","name":"Southwest Twin Mountain","fclName":"mountain,hill,rock,... ","adminCodes1":{"ISO3166_2":"NH"},"countryName":"United States","fcodeName":"mountain","adminName1":"New Hampshire","lat":"44.17186","fcode":"MT"},{"adminCode1":"NH","lng":"-71.60564","geonameId":5086200,"toponymName":"Flat Top Mountain","countryId":"6252001","fcl":"T","population":0,"countryCode":"US","name":"Flat Top Mountain","fclName":"mountain,hill,rock,... ","adminCodes1":{"ISO3166_2":"NH"},"countryName":"United States","fcodeName":"mountain","adminName1":"New Hampshire","lat":"44.20284","fcode":"MT"},{"adminCode1":"NH","lng":"-71.56869","geonameId":5086440,"toponymName":"Galehead Hut","countryId":"6252001","fcl":"S","population":0,"countryCode":"US","name":"Galehead Hut","fclName":"spot, building, farm","adminCodes1":{"ISO3166_2":"NH"},"countryName":"United States","fcodeName":"hut","adminName1":"New Hampshire","lat":"44.18784","fcode":"HUT"},{"adminCode1":"NH","lng":"-71.70342","geonameId":5082946,"toponymName":"Bald Mountain","countryId":"6252001","fcl":"T","population":0,"countryCode":"US","name":"Bald Mountain","fclName":"mountain,hill,rock,... ","adminCodes1":{"ISO3166_2":"NH"},"countryName":"United States","fcodeName":"mountain","adminName1":"New Hampshire","lat":"44.18284","fcode":"MT"},{"adminCode1":"NH","lng":"-71.65397","geonameId":5083397,"toponymName":"Big Bickford Mountain","countryId":"6252001","fcl":"T","population":0,"countryCode":"US","name":"Big Bickford Mountain","fclName":"mountain,hill,rock,... ","adminCodes1":{"ISO3166_2":"NH"},"countryName":"United States","fcodeName":"mountain","adminName1":"New Hampshire","lat":"44.19673","fcode":"MT"},{"adminCode1":"NH","lng":"-71.71425","geonameId":5089703,"toponymName":"Mittersill","countryId":"6252001","fcl":"P","population":0,"countryCode":"US","name":"Mittersill","fclName":"city, village,...","adminCodes1":{"ISO3166_2":"NH"},"countryName":"United States","fcodeName":"populated place","adminName1":"New Hampshire","lat":"44.18006","fcode":"PPL"},{"adminCode1":"NH","lng":"-71.60481","geonameId":5090737,"toponymName":"Owls Head","countryId":"6252001","fcl":"T","population":0,"countryCode":"US","name":"Owls Head","fclName":"mountain,hill,rock,... ","adminCodes1":{"ISO3166_2":"NH"},"countryName":"United States","fcodeName":"mountain","adminName1":"New Hampshire","lat":"44.14412","fcode":"MT"},{"adminCode1":"NH","lng":"-71.65425","geonameId":5091474,"toponymName":"Priest Hill","countryId":"6252001","fcl":"T","population":0,"countryCode":"US","name":"Priest Hill","fclName":"mountain,hill,rock,... ","adminCodes1":{"ISO3166_2":"NH"},"countryName":"United States","fcodeName":"mountain","adminName1":"New Hampshire","lat":"44.22784","fcode":"MT"},{"adminCode1":"NH","lng":"-71.66008","geonameId":5092440,"toponymName":"Scarface Mountain","countryId":"6252001","fcl":"T","population":0,"countryCode":"US","name":"Scarface Mountain","fclName":"mountain,hill,rock,... ","adminCodes1":{"ISO3166_2":"NH"},"countryName":"United States","fcodeName":"mountain","adminName1":"New Hampshire","lat":"44.20423","fcode":"MT"},{"adminCode1":"NH","lng":"-71.73481","geonameId":5092477,"toponymName":"Scrag Hill","countryId":"6252001","fcl":"T","population":0,"countryCode":"US","name":"Scrag Hill","fclName":"mountain,hill,rock,... ","adminCodes1":{"ISO3166_2":"NH"},"countryName":"United States","fcodeName":"mountain","adminName1":"New Hampshire","lat":"44.24812","fcode":"MT"},{"adminCode1":"AL","lng":"-88.14614","geonameId":4063090,"toponymName":"Franconia Cemetery","countryId":"6252001","fcl":"S","population":0,"countryCode":"US","name":"Franconia Cemetery","fclName":"spot, building, farm","adminCodes1":{"ISO3166_2":"AL"},"countryName":"United States","fcodeName":"cemetery","adminName1":"Alabama","lat":"33.1454","fcode":"CMTY"},{"adminCode1":"OH","lng":"-84.30272","geonameId":5155054,"toponymName":"Franconia Post Office (historical)","countryId":"6252001","fcl":"S","population":0,"countryCode":"US","name":"Franconia Post Office (historical)","fclName":"spot, building, farm","adminCodes1":{"ISO3166_2":"OH"},"countryName":"United States","fcodeName":"post office","adminName1":"Ohio","lat":"41.04311","fcode":"PO"},{"adminCode1":"VA","lng":"-77.14521","geonameId":4759972,"toponymName":"Franconia Elementary School","countryId":"6252001","fcl":"S","population":0,"countryCode":"US","name":"Franconia Elementary School","fclName":"spot, building, farm","adminCodes1":{"ISO3166_2":"VA"},"countryName":"United States","fcodeName":"school","adminName1":"Virginia","lat":"38.78142","fcode":"SCH"},{"adminCode1":"NH","lng":"-71.746","geonameId":9685911,"toponymName":"Franconia Police Department","countryId":"6252001","fcl":"S","population":0,"countryCode":"US","name":"Franconia Police Department","fclName":"spot, building, farm","adminCodes1":{"ISO3166_2":"NH"},"countryName":"United States","fcodeName":"building(s)","adminName1":"New Hampshire","lat":"44.22707","fcode":"BLDG"},{"adminCode1":"NH","lng":"-71.57452","geonameId":5086338,"toponymName":"Franconia Shelter","countryId":"6252001","fcl":"S","population":0,"countryCode":"US","name":"Franconia Shelter","fclName":"spot, building, farm","adminCodes1":{"ISO3166_2":"NH"},"countryName":"United States","fcodeName":"","adminName1":"New Hampshire","lat":"44.10173"},{"adminCode1":"MN","lng":"-92.77271","geonameId":5040786,"toponymName":"Panola German Methodist Cemetery","countryId":"6252001","fcl":"S","population":0,"countryCode":"US","name":"Panola German Methodist Cemetery","fclName":"spot, building, farm","adminCodes1":{"ISO3166_2":"MN"},"countryName":"United States","fcodeName":"cemetery","adminName1":"Minnesota","lat":"45.31802","fcode":"CMTY"},{"adminCode1":"NH","lng":"-71.57952","geonameId":5086329,"toponymName":"Franconia Brook Trail","countryId":"6252001","fcl":"R","population":0,"countryCode":"US","name":"Franconia Brook Trail","fclName":"road, railroad ","adminCodes1":{"ISO3166_2":"NH"},"countryName":"United States","fcodeName":"trail","adminName1":"New Hampshire","lat":"44.13923","fcode":"TRL"},{"adminCode1":"NH","lng":"-71.64425","geonameId":5086337,"toponymName":"Franconia Ridge Trail","countryId":"6252001","fcl":"R","population":0,"countryCode":"US","name":"Franconia Ridge Trail","fclName":"road, railroad ","adminCodes1":{"ISO3166_2":"NH"},"countryName":"United States","fcodeName":"trail","adminName1":"New Hampshire","lat":"44.14173","fcode":"TRL"},{"adminCode1":"NH","lng":"-71.68147","geonameId":5087943,"toponymName":"Interchange 35","countryId":"6252001","fcl":"R","population":0,"countryCode":"US","name":"Interchange 35","fclName":"road, railroad ","adminCodes1":{"ISO3166_2":"NH"},"countryName":"United States","fcodeName":"road junction","adminName1":"New Hampshire","lat":"44.19729","fcode":"RDJCT"},{"adminCode1":"NH","lng":"-71.69036","geonameId":5087944,"toponymName":"Interchange 36","countryId":"6252001","fcl":"R","population":0,"countryCode":"US","name":"Interchange 36","fclName":"road, railroad ","adminCodes1":{"ISO3166_2":"NH"},"countryName":"United States","fcodeName":"road junction","adminName1":"New Hampshire","lat":"44.20256","fcode":"RDJCT"},{"adminCode1":"NH","lng":"-71.7337","geonameId":5087945,"toponymName":"Interchange 37","countryId":"6252001","fcl":"R","population":0,"countryCode":"US","name":"Interchange 37","fclName":"road, railroad ","adminCodes1":{"ISO3166_2":"NH"},"countryName":"United States","fcodeName":"road junction","adminName1":"New Hampshire","lat":"44.22256","fcode":"RDJCT"},{"adminCode1":"NH","lng":"-71.74731","geonameId":5087946,"toponymName":"Interchange 38","countryId":"6252001","fcl":"R","population":0,"countryCode":"US","name":"Interchange 38","fclName":"road, railroad ","adminCodes1":{"ISO3166_2":"NH"},"countryName":"United States","fcodeName":"road junction","adminName1":"New Hampshire","lat":"44.22812","fcode":"RDJCT"},{"adminCode1":"NH","lng":"-71.6887","geonameId":5084180,"toponymName":"Cannon Mountain Aerial Passenger Tramway","countryId":"6252001","fcl":"S","population":0,"countryCode":"US","name":"Cannon Mountain Aerial Passenger Tramway","fclName":"spot, building, farm","adminCodes1":{"ISO3166_2":"NH"},"countryName":"United States","fcodeName":"","adminName1":"New Hampshire","lat":"44.16979"},{"adminCode1":"NH","lng":"-71.69897","geonameId":5084183,"toponymName":"Cannon Mountain Winter Sports Area","countryId":"6252001","fcl":"S","population":0,"countryCode":"US","name":"Cannon Mountain Winter Sports Area","fclName":"spot, building, farm","adminCodes1":{"ISO3166_2":"NH"},"countryName":"United States","fcodeName":"","adminName1":"New Hampshire","lat":"44.17173"},{"adminCode1":"NH","lng":"-71.75648","geonameId":5091801,"toponymName":"Robert From Museum","countryId":"6252001","fcl":"S","population":0,"countryCode":"US","name":"Robert From Museum","fclName":"spot, building, farm","adminCodes1":{"ISO3166_2":"NH"},"countryName":"United States","fcodeName":"museum","adminName1":"New Hampshire","lat":"44.21312","fcode":"MUS"},{"adminCode1":"CA","lng":"-123.00771","geonameId":5369864,"toponymName":"Maintop Bay","countryId":"6252001","fcl":"H","population":0,"countryCode":"US","name":"Maintop Bay","fclName":"stream, lake, ...","adminCodes1":{"ISO3166_2":"CA"},"countryName":"United States","fcodeName":"bay","adminName1":"California","lat":"37.70103","fcode":"BAY"},{"adminCode1":"AL","lng":"-88.15058","geonameId":4829893,"toponymName":"U S Post Office Aliceville","countryId":"6252001","fcl":"S","population":0,"countryCode":"US","name":"U S Post Office Aliceville","fclName":"spot, building, farm","adminCodes1":{"ISO3166_2":"AL"},"countryName":"United States","fcodeName":"post office","adminName1":"Alabama","lat":"33.12929","fcode":"PO"},{"adminCode1":"MN","lng":"-92.6941","geonameId":5027309,"toponymName":"Franconia Cemetery","countryId":"6252001","fcl":"S","population":0,"countryCode":"US","name":"Franconia Cemetery","fclName":"spot, building, farm","adminCodes1":{"ISO3166_2":"MN"},"countryName":"United States","fcodeName":"cemetery","adminName1":"Minnesota","lat":"45.37913","fcode":"CMTY"},{"adminCode1":"MN","lng":"-92.69139","geonameId":5027310,"toponymName":"Franconia Post Office (historical)","countryId":"6252001","fcl":"S","population":0,"countryCode":"US","name":"Franconia Post Office (historical)","fclName":"spot, building, farm","adminCodes1":{"ISO3166_2":"MN"},"countryName":"United States","fcodeName":"post office","adminName1":"Minnesota","lat":"45.37028","fcode":"PO"},{"adminCode1":"PA","lng":"-75.3663","geonameId":7147686,"toponymName":"Franconia Mennonite Cemetery","countryId":"6252001","fcl":"S","population":0,"countryCode":"US","name":"Franconia Mennonite Cemetery","fclName":"spot, building, farm","adminCodes1":{"ISO3166_2":"PA"},"countryName":"United States","fcodeName":"cemetery","adminName1":"Pennsylvania","lat":"40.3053","fcode":"CMTY"},{"adminCode1":"PA","lng":"-75.3656","geonameId":7147687,"toponymName":"Franconia Mennonite Church","countryId":"6252001","fcl":"S","population":0,"countryCode":"US","name":"Franconia Mennonite Church","fclName":"spot, building, farm","adminCodes1":{"ISO3166_2":"PA"},"countryName":"United States","fcodeName":"church","adminName1":"Pennsylvania","lat":"40.3049","fcode":"CH"},{"adminCode1":"PA","lng":"-75.3688","geonameId":7147688,"toponymName":"Franconia Township Hall","countryId":"6252001","fcl":"S","population":0,"countryCode":"US","name":"Franconia Township Hall","fclName":"spot, building, farm","adminCodes1":{"ISO3166_2":"PA"},"countryName":"United States","fcodeName":"building(s)","adminName1":"Pennsylvania","lat":"40.3147","fcode":"BLDG"},{"adminCode1":"PA","lng":"-75.3673","geonameId":7147689,"toponymName":"Franconia Township Police Station","countryId":"6252001","fcl":"S","population":0,"countryCode":"US","name":"Franconia Township Police Station","fclName":"spot, building, farm","adminCodes1":{"ISO3166_2":"PA"},"countryName":"United States","fcodeName":"building(s)","adminName1":"Pennsylvania","lat":"40.3137","fcode":"BLDG"},{"adminCode1":"PA","lng":"-75.35157","geonameId":5190304,"toponymName":"Franconia School","countryId":"6252001","fcl":"S","population":0,"countryCode":"US","name":"Franconia School","fclName":"spot, building, farm","adminCodes1":{"ISO3166_2":"PA"},"countryName":"United States","fcodeName":"school","adminName1":"Pennsylvania","lat":"40.31205","fcode":"SCH"},{"adminCode1":"PA","lng":"-75.36663","geonameId":11392068,"toponymName":"Franconia Township Police Department","countryId":"6252001","fcl":"S","population":0,"countryCode":"US","name":"Franconia Township Police Department","fclName":"spot, building, farm","adminCodes1":{"ISO3166_2":"PA"},"countryName":"United States","fcodeName":"building(s)","adminName1":"Pennsylvania","lat":"40.31449","fcode":"BLDG"},{"adminCode1":"AZ","lng":"-114.2683","geonameId":7310153,"toponymName":"Franconia Cemetery","countryId":"6252001","fcl":"S","population":0,"countryCode":"US","name":"Franconia Cemetery","fclName":"spot, building, farm","adminCodes1":{"ISO3166_2":"AZ"},"countryName":"United States","fcodeName":"cemetery","adminName1":"Arizona","lat":"34.74005","fcode":"CMTY"},{"adminCode1":"VA","lng":"-77.14998","geonameId":4759974,"toponymName":"Franconia Hills","countryId":"6252001","fcl":"S","population":0,"countryCode":"US","name":"Franconia Hills","fclName":"spot, building, farm","adminCodes1":{"ISO3166_2":"VA"},"countryName":"United States","fcodeName":"","adminName1":"Virginia","lat":"38.78678"},{"adminCode1":"AL","lng":"-88.14642","geonameId":4063089,"toponymName":"Franconia (historical)","countryId":"6252001","fcl":"S","population":0,"countryCode":"US","name":"Franconia (historical)","fclName":"spot, building, farm","adminCodes1":{"ISO3166_2":"AL"},"countryName":"United States","fcodeName":"","adminName1":"Alabama","lat":"33.14457"},{"adminCode1":"AZ","lng":"-114.25912","geonameId":5295311,"toponymName":"Franconia Wash","countryId":"6252001","fcl":"H","population":0,"countryCode":"US","name":"Franconia Wash","fclName":"stream, lake, ...","adminCodes1":{"ISO3166_2":"AZ"},"countryName":"United States","fcodeName":"stream","adminName1":"Arizona","lat":"34.73779","fcode":"STM"},{"adminCode1":"MA","lng":"-72.53786","geonameId":4937270,"toponymName":"Franconia Golf Course","countryId":"6252001","fcl":"S","population":0,"countryCode":"US","name":"Franconia Golf Course","fclName":"spot, building, farm","adminCodes1":{"ISO3166_2":"MA"},"countryName":"United States","fcodeName":"golf course","adminName1":"Massachusetts","lat":"42.06287","fcode":"RECG"},{"adminCode1":"OH","lng":"-84.29356","geonameId":5155053,"toponymName":"Franconia Cemetery","countryId":"6252001","fcl":"S","population":0,"countryCode":"US","name":"Franconia Cemetery","fclName":"spot, building, farm","adminCodes1":{"ISO3166_2":"OH"},"countryName":"United States","fcodeName":"cemetery","adminName1":"Ohio","lat":"41.03949","fcode":"CMTY"},{"adminCode1":"NH","lng":"-71.742","geonameId":6495034,"toponymName":"Best Western Franconia","countryId":"6252001","fcl":"S","population":0,"countryCode":"US","name":"Best Western Franconia","fclName":"spot, building, farm","adminCodes1":{"ISO3166_2":"NH"},"countryName":"United States","fcodeName":"hotel","adminName1":"New Hampshire","lat":"44.234","fcode":"HTL"},{"adminCode1":"VA","lng":"-77.16776","geonameId":4759969,"toponymName":"Franconia - Springfield Virginia Railway Express Station","countryId":"6252001","fcl":"S","population":0,"countryCode":"US","name":"Franconia - Springfield Virginia Railway Express Station","fclName":"spot, building, farm","adminCodes1":{"ISO3166_2":"VA"},"countryName":"United States","fcodeName":"","adminName1":"Virginia","lat":"38.76678"},{"adminCode1":"NH","lng":"-71.74175","geonameId":5086335,"toponymName":"Franconia Post Office","countryId":"6252001","fcl":"S","population":0,"countryCode":"US","name":"Franconia Post Office","fclName":"spot, building, farm","adminCodes1":{"ISO3166_2":"NH"},"countryName":"United States","fcodeName":"post office","adminName1":"New Hampshire","lat":"44.22534","fcode":"PO"},{"adminCode1":"NH","lng":"-71.7437","geonameId":5086339,"toponymName":"Franconia Town Hall","countryId":"6252001","fcl":"S","population":0,"countryCode":"US","name":"Franconia Town Hall","fclName":"spot, building, farm","adminCodes1":{"ISO3166_2":"NH"},"countryName":"United States","fcodeName":"building(s)","adminName1":"New Hampshire","lat":"44.22701","fcode":"BLDG"},{"adminCode1":"NH","lng":"-71.74481","geonameId":5086341,"toponymName":"Franconia-Sugar Hill-Easton Chamber of Commerce","countryId":"6252001","fcl":"S","population":0,"countryCode":"US","name":"Franconia-Sugar Hill-Easton Chamber of Commerce","fclName":"spot, building, farm","adminCodes1":{"ISO3166_2":"NH"},"countryName":"United States","fcodeName":"building(s)","adminName1":"New Hampshire","lat":"44.22673","fcode":"BLDG"},{"adminCode1":"NH","lng":"-71.73417","geonameId":8101486,"toponymName":"Franconia Life Squad","countryId":"6252001","fcl":"S","population":0,"countryCode":"US","name":"Franconia Life Squad","fclName":"spot, building, farm","adminCodes1":{"ISO3166_2":"NH"},"countryName":"United States","fcodeName":"building(s)","adminName1":"New Hampshire","lat":"44.22019","fcode":"BLDG"},{"adminCode1":"NH","lng":"-71.73417","geonameId":7712392,"toponymName":"Franconia Fire Department","countryId":"6252001","fcl":"S","population":0,"countryCode":"US","name":"Franconia Fire Department","fclName":"spot, building, farm","adminCodes1":{"ISO3166_2":"NH"},"countryName":"United States","fcodeName":"building(s)","adminName1":"New Hampshire","lat":"44.22019","fcode":"BLDG"},{"adminCode1":"VA","lng":"-77.14513","geonameId":7202847,"toponymName":"Franconia Center School","countryId":"6252001","fcl":"S","population":0,"countryCode":"US","name":"Franconia Center School","fclName":"spot, building, farm","adminCodes1":{"ISO3166_2":"VA"},"countryName":"United States","fcodeName":"school","adminName1":"Virginia","lat":"38.78115","fcode":"SCH"},{"adminCode1":"VA","lng":"-77.13738","geonameId":7203125,"toponymName":"Franconia Child Development Center","countryId":"6252001","fcl":"S","population":0,"countryCode":"US","name":"Franconia Child Development Center","fclName":"spot, building, farm","adminCodes1":{"ISO3166_2":"VA"},"countryName":"United States","fcodeName":"school","adminName1":"Virginia","lat":"38.78449","fcode":"SCH"},{"adminCode1":"VA","lng":"-77.13733","geonameId":7197560,"toponymName":"Franconia Korean Baptist Church","countryId":"6252001","fcl":"S","population":0,"countryCode":"US","name":"Franconia Korean Baptist Church","fclName":"spot, building, farm","adminCodes1":{"ISO3166_2":"VA"},"countryName":"United States","fcodeName":"church","adminName1":"Virginia","lat":"38.78435","fcode":"CH"},{"adminCode1":"VA","lng":"-77.1497","geonameId":4755751,"toponymName":"Department of Motor Vehicles Franconia","countryId":"6252001","fcl":"S","population":0,"countryCode":"US","name":"Department of Motor Vehicles Franconia","fclName":"spot, building, farm","adminCodes1":{"ISO3166_2":"VA"},"countryName":"United States","fcodeName":"building(s)","adminName1":"Virginia","lat":"38.77928","fcode":"BLDG"},{"adminCode1":"VA","lng":"-77.14665","geonameId":4759970,"toponymName":"Franconia Alliance Church","countryId":"6252001","fcl":"S","population":0,"countryCode":"US","name":"Franconia Alliance Church","fclName":"spot, building, farm","adminCodes1":{"ISO3166_2":"VA"},"countryName":"United States","fcodeName":"church","adminName1":"Virginia","lat":"38.77817","fcode":"CH"}]}
