{"totalResultsCount":3021,"geonames":[{"adminCode1":"MD","lng":"-77.41054","geonameId":4355585,"toponymName":"Frederick","countryId":"6252001","fcl":"P","population":69479,"countryCode":"US","name":"Frederick","fclName":"city, village,...","adminCodes1":{"ISO3166_2":"MD"},"countryName":"United States","fcodeName":"seat of a second-order administrative division","adminName1":"Maryland","lat":"39.41427","fcode":"PPLA2"},{"adminCode1":"MD","lng":"-77.37415","geonameId":4355613,"toponymName":"Frederick Municipal Airport","countryId":"6252001","fcl":"S","population":0,"countryCode":"US","name":"Frederick Municipal Airport","fclName":"spot, building, farm","adminCodes1":{"ISO3166_2":"MD"},"countryName":"United States","fcodeName":"airport","adminName1":"Maryland","lat":"39.41732","fcode":"AIRP"},{"adminCode1":"VA","lng":"-78.14698","geonameId":4794129,"toponymName":"Winchester Regional Airport","countryId":"6252001","fcl":"S","population":0,"countryCode":"US","name":"Winchester Regional Airport","fclName":"spot, building, farm","adminCodes1":{"ISO3166_2":"VA"},"countryName":"United States","fcodeName":"airport","adminName1":"Virginia","lat":"39.14316","fcode":"AIRP"},{"adminCode1":"MD","lng":"-77.41082","geonameId":4371334,"toponymName":"Thurmont","countryId":"6252001","fcl":"P","population":6454,"countryCode":"US","name":"Thurmont","fclName":"city, village,...","adminCodes1":{"ISO3166_2":"MD"},"countryName":"United States","fcodeName":"populated place","adminName1":"Maryland","lat":"39.62371","fcode":"PPL"},{"adminCode1":"MD","lng":"-77.32693","geonameId":4354352,"toponymName":"Emmitsburg","countryId":"6252001","fcl":"P","population":3021,"countryCode":"US","name":"Emmitsburg","fclName":"city, village,...","adminCodes1":{"ISO3166_2":"MD"},"countryName":"United States","fcodeName":"populated place","adminName1":"Maryland","lat":"39.70454","fcode":"PPL"},{"adminCode1":"MD","lng":"-77.62777","geonameId":4349706,"toponymName":"Brunswick","countryId":"6252001","fcl":"P","population":6116,"countryCode":"US","name":"Brunswick","fclName":"city, village,...","adminCodes1":{"ISO3166_2":"MD"},"countryName":"United States","fcodeName":"populated place","adminName1":"Maryland","lat":"39.31427","fcode":"PPL"},{"adminCode1":"MD","lng":"-77.39799","geonameId":4355594,"toponymName":"Frederick County","countryId":"6252001","fcl":"A","population":233385,"countryCode":"US","name":"Frederick","fclName":"country, state, region,...","adminCodes1":{"ISO3166_2":"MD"},"countryName":"United States","fcodeName":"second-order administrative division","adminName1":"Maryland","lat":"39.47222","fcode":"ADM2"},{"adminCode1":"VA","lng":"-78.26258","geonameId":4760052,"toponymName":"Frederick County","countryId":"6252001","fcl":"A","population":78305,"countryCode":"US","name":"Frederick","fclName":"country, state, region,...","adminCodes1":{"ISO3166_2":"VA"},"countryName":"United States","fcodeName":"second-order administrative division","adminName1":"Virginia","lat":"39.20456","fcode":"ADM2"},{"adminCode1":"VA","lng":"-78.28056","geonameId":4772927,"toponymName":"Middletown","countryId":"6252001","fcl":"P","population":1315,"countryCode":"US","name":"Middletown","fclName":"city, village,...","adminCodes1":{"ISO3166_2":"VA"},"countryName":"United States","fcodeName":"populated place","adminName1":"Virginia","lat":"39.02761","fcode":"PPL"},{"adminCode1":"VA","lng":"-78.21806","geonameId":4787519,"toponymName":"Stephens City","countryId":"6252001","fcl":"P","population":1940,"countryCode":"US","name":"Stephens City","fclName":"city, village,...","adminCodes1":{"ISO3166_2":"VA"},"countryName":"United States","fcodeName":"populated place","adminName1":"Virginia","lat":"39.08344","fcode":"PPL"},{"adminCode1":"MD","lng":"-77.45638","geonameId":4367573,"toponymName":"Sabillasville","countryId":"6252001","fcl":"P","population":354,"countryCode":"US","name":"Sabillasville","fclName":"city, village,...","adminCodes1":{"ISO3166_2":"MD"},"countryName":"United States","fcodeName":"populated place","adminName1":"Maryland","lat":"39.7001","fcode":"PPL"},{"adminCode1":"MD","lng":"-77.50415","geonameId":4370682,"toponymName":"Sunny Side Industrial Park","countryId":"6252001","fcl":"L","population":0,"countryCode":"US","name":"Sunny Side Industrial Park","fclName":"parks,area, ...","adminCodes1":{"ISO3166_2":"MD"},"countryName":"United States","fcodeName":"industrial area","adminName1":"Maryland","lat":"39.33955","fcode":"INDS"},{"adminCode1":"MD","lng":"-77.54471","geonameId":4362372,"toponymName":"Middletown","countryId":"6252001","fcl":"P","population":4469,"countryCode":"US","name":"Middletown","fclName":"city, village,...","adminCodes1":{"ISO3166_2":"MD"},"countryName":"United States","fcodeName":"populated place","adminName1":"Maryland","lat":"39.44371","fcode":"PPL"},{"adminCode1":"MD","lng":"-77.39562","geonameId":4362674,"toponymName":"Monocacy National Battlefield","countryId":"6252001","fcl":"L","population":0,"countryCode":"US","name":"Monocacy National Battlefield","fclName":"parks,area, ...","adminCodes1":{"ISO3166_2":"MD"},"countryName":"United States","fcodeName":"park","adminName1":"Maryland","lat":"39.36207","fcode":"PRK"},{"adminCode1":"MD","lng":"-77.56638","geonameId":4363436,"toponymName":"Myersville","countryId":"6252001","fcl":"P","population":1708,"countryCode":"US","name":"Myersville","fclName":"city, village,...","adminCodes1":{"ISO3166_2":"MD"},"countryName":"United States","fcodeName":"populated place","adminName1":"Maryland","lat":"39.5051","fcode":"PPL"},{"adminCode1":"MD","lng":"-77.53915","geonameId":4365812,"toponymName":"Point of Rocks","countryId":"6252001","fcl":"P","population":1466,"countryCode":"US","name":"Point of Rocks","fclName":"city, village,...","adminCodes1":{"ISO3166_2":"MD"},"countryName":"United States","fcodeName":"populated place","adminName1":"Maryland","lat":"39.27594","fcode":"PPL"},{"adminCode1":"MD","lng":"-77.49138","geonameId":4355898,"toponymName":"Gambrill State Park","countryId":"6252001","fcl":"L","population":0,"countryCode":"US","name":"Gambrill State Park","fclName":"parks,area, ...","adminCodes1":{"ISO3166_2":"MD"},"countryName":"United States","fcodeName":"park","adminName1":"Maryland","lat":"39.47871","fcode":"PRK"},{"adminCode1":"MD","lng":"-77.5036","geonameId":4349228,"toponymName":"Braddock Heights","countryId":"6252001","fcl":"P","population":2608,"countryCode":"US","name":"Braddock Heights","fclName":"city, village,...","adminCodes1":{"ISO3166_2":"MD"},"countryName":"United States","fcodeName":"populated place","adminName1":"Maryland","lat":"39.41871","fcode":"PPL"},{"adminCode1":"MD","lng":"-77.43165","geonameId":4349755,"toponymName":"Buckeystown","countryId":"6252001","fcl":"P","population":1019,"countryCode":"US","name":"Buckeystown","fclName":"city, village,...","adminCodes1":{"ISO3166_2":"MD"},"countryName":"United States","fcodeName":"populated place","adminName1":"Maryland","lat":"39.33482","fcode":"PPL"},{"adminCode1":"MD","lng":"-77.62888","geonameId":4349858,"toponymName":"Burkittsville","countryId":"6252001","fcl":"P","population":155,"countryCode":"US","name":"Burkittsville","fclName":"city, village,...","adminCodes1":{"ISO3166_2":"MD"},"countryName":"United States","fcodeName":"populated place","adminName1":"Maryland","lat":"39.39371","fcode":"PPL"},{"adminCode1":"MD","lng":"-77.4643","geonameId":4350628,"toponymName":"Catoctin Mountain Park","countryId":"6252001","fcl":"L","population":0,"countryCode":"US","name":"Catoctin Mountain Park","fclName":"parks,area, ...","adminCodes1":{"ISO3166_2":"MD"},"countryName":"United States","fcodeName":"park","adminName1":"Maryland","lat":"39.65076","fcode":"PRK"},{"adminCode1":"MD","lng":"-77.47471","geonameId":4346978,"toponymName":"Adamstown","countryId":"6252001","fcl":"P","population":2372,"countryCode":"US","name":"Adamstown","fclName":"city, village,...","adminCodes1":{"ISO3166_2":"MD"},"countryName":"United States","fcodeName":"populated place","adminName1":"Maryland","lat":"39.31094","fcode":"PPL"},{"adminCode1":"MD","lng":"-77.43526","geonameId":4347839,"toponymName":"Ballenger Creek","countryId":"6252001","fcl":"P","population":18274,"countryCode":"US","name":"Ballenger Creek","fclName":"city, village,...","adminCodes1":{"ISO3166_2":"MD"},"countryName":"United States","fcodeName":"populated place","adminName1":"Maryland","lat":"39.3726","fcode":"PPL"},{"adminCode1":"MD","lng":"-77.53165","geonameId":4359377,"toponymName":"Jefferson","countryId":"6252001","fcl":"P","population":2111,"countryCode":"US","name":"Jefferson","fclName":"city, village,...","adminCodes1":{"ISO3166_2":"MD"},"countryName":"United States","fcodeName":"populated place","adminName1":"Maryland","lat":"39.36205","fcode":"PPL"},{"adminCode1":"MD","lng":"-77.35193","geonameId":4372630,"toponymName":"Walkersville","countryId":"6252001","fcl":"P","population":5993,"countryCode":"US","name":"Walkersville","fclName":"city, village,...","adminCodes1":{"ISO3166_2":"MD"},"countryName":"United States","fcodeName":"populated place","adminName1":"Maryland","lat":"39.48621","fcode":"PPL"},{"adminCode1":"MD","lng":"-77.31471","geonameId":4374122,"toponymName":"Woodsboro","countryId":"6252001","fcl":"P","population":1196,"countryCode":"US","name":"Woodsboro","fclName":"city, village,...","adminCodes1":{"ISO3166_2":"MD"},"countryName":"United States","fcodeName":"populated place","adminName1":"Maryland","lat":"39.53316","fcode":"PPL"},{"adminCode1":"VA","lng":"-78.30619","geonameId":4751498,"toponymName":"Cedar Creek and Belle Grove National Historical Park","countryId":"6252001","fcl":"L","population":0,"countryCode":"US","name":"Cedar Creek and Belle Grove National Historical Park","fclName":"parks,area, ...","adminCodes1":{"ISO3166_2":"VA"},"countryName":"United States","fcodeName":"park","adminName1":"Virginia","lat":"39.00935","fcode":"PRK"},{"adminCode1":"VA","lng":"-78.06667","geonameId":4749388,"toponymName":"Brucetown","countryId":"6252001","fcl":"P","population":0,"countryCode":"US","name":"Brucetown","fclName":"city, village,...","adminCodes1":{"ISO3166_2":"VA"},"countryName":"United States","fcodeName":"populated place","adminName1":"Virginia","lat":"39.25455","fcode":"PPL"},{"adminCode1":"VA","lng":"-78.10639","geonameId":4787540,"toponymName":"Stephenson","countryId":"6252001","fcl":"P","population":0,"countryCode":"US","name":"Stephenson","fclName":"city, village,...","adminCodes1":{"ISO3166_2":"VA"},"countryName":"United States","fcodeName":"populated place","adminName1":"Virginia","lat":"39.23732","fcode":"PPL"},{"adminCode1":"MD","lng":"-77.31748","geonameId":4367226,"toponymName":"Rocky Ridge","countryId":"6252001","fcl":"P","population":0,"countryCode":"US","name":"Rocky Ridge","fclName":"city, village,...","adminCodes1":{"ISO3166_2":"MD"},"countryName":"United States","fcodeName":"populated place","adminName1":"Maryland","lat":"39.6051","fcode":"PPL"},{"adminCode1":"MD","lng":"-77.35248","geonameId":4370201,"toponymName":"Spring Ridge","countryId":"6252001","fcl":"P","population":5795,"countryCode":"US","name":"Spring Ridge","fclName":"city, village,...","adminCodes1":{"ISO3166_2":"MD"},"countryName":"United States","fcodeName":"populated place","adminName1":"Maryland","lat":"39.40149","fcode":"PPL"},{"adminCode1":"MD","lng":"-77.37554","geonameId":4362677,"toponymName":"Monocacy Pine Cliff Park","countryId":"6252001","fcl":"L","population":0,"countryCode":"US","name":"Monocacy Pine Cliff Park","fclName":"parks,area, ...","adminCodes1":{"ISO3166_2":"MD"},"countryName":"United States","fcodeName":"park","adminName1":"Maryland","lat":"39.39066","fcode":"PRK"},{"adminCode1":"MD","lng":"-77.27193","geonameId":4362685,"toponymName":"Monrovia","countryId":"6252001","fcl":"P","population":416,"countryCode":"US","name":"Monrovia","fclName":"city, village,...","adminCodes1":{"ISO3166_2":"MD"},"countryName":"United States","fcodeName":"populated place","adminName1":"Maryland","lat":"39.37205","fcode":"PPL"},{"adminCode1":"MD","lng":"-77.26943","geonameId":4363654,"toponymName":"New Market","countryId":"6252001","fcl":"P","population":697,"countryCode":"US","name":"New Market","fclName":"city, village,...","adminCodes1":{"ISO3166_2":"MD"},"countryName":"United States","fcodeName":"populated place","adminName1":"Maryland","lat":"39.3826","fcode":"PPL"},{"adminCode1":"MD","lng":"-77.29082","geonameId":4363668,"toponymName":"New Midway","countryId":"6252001","fcl":"P","population":0,"countryCode":"US","name":"New Midway","fclName":"city, village,...","adminCodes1":{"ISO3166_2":"MD"},"countryName":"United States","fcodeName":"populated place","adminName1":"Maryland","lat":"39.56704","fcode":"PPL"},{"adminCode1":"MD","lng":"-77.29721","geonameId":4356836,"toponymName":"Green Valley","countryId":"6252001","fcl":"P","population":12262,"countryCode":"US","name":"Green Valley","fclName":"city, village,...","adminCodes1":{"ISO3166_2":"MD"},"countryName":"United States","fcodeName":"populated place","adminName1":"Maryland","lat":"39.30927","fcode":"PPL"},{"adminCode1":"MD","lng":"-77.46638","geonameId":4350627,"toponymName":"Catoctin Mountain","countryId":"6252001","fcl":"T","population":0,"countryCode":"US","name":"Catoctin Mountain","fclName":"mountain,hill,rock,... ","adminCodes1":{"ISO3166_2":"MD"},"countryName":"United States","fcodeName":"mountain","adminName1":"Maryland","lat":"39.64787","fcode":"MT"},{"adminCode1":"MD","lng":"-77.42887","geonameId":4351840,"toponymName":"Clover Hill","countryId":"6252001","fcl":"P","population":3542,"countryCode":"US","name":"Clover Hill","fclName":"city, village,...","adminCodes1":{"ISO3166_2":"MD"},"countryName":"United States","fcodeName":"populated place","adminName1":"Maryland","lat":"39.45621","fcode":"PPL"},{"adminCode1":"MD","lng":"-77.35804","geonameId":4347947,"toponymName":"Bartonsville","countryId":"6252001","fcl":"P","population":1451,"countryCode":"US","name":"Bartonsville","fclName":"city, village,...","adminCodes1":{"ISO3166_2":"MD"},"countryName":"United States","fcodeName":"populated place","adminName1":"Maryland","lat":"39.3926","fcode":"PPL"},{"adminCode1":"MD","lng":"-77.32276","geonameId":4358859,"toponymName":"Ijamsville","countryId":"6252001","fcl":"P","population":0,"countryCode":"US","name":"Ijamsville","fclName":"city, village,...","adminCodes1":{"ISO3166_2":"MD"},"countryName":"United States","fcodeName":"populated place","adminName1":"Maryland","lat":"39.36038","fcode":"PPL"},{"adminCode1":"MD","lng":"-77.66416","geonameId":4360073,"toponymName":"Knoxville","countryId":"6252001","fcl":"P","population":0,"countryCode":"US","name":"Knoxville","fclName":"city, village,...","adminCodes1":{"ISO3166_2":"MD"},"countryName":"United States","fcodeName":"populated place","adminName1":"Maryland","lat":"39.32705","fcode":"PPL"},{"adminCode1":"MD","lng":"-77.26498","geonameId":4360124,"toponymName":"Ladiesburg","countryId":"6252001","fcl":"P","population":0,"countryCode":"US","name":"Ladiesburg","fclName":"city, village,...","adminCodes1":{"ISO3166_2":"MD"},"countryName":"United States","fcodeName":"populated place","adminName1":"Maryland","lat":"39.57649","fcode":"PPL"},{"adminCode1":"MD","lng":"-77.24026","geonameId":4360625,"toponymName":"Libertytown","countryId":"6252001","fcl":"P","population":950,"countryCode":"US","name":"Libertytown","fclName":"city, village,...","adminCodes1":{"ISO3166_2":"MD"},"countryName":"United States","fcodeName":"populated place","adminName1":"Maryland","lat":"39.4851","fcode":"PPL"},{"adminCode1":"MD","lng":"-77.20804","geonameId":4360700,"toponymName":"Linganore","countryId":"6252001","fcl":"P","population":8543,"countryCode":"US","name":"Linganore","fclName":"city, village,...","adminCodes1":{"ISO3166_2":"MD"},"countryName":"United States","fcodeName":"populated place","adminName1":"Maryland","lat":"39.44038","fcode":"PPL"},{"adminCode1":"MD","lng":"-77.47026","geonameId":4371884,"toponymName":"Tuscarora","countryId":"6252001","fcl":"P","population":0,"countryCode":"US","name":"Tuscarora","fclName":"city, village,...","adminCodes1":{"ISO3166_2":"MD"},"countryName":"United States","fcodeName":"populated place","adminName1":"Maryland","lat":"39.25677","fcode":"PPL"},{"adminCode1":"MD","lng":"-77.35137","geonameId":4372201,"toponymName":"Urbana","countryId":"6252001","fcl":"P","population":9175,"countryCode":"US","name":"Urbana","fclName":"city, village,...","adminCodes1":{"ISO3166_2":"MD"},"countryName":"United States","fcodeName":"populated place","adminName1":"Maryland","lat":"39.32594","fcode":"PPL"},{"adminCode1":"MD","lng":"-77.30387","geonameId":4374126,"toponymName":"Woodsboro Park","countryId":"6252001","fcl":"L","population":0,"countryCode":"US","name":"Woodsboro Park","fclName":"parks,area, ...","adminCodes1":{"ISO3166_2":"MD"},"countryName":"United States","fcodeName":"park","adminName1":"Maryland","lat":"39.53121","fcode":"PRK"},{"adminCode1":"OK","lng":"-98.9848","geonameId":4537294,"toponymName":"Frederick Municipal Airport","countryId":"6252001","fcl":"S","population":0,"countryCode":"US","name":"Frederick Municipal Airport","fclName":"spot, building, farm","adminCodes1":{"ISO3166_2":"OK"},"countryName":"United States","fcodeName":"airport","adminName1":"Oklahoma","lat":"34.35203","fcode":"AIRP"},{"adminCode1":"VA","lng":"-78.16165","geonameId":7238361,"toponymName":"Lake Frederick","countryId":"6252001","fcl":"P","population":0,"countryCode":"US","name":"Lake Frederick","fclName":"city, village,...","adminCodes1":{"ISO3166_2":"VA"},"countryName":"United States","fcodeName":"populated place","adminName1":"Virginia","lat":"39.04317","fcode":"PPL"},{"adminCode1":"DC","lng":"-76.98508","geonameId":9675428,"toponymName":"Frederick Douglass National Historic Site","countryId":"6252001","fcl":"L","population":0,"countryCode":"US","name":"Frederick Douglass National Historic Site","fclName":"parks,area, ...","adminCodes1":{"ISO3166_2":"DC"},"countryName":"United States","fcodeName":"park","adminName1":"Washington, D.C.","lat":"38.86298","fcode":"PRK"},{"adminCode1":"VA","lng":"-78.29334","geonameId":4754808,"toponymName":"Cross Junction","countryId":"6252001","fcl":"P","population":0,"countryCode":"US","name":"Cross Junction","fclName":"city, village,...","adminCodes1":{"ISO3166_2":"VA"},"countryName":"United States","fcodeName":"populated place","adminName1":"Virginia","lat":"39.32038","fcode":"PPL"},{"adminCode1":"VA","lng":"-78.09611","geonameId":4753060,"toponymName":"Clear Brook","countryId":"6252001","fcl":"P","population":0,"countryCode":"US","name":"Clear Brook","fclName":"city, village,...","adminCodes1":{"ISO3166_2":"VA"},"countryName":"United States","fcodeName":"populated place","adminName1":"Virginia","lat":"39.25649","fcode":"PPL"},{"adminCode1":"VA","lng":"-78.33195","geonameId":4761463,"toponymName":"Gore","countryId":"6252001","fcl":"P","population":0,"countryCode":"US","name":"Gore","fclName":"city, village,...","adminCodes1":{"ISO3166_2":"VA"},"countryName":"United States","fcodeName":"populated place","adminName1":"Virginia","lat":"39.26399","fcode":"PPL"},{"adminCode1":"VA","lng":"-78.34556","geonameId":4785161,"toponymName":"Shawnee Land","countryId":"6252001","fcl":"P","population":1873,"countryCode":"US","name":"Shawnee Land","fclName":"city, village,...","adminCodes1":{"ISO3166_2":"VA"},"countryName":"United States","fcodeName":"populated place","adminName1":"Virginia","lat":"39.19149","fcode":"PPL"},{"adminCode1":"CO","lng":"-104.9372","geonameId":5577217,"toponymName":"Frederick","countryId":"6252001","fcl":"P","population":11413,"countryCode":"US","name":"Frederick","fclName":"city, village,...","adminCodes1":{"ISO3166_2":"CO"},"countryName":"United States","fcodeName":"populated place","adminName1":"Colorado","lat":"40.09915","fcode":"PPL"},{"adminCode1":"VA","lng":"-78.16333","geonameId":4794120,"toponymName":"Winchester","countryId":"6252001","fcl":"P","population":27284,"countryCode":"US","name":"Winchester","fclName":"city, village,...","adminCodes1":{"ISO3166_2":"VA"},"countryName":"United States","fcodeName":"seat of a second-order administrative division","adminName1":"Virginia","lat":"39.18566","fcode":"PPLA2"},{"adminCode1":"VA","lng":"-78.295","geonameId":4774588,"toponymName":"Mount Pleasant","countryId":"6252001","fcl":"P","population":0,"countryCode":"US","name":"Mount Pleasant","fclName":"city, village,...","adminCodes1":{"ISO3166_2":"VA"},"countryName":"United States","fcodeName":"populated place","adminName1":"Virginia","lat":"39.17205","fcode":"PPL"},{"adminCode1":"VA","lng":"-78.39556","geonameId":4774941,"toponymName":"Mountain Falls","countryId":"6252001","fcl":"P","population":0,"countryCode":"US","name":"Mountain Falls","fclName":"city, village,...","adminCodes1":{"ISO3166_2":"VA"},"countryName":"United States","fcodeName":"populated place","adminName1":"Virginia","lat":"39.11733","fcode":"PPL"},{"adminCode1":"VA","lng":"-78.19972","geonameId":4775375,"toponymName":"Nain","countryId":"6252001","fcl":"P","population":0,"countryCode":"US","name":"Nain","fclName":"city, village,...","adminCodes1":{"ISO3166_2":"VA"},"countryName":"United States","fcodeName":"populated place","adminName1":"Virginia","lat":"39.23927","fcode":"PPL"},{"adminCode1":"VA","lng":"-78.24667","geonameId":4777434,"toponymName":"Opequon","countryId":"6252001","fcl":"P","population":0,"countryCode":"US","name":"Opequon","fclName":"city, village,...","adminCodes1":{"ISO3166_2":"VA"},"countryName":"United States","fcodeName":"populated place","adminName1":"Virginia","lat":"39.15733","fcode":"PPL"},{"adminCode1":"VA","lng":"-78.21195","geonameId":4745734,"toponymName":"Bartonsville","countryId":"6252001","fcl":"P","population":0,"countryCode":"US","name":"Bartonsville","fclName":"city, village,...","adminCodes1":{"ISO3166_2":"VA"},"countryName":"United States","fcodeName":"populated place","adminName1":"Virginia","lat":"39.11149","fcode":"PPL"},{"adminCode1":"VA","lng":"-78.26306","geonameId":4765668,"toponymName":"Indian Hollow","countryId":"6252001","fcl":"P","population":0,"countryCode":"US","name":"Indian Hollow","fclName":"city, village,...","adminCodes1":{"ISO3166_2":"VA"},"countryName":"United States","fcodeName":"populated place","adminName1":"Virginia","lat":"39.24121","fcode":"PPL"},{"adminCode1":"VA","lng":"-78.0775","geonameId":4769152,"toponymName":"Leetown","countryId":"6252001","fcl":"P","population":0,"countryCode":"US","name":"Leetown","fclName":"city, village,...","adminCodes1":{"ISO3166_2":"VA"},"countryName":"United States","fcodeName":"populated place","adminName1":"Virginia","lat":"39.22705","fcode":"PPL"},{"adminCode1":"VA","lng":"-78.32223","geonameId":4771658,"toponymName":"Marlboro","countryId":"6252001","fcl":"P","population":0,"countryCode":"US","name":"Marlboro","fclName":"city, village,...","adminCodes1":{"ISO3166_2":"VA"},"countryName":"United States","fcodeName":"populated place","adminName1":"Virginia","lat":"39.0815","fcode":"PPL"},{"adminCode1":"VA","lng":"-78.27695","geonameId":4772398,"toponymName":"McQuire","countryId":"6252001","fcl":"P","population":0,"countryCode":"US","name":"McQuire","fclName":"city, village,...","adminCodes1":{"ISO3166_2":"VA"},"countryName":"United States","fcodeName":"populated place","adminName1":"Virginia","lat":"39.22177","fcode":"PPL"},{"adminCode1":"VA","lng":"-78.07611","geonameId":4750053,"toponymName":"Burnt Factory","countryId":"6252001","fcl":"P","population":0,"countryCode":"US","name":"Burnt Factory","fclName":"city, village,...","adminCodes1":{"ISO3166_2":"VA"},"countryName":"United States","fcodeName":"populated place","adminName1":"Virginia","lat":"39.19455","fcode":"PPL"},{"adminCode1":"VA","lng":"-78.18417","geonameId":4750860,"toponymName":"Canterburg","countryId":"6252001","fcl":"P","population":0,"countryCode":"US","name":"Canterburg","fclName":"city, village,...","adminCodes1":{"ISO3166_2":"VA"},"countryName":"United States","fcodeName":"populated place","adminName1":"Virginia","lat":"39.04677","fcode":"PPL"},{"adminCode1":"VA","lng":"-78.11389","geonameId":4751560,"toponymName":"Cedar Hill","countryId":"6252001","fcl":"P","population":0,"countryCode":"US","name":"Cedar Hill","fclName":"city, village,...","adminCodes1":{"ISO3166_2":"VA"},"countryName":"United States","fcodeName":"populated place","adminName1":"Virginia","lat":"39.27649","fcode":"PPL"},{"adminCode1":"VA","lng":"-78.25917","geonameId":4760385,"toponymName":"Gainesboro","countryId":"6252001","fcl":"P","population":0,"countryCode":"US","name":"Gainesboro","fclName":"city, village,...","adminCodes1":{"ISO3166_2":"VA"},"countryName":"United States","fcodeName":"populated place","adminName1":"Virginia","lat":"39.27844","fcode":"PPL"},{"adminCode1":"VA","lng":"-78.12611","geonameId":4762395,"toponymName":"Grimes","countryId":"6252001","fcl":"P","population":0,"countryCode":"US","name":"Grimes","fclName":"city, village,...","adminCodes1":{"ISO3166_2":"VA"},"countryName":"United States","fcodeName":"populated place","adminName1":"Virginia","lat":"39.27816","fcode":"PPL"},{"adminCode1":"VA","lng":"-78.28973","geonameId":4763437,"toponymName":"Hayfield","countryId":"6252001","fcl":"P","population":0,"countryCode":"US","name":"Hayfield","fclName":"city, village,...","adminCodes1":{"ISO3166_2":"VA"},"countryName":"United States","fcodeName":"populated place","adminName1":"Virginia","lat":"39.23427","fcode":"PPL"},{"adminCode1":"VA","lng":"-78.19861","geonameId":4744048,"toponymName":"Albin","countryId":"6252001","fcl":"P","population":0,"countryCode":"US","name":"Albin","fclName":"city, village,...","adminCodes1":{"ISO3166_2":"VA"},"countryName":"United States","fcodeName":"populated place","adminName1":"Virginia","lat":"39.22177","fcode":"PPL"},{"adminCode1":"VA","lng":"-78.14361","geonameId":4744761,"toponymName":"Armel","countryId":"6252001","fcl":"P","population":0,"countryCode":"US","name":"Armel","fclName":"city, village,...","adminCodes1":{"ISO3166_2":"VA"},"countryName":"United States","fcodeName":"populated place","adminName1":"Virginia","lat":"39.07927","fcode":"PPL"},{"adminCode1":"VA","lng":"-78.39973","geonameId":4046938,"toponymName":"Wilde Acres","countryId":"6252001","fcl":"P","population":0,"countryCode":"US","name":"Wilde Acres","fclName":"city, village,...","adminCodes1":{"ISO3166_2":"VA"},"countryName":"United States","fcodeName":"populated place","adminName1":"Virginia","lat":"39.14705","fcode":"PPL"},{"adminCode1":"VA","lng":"-78.24389","geonameId":4785507,"toponymName":"Shockeysville","countryId":"6252001","fcl":"P","population":0,"countryCode":"US","name":"Shockeysville","fclName":"city, village,...","adminCodes1":{"ISO3166_2":"VA"},"countryName":"United States","fcodeName":"populated place","adminName1":"Virginia","lat":"39.38593","fcode":"PPL"},{"adminCode1":"VA","lng":"-78.23889","geonameId":4785680,"toponymName":"Siler","countryId":"6252001","fcl":"P","population":0,"countryCode":"US","name":"Siler","fclName":"city, village,...","adminCodes1":{"ISO3166_2":"VA"},"countryName":"United States","fcodeName":"populated place","adminName1":"Virginia","lat":"39.35066","fcode":"PPL"},{"adminCode1":"VA","lng":"-78.08278","geonameId":4781527,"toponymName":"Rest","countryId":"6252001","fcl":"P","population":0,"countryCode":"US","name":"Rest","fclName":"city, village,...","adminCodes1":{"ISO3166_2":"VA"},"countryName":"United States","fcodeName":"populated place","adminName1":"Virginia","lat":"39.29038","fcode":"PPL"},{"adminCode1":"VA","lng":"-78.24695","geonameId":4791035,"toponymName":"Vaucluse","countryId":"6252001","fcl":"P","population":0,"countryCode":"US","name":"Vaucluse","fclName":"city, village,...","adminCodes1":{"ISO3166_2":"VA"},"countryName":"United States","fcodeName":"populated place","adminName1":"Virginia","lat":"39.05816","fcode":"PPL"},{"adminCode1":"VA","lng":"-78.13417","geonameId":4792679,"toponymName":"Welltown","countryId":"6252001","fcl":"P","population":0,"countryCode":"US","name":"Welltown","fclName":"city, village,...","adminCodes1":{"ISO3166_2":"VA"},"countryName":"United States","fcodeName":"populated place","adminName1":"Virginia","lat":"39.25344","fcode":"PPL"},{"adminCode1":"VA","lng":"-78.32723","geonameId":4793210,"toponymName":"Whitacre","countryId":"6252001","fcl":"P","population":0,"countryCode":"US","name":"Whitacre","fclName":"city, village,...","adminCodes1":{"ISO3166_2":"VA"},"countryName":"United States","fcodeName":"populated place","adminName1":"Virginia","lat":"39.33232","fcode":"PPL"},{"adminCode1":"MD","lng":"-77.45415","geonameId":4362678,"toponymName":"Monocacy River","countryId":"6252001","fcl":"H","population":0,"countryCode":"US","name":"Monocacy River","fclName":"stream, lake, ...","adminCodes1":{"ISO3166_2":"MD"},"countryName":"United States","fcodeName":"stream","adminName1":"Maryland","lat":"39.22288","fcode":"STM"},{"adminCode1":"MD","lng":"-77.35915","geonameId":7258207,"toponymName":"Discovery-Spring Garden","countryId":"6252001","fcl":"P","population":0,"countryCode":"US","name":"Discovery-Spring Garden","fclName":"city, village,...","adminCodes1":{"ISO3166_2":"MD"},"countryName":"United States","fcodeName":"populated place","adminName1":"Maryland","lat":"39.46164","fcode":"PPL"},{"adminCode1":"MD","lng":"-77.24535","geonameId":7258674,"toponymName":"Green Valley","countryId":"6252001","fcl":"P","population":0,"countryCode":"US","name":"Green Valley","fclName":"city, village,...","adminCodes1":{"ISO3166_2":"MD"},"countryName":"United States","fcodeName":"populated place","adminName1":"Maryland","lat":"39.34284","fcode":"PPL"},{"adminCode1":"MD","lng":"-77.32655","geonameId":7258872,"toponymName":"Linganore-Bartonsville","countryId":"6252001","fcl":"P","population":0,"countryCode":"US","name":"Linganore-Bartonsville","fclName":"city, village,...","adminCodes1":{"ISO3166_2":"MD"},"countryName":"United States","fcodeName":"populated place","adminName1":"Maryland","lat":"39.40603","fcode":"PPL"},{"adminCode1":"MD","lng":"-77.62249","geonameId":4367387,"toponymName":"Rosemont","countryId":"6252001","fcl":"P","population":307,"countryCode":"US","name":"Rosemont","fclName":"city, village,...","adminCodes1":{"ISO3166_2":"MD"},"countryName":"United States","fcodeName":"populated place","adminName1":"Maryland","lat":"39.32927","fcode":"PPL"},{"adminCode1":"MD","lng":"-77.23582","geonameId":4369425,"toponymName":"Sherwood Forest","countryId":"6252001","fcl":"P","population":0,"countryCode":"US","name":"Sherwood Forest","fclName":"city, village,...","adminCodes1":{"ISO3166_2":"MD"},"countryName":"United States","fcodeName":"populated place","adminName1":"Maryland","lat":"39.3876","fcode":"PPL"},{"adminCode1":"MD","lng":"-77.56138","geonameId":4370136,"toponymName":"Spoolsville","countryId":"6252001","fcl":"P","population":0,"countryCode":"US","name":"Spoolsville","fclName":"city, village,...","adminCodes1":{"ISO3166_2":"MD"},"countryName":"United States","fcodeName":"populated place","adminName1":"Maryland","lat":"39.4501","fcode":"PPL"},{"adminCode1":"MD","lng":"-77.30317","geonameId":4370415,"toponymName":"Stolcrest Airport","countryId":"6252001","fcl":"S","population":0,"countryCode":"US","name":"Stolcrest Airport","fclName":"spot, building, farm","adminCodes1":{"ISO3166_2":"MD"},"countryName":"United States","fcodeName":"airport","adminName1":"Maryland","lat":"39.34208","fcode":"AIRP"},{"adminCode1":"MD","lng":"-77.39054","geonameId":4370600,"toponymName":"Sugar Loaf Mountain","countryId":"6252001","fcl":"T","population":0,"countryCode":"US","name":"Sugarloaf","fclName":"mountain,hill,rock,... ","adminCodes1":{"ISO3166_2":"MD"},"countryName":"United States","fcodeName":"mountain","adminName1":"Maryland","lat":"39.2626","fcode":"MT"},{"adminCode1":"MD","lng":"-77.63888","geonameId":4371577,"toponymName":"Townsend Monument","countryId":"6252001","fcl":"L","population":0,"countryCode":"US","name":"Townsend Monument","fclName":"parks,area, ...","adminCodes1":{"ISO3166_2":"MD"},"countryName":"United States","fcodeName":"park","adminName1":"Maryland","lat":"39.40566","fcode":"PRK"},{"adminCode1":"MD","lng":"-77.54527","geonameId":4362392,"toponymName":"Middletown Valley","countryId":"6252001","fcl":"T","population":0,"countryCode":"US","name":"Middletown Valley","fclName":"mountain,hill,rock,... ","adminCodes1":{"ISO3166_2":"MD"},"countryName":"United States","fcodeName":"valley","adminName1":"Maryland","lat":"39.43093","fcode":"VAL"},{"adminCode1":"MD","lng":"-77.25304","geonameId":4363653,"toponymName":"New London","countryId":"6252001","fcl":"P","population":0,"countryCode":"US","name":"New London","fclName":"city, village,...","adminCodes1":{"ISO3166_2":"MD"},"countryName":"United States","fcodeName":"populated place","adminName1":"Maryland","lat":"39.42205","fcode":"PPL"},{"adminCode1":"MD","lng":"-77.28054","geonameId":4363665,"toponymName":"New Market West","countryId":"6252001","fcl":"P","population":0,"countryCode":"US","name":"New Market West","fclName":"city, village,...","adminCodes1":{"ISO3166_2":"MD"},"countryName":"United States","fcodeName":"populated place","adminName1":"Maryland","lat":"39.38871","fcode":"PPL"},{"adminCode1":"MD","lng":"-77.61082","geonameId":4365306,"toponymName":"Petersville","countryId":"6252001","fcl":"P","population":0,"countryCode":"US","name":"Petersville","fclName":"city, village,...","adminCodes1":{"ISO3166_2":"MD"},"countryName":"United States","fcodeName":"populated place","adminName1":"Maryland","lat":"39.34649","fcode":"PPL"},{"adminCode1":"MD","lng":"-77.61666","geonameId":4366681,"toponymName":"Reno Monument","countryId":"6252001","fcl":"L","population":0,"countryCode":"US","name":"Reno Monument","fclName":"parks,area, ...","adminCodes1":{"ISO3166_2":"MD"},"countryName":"United States","fcodeName":"park","adminName1":"Maryland","lat":"39.47038","fcode":"PRK"},{"adminCode1":"MD","lng":"-77.40054","geonameId":4353904,"toponymName":"East End Park","countryId":"6252001","fcl":"L","population":0,"countryCode":"US","name":"East End Park","fclName":"parks,area, ...","adminCodes1":{"ISO3166_2":"MD"},"countryName":"United States","fcodeName":"park","adminName1":"Maryland","lat":"39.61538","fcode":"PRK"},{"adminCode1":"MD","lng":"-77.47415","geonameId":4354085,"toponymName":"Edgewood","countryId":"6252001","fcl":"P","population":0,"countryCode":"US","name":"Edgewood","fclName":"city, village,...","adminCodes1":{"ISO3166_2":"MD"},"countryName":"United States","fcodeName":"populated place","adminName1":"Maryland","lat":"39.45955","fcode":"PPL"},{"adminCode1":"MD","lng":"-77.40276","geonameId":4354523,"toponymName":"Eyler Road Recreation Area","countryId":"6252001","fcl":"L","population":0,"countryCode":"US","name":"Eyler Road Recreation Area","fclName":"parks,area, ...","adminCodes1":{"ISO3166_2":"MD"},"countryName":"United States","fcodeName":"park","adminName1":"Maryland","lat":"39.63454","fcode":"PRK"},{"adminCode1":"MD","lng":"-77.25665","geonameId":4354564,"toponymName":"Fairhaven","countryId":"6252001","fcl":"P","population":0,"countryCode":"US","name":"Fairhaven","fclName":"city, village,...","adminCodes1":{"ISO3166_2":"MD"},"countryName":"United States","fcodeName":"populated place","adminName1":"Maryland","lat":"39.53982","fcode":"PPL"},{"adminCode1":"MD","lng":"-77.33524","geonameId":4354755,"toponymName":"Burhans Memorial Airport","countryId":"6252001","fcl":"S","population":0,"countryCode":"US","name":"Burhans Memorial Airport","fclName":"spot, building, farm","adminCodes1":{"ISO3166_2":"MD"},"countryName":"United States","fcodeName":"airport","adminName1":"Maryland","lat":"39.34764","fcode":"AIRP"}]}
