{"totalResultsCount":22,"geonames":[{"adminCode1":"KY","lng":"-83.42185","geonameId":4292378,"toponymName":"Frozen Creek","countryId":"6252001","fcl":"P","population":0,"countryCode":"US","name":"Frozen Creek","fclName":"city, village,...","adminCodes1":{"ISO3166_2":"KY"},"countryName":"United States","fcodeName":"populated place","adminName1":"Kentucky","lat":"37.5912","fcode":"PPL"},{"adminCode1":"CO","lng":"-105.66786","geonameId":5422531,"toponymName":"Frozen Lake","countryId":"6252001","fcl":"H","population":0,"countryCode":"US","name":"Frozen Lake","fclName":"stream, lake, ...","adminCodes1":{"ISO3166_2":"CO"},"countryName":"United States","fcodeName":"lake","adminName1":"Colorado","lat":"39.5776","fcode":"LK"},{"adminCode1":"TN","lng":"-88.86867","geonameId":4641123,"toponymName":"Medon","countryId":"6252001","fcl":"P","population":173,"countryCode":"US","name":"Medon","fclName":"city, village,...","adminCodes1":{"ISO3166_2":"TN"},"countryName":"United States","fcodeName":"populated place","adminName1":"Tennessee","lat":"35.4573","fcode":"PPL"},{"adminCode1":"OR","lng":"-123.19701","geonameId":5736279,"toponymName":"Left Fork Frozen Creek","countryId":"6252001","fcl":"H","population":0,"countryCode":"US","name":"Left Fork Frozen Creek","fclName":"stream, lake, ...","adminCodes1":{"ISO3166_2":"OR"},"countryName":"United States","fcodeName":"stream","adminName1":"Oregon","lat":"43.08595","fcode":"STM"},{"adminCode1":"KY","lng":"-83.42463","geonameId":4292377,"toponymName":"Frozen Creek","countryId":"6252001","fcl":"H","population":0,"countryCode":"US","name":"Frozen Creek","fclName":"stream, lake, ...","adminCodes1":{"ISO3166_2":"KY"},"countryName":"United States","fcodeName":"stream","adminName1":"Kentucky","lat":"37.60314","fcode":"STM"},{"adminCode1":"MT","lng":"-110.22269","geonameId":5653488,"toponymName":"Froze-to-Death Creek","countryId":"6252001","fcl":"H","population":0,"countryCode":"US","name":"Froze-to-Death Creek","fclName":"stream, lake, ...","adminCodes1":{"ISO3166_2":"MT"},"countryName":"United States","fcodeName":"stream","adminName1":"Montana","lat":"45.4991","fcode":"STM"},{"adminCode1":"SD","lng":"-103.92021","geonameId":5653497,"toponymName":"Frozen Horse Creek","countryId":"6252001","fcl":"H","population":0,"countryCode":"US","name":"Frozen Horse Creek","fclName":"stream, lake, ...","adminCodes1":{"ISO3166_2":"SD"},"countryName":"United States","fcodeName":"stream","adminName1":"South Dakota","lat":"45.04943","fcode":"STM"},{"adminCode1":"KY","lng":"-84.69467","geonameId":4304990,"toponymName":"Porter Creek","countryId":"6252001","fcl":"H","population":0,"countryCode":"US","name":"Porter Creek","fclName":"stream, lake, ...","adminCodes1":{"ISO3166_2":"KY"},"countryName":"United States","fcodeName":"stream","adminName1":"Kentucky","lat":"37.07147","fcode":"STM"},{"adminCode1":"WV","lng":"-81.58707","geonameId":4806626,"toponymName":"Frozencamp Creek","countryId":"6252001","fcl":"H","population":0,"countryCode":"US","name":"Frozencamp Creek","fclName":"stream, lake, ...","adminCodes1":{"ISO3166_2":"WV"},"countryName":"United States","fcodeName":"stream","adminName1":"West Virginia","lat":"38.81786","fcode":"STM"},{"adminCode1":"OR","lng":"-123.20756","geonameId":5727805,"toponymName":"Frozen Creek Mine","countryId":"6252001","fcl":"S","population":0,"countryCode":"US","name":"Frozen Creek Mine","fclName":"spot, building, farm","adminCodes1":{"ISO3166_2":"OR"},"countryName":"United States","fcodeName":"mine(s)","adminName1":"Oregon","lat":"43.11484","fcode":"MN"},{"adminCode1":"OR","lng":"-123.20117","geonameId":5727807,"toponymName":"Frozen Creek","countryId":"6252001","fcl":"H","population":0,"countryCode":"US","name":"Frozen Creek","fclName":"stream, lake, ...","adminCodes1":{"ISO3166_2":"OR"},"countryName":"United States","fcodeName":"stream","adminName1":"Oregon","lat":"43.12484","fcode":"STM"},{"adminCode1":"WY","lng":"-109.816","geonameId":5825718,"toponymName":"Frozen Lake Creek","countryId":"6252001","fcl":"H","population":0,"countryCode":"US","name":"Frozen Lake Creek","fclName":"stream, lake, ...","adminCodes1":{"ISO3166_2":"WY"},"countryName":"United States","fcodeName":"stream","adminName1":"Wyoming","lat":"43.75607","fcode":"STM"},{"adminCode1":"KY","lng":"-82.45342","geonameId":7141185,"toponymName":"Frozen Creek School (historical)","countryId":"6252001","fcl":"S","population":0,"countryCode":"US","name":"Frozen Creek School (historical)","fclName":"spot, building, farm","adminCodes1":{"ISO3166_2":"KY"},"countryName":"United States","fcodeName":"school","adminName1":"Kentucky","lat":"37.5031","fcode":"SCH"},{"adminCode1":"KY","lng":"-83.4149","geonameId":4298555,"toponymName":"Little Frozen Creek","countryId":"6252001","fcl":"H","population":0,"countryCode":"US","name":"Little Frozen Creek","fclName":"stream, lake, ...","adminCodes1":{"ISO3166_2":"KY"},"countryName":"United States","fcodeName":"stream","adminName1":"Kentucky","lat":"37.62592","fcode":"STM"},{"adminCode1":"KY","lng":"-84.18549","geonameId":4292375,"toponymName":"Frozen Camp Creek","countryId":"6252001","fcl":"H","population":0,"countryCode":"US","name":"Frozen Camp Creek","fclName":"stream, lake, ...","adminCodes1":{"ISO3166_2":"KY"},"countryName":"United States","fcodeName":"stream","adminName1":"Kentucky","lat":"36.94536","fcode":"STM"},{"adminCode1":"KY","lng":"-82.74849","geonameId":4292379,"toponymName":"Frozen Creek","countryId":"6252001","fcl":"H","population":0,"countryCode":"US","name":"Frozen Creek","fclName":"stream, lake, ...","adminCodes1":{"ISO3166_2":"KY"},"countryName":"United States","fcodeName":"stream","adminName1":"Kentucky","lat":"37.47843","fcode":"STM"},{"adminCode1":"KY","lng":"-82.44932","geonameId":4292380,"toponymName":"Frozen Creek","countryId":"6252001","fcl":"H","population":0,"countryCode":"US","name":"Frozen Creek","fclName":"stream, lake, ...","adminCodes1":{"ISO3166_2":"KY"},"countryName":"United States","fcodeName":"stream","adminName1":"Kentucky","lat":"37.50427","fcode":"STM"},{"adminCode1":"KY","lng":"-82.45293","geonameId":4292382,"toponymName":"Frozen Creek Church","countryId":"6252001","fcl":"S","population":0,"countryCode":"US","name":"Frozen Creek Church","fclName":"spot, building, farm","adminCodes1":{"ISO3166_2":"KY"},"countryName":"United States","fcodeName":"church","adminName1":"Kentucky","lat":"37.50343","fcode":"CH"},{"adminCode1":"SD","lng":"-102.7135","geonameId":5764952,"toponymName":"Frozen Man Creek","countryId":"6252001","fcl":"H","population":0,"countryCode":"US","name":"Frozen Man Creek","fclName":"stream, lake, ...","adminCodes1":{"ISO3166_2":"SD"},"countryName":"United States","fcodeName":"stream","adminName1":"South Dakota","lat":"44.86888","fcode":"STM"},{"adminCode1":"SD","lng":"-100.92709","geonameId":5764953,"toponymName":"Frozen Man Creek","countryId":"6252001","fcl":"H","population":0,"countryCode":"US","name":"Frozen Man Creek","fclName":"stream, lake, ...","adminCodes1":{"ISO3166_2":"SD"},"countryName":"United States","fcodeName":"stream","adminName1":"South Dakota","lat":"44.28332","fcode":"STM"},{"adminCode1":"NC","lng":"-82.87014","geonameId":4467392,"toponymName":"Frozen Creek","countryId":"6252001","fcl":"H","population":0,"countryCode":"US","name":"Frozen Creek","fclName":"stream, lake, ...","adminCodes1":{"ISO3166_2":"NC"},"countryName":"United States","fcodeName":"stream","adminName1":"North Carolina","lat":"35.08899","fcode":"STM"},{"adminCode1":"NC","lng":"-82.85069","geonameId":4467393,"toponymName":"Frozen Creek","countryId":"6252001","fcl":"H","population":0,"countryCode":"US","name":"Frozen Creek","fclName":"stream, lake, ...","adminCodes1":{"ISO3166_2":"NC"},"countryName":"United States","fcodeName":"stream","adminName1":"North Carolina","lat":"35.13733","fcode":"STM"}]}
