{"totalResultsCount":109,"geonames":[{"adminCode1":"MT","lng":"-111.23162","geonameId":5653629,"toponymName":"Gallatin Canyon","countryId":"6252001","fcl":"T","population":0,"countryCode":"US","name":"Gallatin Canyon","fclName":"mountain,hill,rock,... ","adminCodes1":{"ISO3166_2":"MT"},"countryName":"United States","fcodeName":"valley","adminName1":"Montana","lat":"45.43937","fcode":"VAL"},{"adminCode1":"MT","lng":"-111.01245","geonameId":5653661,"toponymName":"Gallatin Valley Historical Marker","countryId":"6252001","fcl":"L","population":0,"countryCode":"US","name":"Gallatin Valley Historical Marker","fclName":"parks,area, ...","adminCodes1":{"ISO3166_2":"MT"},"countryName":"United States","fcodeName":"park","adminName1":"Montana","lat":"45.67493","fcode":"PRK"},{"adminCode1":"MT","lng":"-111.20773","geonameId":5664321,"toponymName":"Madison Valley","countryId":"6252001","fcl":"T","population":0,"countryCode":"US","name":"Madison Valley","fclName":"mountain,hill,rock,... ","adminCodes1":{"ISO3166_2":"MT"},"countryName":"United States","fcodeName":"valley","adminName1":"Montana","lat":"44.73048","fcode":"VAL"},{"adminCode1":"IL","lng":"-88.34582","geonameId":4248027,"toponymName":"Rice Hollow","countryId":"6252001","fcl":"T","population":0,"countryCode":"US","name":"Rice Hollow","fclName":"mountain,hill,rock,... ","adminCodes1":{"ISO3166_2":"IL"},"countryName":"United States","fcodeName":"valley","adminName1":"Illinois","lat":"37.63309","fcode":"VAL"},{"adminCode1":"MT","lng":"-111.08662","geonameId":5684269,"toponymName":"Valley Unit Park","countryId":"6252001","fcl":"L","population":0,"countryCode":"US","name":"Valley Unit Park","fclName":"parks,area, ...","adminCodes1":{"ISO3166_2":"MT"},"countryName":"United States","fcodeName":"park","adminName1":"Montana","lat":"45.68465","fcode":"PRK"},{"adminCode1":"MT","lng":"-111.25107","geonameId":5642274,"toponymName":"Browns Gulch","countryId":"6252001","fcl":"T","population":0,"countryCode":"US","name":"Browns Gulch","fclName":"mountain,hill,rock,... ","adminCodes1":{"ISO3166_2":"MT"},"countryName":"United States","fcodeName":"valley","adminName1":"Montana","lat":"45.54271","fcode":"VAL"},{"adminCode1":"MT","lng":"-110.90772","geonameId":5645602,"toponymName":"Coal Gulch","countryId":"6252001","fcl":"T","population":0,"countryCode":"US","name":"Coal Gulch","fclName":"mountain,hill,rock,... ","adminCodes1":{"ISO3166_2":"MT"},"countryName":"United States","fcodeName":"valley","adminName1":"Montana","lat":"46.12049","fcode":"VAL"},{"adminCode1":"MT","lng":"-111.03411","geonameId":5646349,"toponymName":"Corbly Gulch","countryId":"6252001","fcl":"T","population":0,"countryCode":"US","name":"Corbly Gulch","fclName":"mountain,hill,rock,... ","adminCodes1":{"ISO3166_2":"MT"},"countryName":"United States","fcodeName":"valley","adminName1":"Montana","lat":"45.8616","fcode":"VAL"},{"adminCode1":"MT","lng":"-111.23995","geonameId":5664868,"toponymName":"Maryott Gulch","countryId":"6252001","fcl":"T","population":0,"countryCode":"US","name":"Maryott Gulch","fclName":"mountain,hill,rock,... ","adminCodes1":{"ISO3166_2":"MT"},"countryName":"United States","fcodeName":"valley","adminName1":"Montana","lat":"45.59687","fcode":"VAL"},{"adminCode1":"MT","lng":"-111.39607","geonameId":5678084,"toponymName":"Sixteenmile Canyon","countryId":"6252001","fcl":"T","population":0,"countryCode":"US","name":"Sixteenmile Canyon","fclName":"mountain,hill,rock,... ","adminCodes1":{"ISO3166_2":"MT"},"countryName":"United States","fcodeName":"valley","adminName1":"Montana","lat":"46.10687","fcode":"VAL"},{"adminCode1":"MT","lng":"-111.21717","geonameId":5643363,"toponymName":"Cameron Draw","countryId":"6252001","fcl":"T","population":0,"countryCode":"US","name":"Cameron Draw","fclName":"mountain,hill,rock,... ","adminCodes1":{"ISO3166_2":"MT"},"countryName":"United States","fcodeName":"valley","adminName1":"Montana","lat":"45.06548","fcode":"VAL"},{"adminCode1":"MT","lng":"-111.19995","geonameId":5645540,"toponymName":"Coal Canyon","countryId":"6252001","fcl":"T","population":0,"countryCode":"US","name":"Coal Canyon","fclName":"mountain,hill,rock,... ","adminCodes1":{"ISO3166_2":"MT"},"countryName":"United States","fcodeName":"valley","adminName1":"Montana","lat":"44.82937","fcode":"VAL"},{"adminCode1":"MT","lng":"-111.24912","geonameId":5672762,"toponymName":"Quarry Gulch","countryId":"6252001","fcl":"T","population":0,"countryCode":"US","name":"Quarry Gulch","fclName":"mountain,hill,rock,... ","adminCodes1":{"ISO3166_2":"MT"},"countryName":"United States","fcodeName":"valley","adminName1":"Montana","lat":"45.53104","fcode":"VAL"},{"adminCode1":"MT","lng":"-111.20245","geonameId":5673338,"toponymName":"Red Canyon Fault","countryId":"6252001","fcl":"T","population":0,"countryCode":"US","name":"Red Canyon Fault","fclName":"mountain,hill,rock,... ","adminCodes1":{"ISO3166_2":"MT"},"countryName":"United States","fcodeName":"valley","adminName1":"Montana","lat":"44.84493","fcode":"VAL"},{"adminCode1":"MT","lng":"-111.10272","geonameId":5674452,"toponymName":"Rocky Draw","countryId":"6252001","fcl":"T","population":0,"countryCode":"US","name":"Rocky Draw","fclName":"mountain,hill,rock,... ","adminCodes1":{"ISO3166_2":"MT"},"countryName":"United States","fcodeName":"valley","adminName1":"Montana","lat":"44.62243","fcode":"VAL"},{"adminCode1":"MT","lng":"-111.16439","geonameId":5667374,"toponymName":"Mosquito Gulch","countryId":"6252001","fcl":"T","population":0,"countryCode":"US","name":"Mosquito Gulch","fclName":"mountain,hill,rock,... ","adminCodes1":{"ISO3166_2":"MT"},"countryName":"United States","fcodeName":"valley","adminName1":"Montana","lat":"44.60798","fcode":"VAL"},{"adminCode1":"MT","lng":"-111.07745","geonameId":5668688,"toponymName":"Nicks Gulch","countryId":"6252001","fcl":"T","population":0,"countryCode":"US","name":"Nicks Gulch","fclName":"mountain,hill,rock,... ","adminCodes1":{"ISO3166_2":"MT"},"countryName":"United States","fcodeName":"valley","adminName1":"Montana","lat":"46.11882","fcode":"VAL"},{"adminCode1":"MT","lng":"-111.16606","geonameId":5649183,"toponymName":"Dry Canyon","countryId":"6252001","fcl":"T","population":0,"countryCode":"US","name":"Dry Canyon","fclName":"mountain,hill,rock,... ","adminCodes1":{"ISO3166_2":"MT"},"countryName":"United States","fcodeName":"valley","adminName1":"Montana","lat":"44.57881","fcode":"VAL"},{"adminCode1":"MT","lng":"-111.09133","geonameId":5650376,"toponymName":"Echo Canyon","countryId":"6252001","fcl":"T","population":0,"countryCode":"US","name":"Echo Canyon","fclName":"mountain,hill,rock,... ","adminCodes1":{"ISO3166_2":"MT"},"countryName":"United States","fcodeName":"valley","adminName1":"Montana","lat":"44.52048","fcode":"VAL"},{"adminCode1":"MT","lng":"-111.14355","geonameId":5640561,"toponymName":"Black Bear Canyon","countryId":"6252001","fcl":"T","population":0,"countryCode":"US","name":"Black Bear Canyon","fclName":"mountain,hill,rock,... ","adminCodes1":{"ISO3166_2":"MT"},"countryName":"United States","fcodeName":"valley","adminName1":"Montana","lat":"44.56909","fcode":"VAL"},{"adminCode1":"MT","lng":"-111.21773","geonameId":5686743,"toponymName":"Wilson Draw","countryId":"6252001","fcl":"T","population":0,"countryCode":"US","name":"Wilson Draw","fclName":"mountain,hill,rock,... ","adminCodes1":{"ISO3166_2":"MT"},"countryName":"United States","fcodeName":"valley","adminName1":"Montana","lat":"45.10048","fcode":"VAL"},{"adminCode1":"IL","lng":"-88.24059","geonameId":4242420,"toponymName":"Kuykendall Valley","countryId":"6252001","fcl":"T","population":0,"countryCode":"US","name":"Kuykendall Valley","fclName":"mountain,hill,rock,... ","adminCodes1":{"ISO3166_2":"IL"},"countryName":"United States","fcodeName":"valley","adminName1":"Illinois","lat":"37.67255","fcode":"VAL"},{"adminCode1":"MT","lng":"-111.1743","geonameId":5639371,"toponymName":"Central Valley Fire District Station 1 Headquarters","countryId":"6252001","fcl":"S","population":0,"countryCode":"US","name":"Central Valley Fire District Station 1 Headquarters","fclName":"spot, building, farm","adminCodes1":{"ISO3166_2":"MT"},"countryName":"United States","fcodeName":"building(s)","adminName1":"Montana","lat":"45.7751","fcode":"BLDG"},{"adminCode1":"IL","lng":"-88.35588","geonameId":4234880,"toponymName":"Burnt Shanty Hollow","countryId":"6252001","fcl":"T","population":0,"countryCode":"US","name":"Burnt Shanty Hollow","fclName":"mountain,hill,rock,... ","adminCodes1":{"ISO3166_2":"IL"},"countryName":"United States","fcodeName":"valley","adminName1":"Illinois","lat":"37.66171","fcode":"VAL"},{"adminCode1":"IL","lng":"-88.29865","geonameId":4251197,"toponymName":"Thacker Hollow","countryId":"6252001","fcl":"T","population":0,"countryCode":"US","name":"Thacker Hollow","fclName":"mountain,hill,rock,... ","adminCodes1":{"ISO3166_2":"IL"},"countryName":"United States","fcodeName":"valley","adminName1":"Illinois","lat":"37.63477","fcode":"VAL"},{"adminCode1":"IL","lng":"-88.32217","geonameId":4239948,"toponymName":"Grindstaff Hollow","countryId":"6252001","fcl":"T","population":0,"countryCode":"US","name":"Grindstaff Hollow","fclName":"mountain,hill,rock,... ","adminCodes1":{"ISO3166_2":"IL"},"countryName":"United States","fcodeName":"valley","adminName1":"Illinois","lat":"37.62407","fcode":"VAL"},{"adminCode1":"IL","lng":"-88.33199","geonameId":4247398,"toponymName":"Poplar Hollow","countryId":"6252001","fcl":"T","population":0,"countryCode":"US","name":"Poplar Hollow","fclName":"mountain,hill,rock,... ","adminCodes1":{"ISO3166_2":"IL"},"countryName":"United States","fcodeName":"valley","adminName1":"Illinois","lat":"37.67616","fcode":"VAL"},{"adminCode1":"IL","lng":"-88.26865","geonameId":4247457,"toponymName":"Pounds Hollow","countryId":"6252001","fcl":"T","population":0,"countryCode":"US","name":"Pounds Hollow","fclName":"mountain,hill,rock,... ","adminCodes1":{"ISO3166_2":"IL"},"countryName":"United States","fcodeName":"valley","adminName1":"Illinois","lat":"37.63005","fcode":"VAL"},{"adminCode1":"IL","lng":"-88.34254","geonameId":4235189,"toponymName":"Captain Vinyard Hollow","countryId":"6252001","fcl":"T","population":0,"countryCode":"US","name":"Captain Vinyard Hollow","fclName":"mountain,hill,rock,... ","adminCodes1":{"ISO3166_2":"IL"},"countryName":"United States","fcodeName":"valley","adminName1":"Illinois","lat":"37.63338","fcode":"VAL"},{"adminCode1":"IL","lng":"-88.2867","geonameId":4236002,"toponymName":"Clayton Hollow","countryId":"6252001","fcl":"T","population":0,"countryCode":"US","name":"Clayton Hollow","fclName":"mountain,hill,rock,... ","adminCodes1":{"ISO3166_2":"IL"},"countryName":"United States","fcodeName":"valley","adminName1":"Illinois","lat":"37.63088","fcode":"VAL"},{"adminCode1":"IL","lng":"-88.36143","geonameId":4236139,"toponymName":"Colbert Hollow","countryId":"6252001","fcl":"T","population":0,"countryCode":"US","name":"Colbert Hollow","fclName":"mountain,hill,rock,... ","adminCodes1":{"ISO3166_2":"IL"},"countryName":"United States","fcodeName":"valley","adminName1":"Illinois","lat":"37.63255","fcode":"VAL"},{"adminCode1":"MT","lng":"-111.09523","geonameId":5657250,"toponymName":"Hidden Valley Mobile Estates","countryId":"6252001","fcl":"P","population":0,"countryCode":"US","name":"Hidden Valley Mobile Estates","fclName":"city, village,...","adminCodes1":{"ISO3166_2":"MT"},"countryName":"United States","fcodeName":"populated place","adminName1":"Montana","lat":"45.71937","fcode":"PPL"},{"adminCode1":"MT","lng":"-111.17356","geonameId":5676497,"toponymName":"Sawmill Gulch","countryId":"6252001","fcl":"T","population":0,"countryCode":"US","name":"Sawmill Gulch","fclName":"mountain,hill,rock,... ","adminCodes1":{"ISO3166_2":"MT"},"countryName":"United States","fcodeName":"valley","adminName1":"Montana","lat":"46.13826","fcode":"VAL"},{"adminCode1":"MT","lng":"-110.91078","geonameId":5677610,"toponymName":"Shoefelt Gulch","countryId":"6252001","fcl":"T","population":0,"countryCode":"US","name":"Shoefelt Gulch","fclName":"mountain,hill,rock,... ","adminCodes1":{"ISO3166_2":"MT"},"countryName":"United States","fcodeName":"valley","adminName1":"Montana","lat":"45.59549","fcode":"VAL"},{"adminCode1":"MT","lng":"-111.11884","geonameId":5680251,"toponymName":"Stanton Gulch","countryId":"6252001","fcl":"T","population":0,"countryCode":"US","name":"Stanton Gulch","fclName":"mountain,hill,rock,... ","adminCodes1":{"ISO3166_2":"MT"},"countryName":"United States","fcodeName":"valley","adminName1":"Montana","lat":"46.04715","fcode":"VAL"},{"adminCode1":"MT","lng":"-111.02411","geonameId":5641458,"toponymName":"Bostwick Canyon","countryId":"6252001","fcl":"T","population":0,"countryCode":"US","name":"Bostwick Canyon","fclName":"mountain,hill,rock,... ","adminCodes1":{"ISO3166_2":"MT"},"countryName":"United States","fcodeName":"valley","adminName1":"Montana","lat":"45.78215","fcode":"VAL"},{"adminCode1":"MT","lng":"-111.1844","geonameId":5644815,"toponymName":"Chipmunk Gulch","countryId":"6252001","fcl":"T","population":0,"countryCode":"US","name":"Chipmunk Gulch","fclName":"mountain,hill,rock,... ","adminCodes1":{"ISO3166_2":"MT"},"countryName":"United States","fcodeName":"valley","adminName1":"Montana","lat":"45.96548","fcode":"VAL"},{"adminCode1":"MT","lng":"-111.17134","geonameId":5671923,"toponymName":"Poison Hollow","countryId":"6252001","fcl":"T","population":0,"countryCode":"US","name":"Poison Hollow","fclName":"mountain,hill,rock,... ","adminCodes1":{"ISO3166_2":"MT"},"countryName":"United States","fcodeName":"valley","adminName1":"Montana","lat":"46.01382","fcode":"VAL"},{"adminCode1":"MT","lng":"-111.39302","geonameId":5671966,"toponymName":"Pole Gulch","countryId":"6252001","fcl":"T","population":0,"countryCode":"US","name":"Pole Gulch","fclName":"mountain,hill,rock,... ","adminCodes1":{"ISO3166_2":"MT"},"countryName":"United States","fcodeName":"valley","adminName1":"Montana","lat":"46.04326","fcode":"VAL"},{"adminCode1":"MT","lng":"-110.99106","geonameId":5672298,"toponymName":"Potters Gulch","countryId":"6252001","fcl":"T","population":0,"countryCode":"US","name":"Potters Gulch","fclName":"mountain,hill,rock,... ","adminCodes1":{"ISO3166_2":"MT"},"countryName":"United States","fcodeName":"valley","adminName1":"Montana","lat":"45.8491","fcode":"VAL"},{"adminCode1":"MT","lng":"-111.25107","geonameId":5672760,"toponymName":"Quarry Gulch","countryId":"6252001","fcl":"T","population":0,"countryCode":"US","name":"Quarry Gulch","fclName":"mountain,hill,rock,... ","adminCodes1":{"ISO3166_2":"MT"},"countryName":"United States","fcodeName":"valley","adminName1":"Montana","lat":"46.09632","fcode":"VAL"},{"adminCode1":"MT","lng":"-111.28968","geonameId":5674435,"toponymName":"Rocky Canyon","countryId":"6252001","fcl":"T","population":0,"countryCode":"US","name":"Rocky Canyon","fclName":"mountain,hill,rock,... ","adminCodes1":{"ISO3166_2":"MT"},"countryName":"United States","fcodeName":"valley","adminName1":"Montana","lat":"46.13882","fcode":"VAL"},{"adminCode1":"MT","lng":"-111.10439","geonameId":5674437,"toponymName":"Rocky Canyon","countryId":"6252001","fcl":"T","population":0,"countryCode":"US","name":"Rocky Canyon","fclName":"mountain,hill,rock,... ","adminCodes1":{"ISO3166_2":"MT"},"countryName":"United States","fcodeName":"valley","adminName1":"Montana","lat":"46.01215","fcode":"VAL"},{"adminCode1":"MT","lng":"-111.35885","geonameId":5674918,"toponymName":"Roy Gulch","countryId":"6252001","fcl":"T","population":0,"countryCode":"US","name":"Roy Gulch","fclName":"mountain,hill,rock,... ","adminCodes1":{"ISO3166_2":"MT"},"countryName":"United States","fcodeName":"valley","adminName1":"Montana","lat":"46.11465","fcode":"VAL"},{"adminCode1":"MT","lng":"-111.29635","geonameId":5665797,"toponymName":"Merritt Gulch","countryId":"6252001","fcl":"T","population":0,"countryCode":"US","name":"Merritt Gulch","fclName":"mountain,hill,rock,... ","adminCodes1":{"ISO3166_2":"MT"},"countryName":"United States","fcodeName":"valley","adminName1":"Montana","lat":"45.56965","fcode":"VAL"},{"adminCode1":"MT","lng":"-111.10939","geonameId":5665979,"toponymName":"Middle Fork Canyon","countryId":"6252001","fcl":"T","population":0,"countryCode":"US","name":"Middle Fork Canyon","fclName":"mountain,hill,rock,... ","adminCodes1":{"ISO3166_2":"MT"},"countryName":"United States","fcodeName":"valley","adminName1":"Montana","lat":"46.13132","fcode":"VAL"},{"adminCode1":"MT","lng":"-111.05856","geonameId":5666268,"toponymName":"Mill Creek Canyon","countryId":"6252001","fcl":"T","population":0,"countryCode":"US","name":"Mill Creek Canyon","fclName":"mountain,hill,rock,... ","adminCodes1":{"ISO3166_2":"MT"},"countryName":"United States","fcodeName":"valley","adminName1":"Montana","lat":"45.94576","fcode":"VAL"},{"adminCode1":"MT","lng":"-111.01689","geonameId":5666367,"toponymName":"Miller Gulch","countryId":"6252001","fcl":"T","population":0,"countryCode":"US","name":"Miller Gulch","fclName":"mountain,hill,rock,... ","adminCodes1":{"ISO3166_2":"MT"},"countryName":"United States","fcodeName":"valley","adminName1":"Montana","lat":"46.06382","fcode":"VAL"},{"adminCode1":"MT","lng":"-111.01745","geonameId":5666582,"toponymName":"Miser Canyon","countryId":"6252001","fcl":"T","population":0,"countryCode":"US","name":"Miser Canyon","fclName":"mountain,hill,rock,... ","adminCodes1":{"ISO3166_2":"MT"},"countryName":"United States","fcodeName":"valley","adminName1":"Montana","lat":"45.80882","fcode":"VAL"},{"adminCode1":"MT","lng":"-111.33218","geonameId":5666744,"toponymName":"Mixon Gulch","countryId":"6252001","fcl":"T","population":0,"countryCode":"US","name":"Mixon Gulch","fclName":"mountain,hill,rock,... ","adminCodes1":{"ISO3166_2":"MT"},"countryName":"United States","fcodeName":"valley","adminName1":"Montana","lat":"45.89576","fcode":"VAL"},{"adminCode1":"MT","lng":"-110.94022","geonameId":5666795,"toponymName":"Moffit Canyon","countryId":"6252001","fcl":"T","population":0,"countryCode":"US","name":"Moffit Canyon","fclName":"mountain,hill,rock,... ","adminCodes1":{"ISO3166_2":"MT"},"countryName":"United States","fcodeName":"valley","adminName1":"Montana","lat":"45.65604","fcode":"VAL"},{"adminCode1":"MT","lng":"-111.08301","geonameId":5667326,"toponymName":"Morrison Canyon","countryId":"6252001","fcl":"T","population":0,"countryCode":"US","name":"Morrison Canyon","fclName":"mountain,hill,rock,... ","adminCodes1":{"ISO3166_2":"MT"},"countryName":"United States","fcodeName":"valley","adminName1":"Montana","lat":"45.99215","fcode":"VAL"},{"adminCode1":"MT","lng":"-110.9255","geonameId":5668579,"toponymName":"New World Gulch","countryId":"6252001","fcl":"T","population":0,"countryCode":"US","name":"New World Gulch","fclName":"mountain,hill,rock,... ","adminCodes1":{"ISO3166_2":"MT"},"countryName":"United States","fcodeName":"valley","adminName1":"Montana","lat":"45.60882","fcode":"VAL"},{"adminCode1":"MT","lng":"-111.33135","geonameId":5668799,"toponymName":"Nixon Gulch","countryId":"6252001","fcl":"T","population":0,"countryCode":"US","name":"Nixon Gulch","fclName":"mountain,hill,rock,... ","adminCodes1":{"ISO3166_2":"MT"},"countryName":"United States","fcodeName":"valley","adminName1":"Montana","lat":"45.89243","fcode":"VAL"},{"adminCode1":"MT","lng":"-111.11551","geonameId":5669971,"toponymName":"Olie Canyon","countryId":"6252001","fcl":"T","population":0,"countryCode":"US","name":"Olie Canyon","fclName":"mountain,hill,rock,... ","adminCodes1":{"ISO3166_2":"MT"},"countryName":"United States","fcodeName":"valley","adminName1":"Montana","lat":"46.03521","fcode":"VAL"},{"adminCode1":"MT","lng":"-111.11912","geonameId":5670134,"toponymName":"Orchid Gulch","countryId":"6252001","fcl":"T","population":0,"countryCode":"US","name":"Orchid Gulch","fclName":"mountain,hill,rock,... ","adminCodes1":{"ISO3166_2":"MT"},"countryName":"United States","fcodeName":"valley","adminName1":"Montana","lat":"45.42049","fcode":"VAL"},{"adminCode1":"MT","lng":"-111.05134","geonameId":5670501,"toponymName":"Painted Canyon","countryId":"6252001","fcl":"T","population":0,"countryCode":"US","name":"Painted Canyon","fclName":"mountain,hill,rock,... ","adminCodes1":{"ISO3166_2":"MT"},"countryName":"United States","fcodeName":"valley","adminName1":"Montana","lat":"46.06576","fcode":"VAL"},{"adminCode1":"MT","lng":"-111.058","geonameId":5681518,"toponymName":"Sypes Canyon","countryId":"6252001","fcl":"T","population":0,"countryCode":"US","name":"Sypes Canyon","fclName":"mountain,hill,rock,... ","adminCodes1":{"ISO3166_2":"MT"},"countryName":"United States","fcodeName":"valley","adminName1":"Montana","lat":"45.74104","fcode":"VAL"},{"adminCode1":"MT","lng":"-110.99272","geonameId":5683292,"toponymName":"Truman Gulch","countryId":"6252001","fcl":"T","population":0,"countryCode":"US","name":"Truman Gulch","fclName":"mountain,hill,rock,... ","adminCodes1":{"ISO3166_2":"MT"},"countryName":"United States","fcodeName":"valley","adminName1":"Montana","lat":"45.82965","fcode":"VAL"},{"adminCode1":"MT","lng":"-111.00161","geonameId":5685130,"toponymName":"Watts Canyon","countryId":"6252001","fcl":"T","population":0,"countryCode":"US","name":"Watts Canyon","fclName":"mountain,hill,rock,... ","adminCodes1":{"ISO3166_2":"MT"},"countryName":"United States","fcodeName":"valley","adminName1":"Montana","lat":"45.76882","fcode":"VAL"},{"adminCode1":"MT","lng":"-111.07884","geonameId":5651710,"toponymName":"Felix Canyon","countryId":"6252001","fcl":"T","population":0,"countryCode":"US","name":"Felix Canyon","fclName":"mountain,hill,rock,... ","adminCodes1":{"ISO3166_2":"MT"},"countryName":"United States","fcodeName":"valley","adminName1":"Montana","lat":"45.98521","fcode":"VAL"},{"adminCode1":"MT","lng":"-111.38413","geonameId":5653722,"toponymName":"Garden Gulch","countryId":"6252001","fcl":"T","population":0,"countryCode":"US","name":"Garden Gulch","fclName":"mountain,hill,rock,... ","adminCodes1":{"ISO3166_2":"MT"},"countryName":"United States","fcodeName":"valley","adminName1":"Montana","lat":"46.08687","fcode":"VAL"},{"adminCode1":"MT","lng":"-111.09995","geonameId":5653723,"toponymName":"Garden Gulch","countryId":"6252001","fcl":"T","population":0,"countryCode":"US","name":"Garden Gulch","fclName":"mountain,hill,rock,... ","adminCodes1":{"ISO3166_2":"MT"},"countryName":"United States","fcodeName":"valley","adminName1":"Montana","lat":"46.00215","fcode":"VAL"},{"adminCode1":"MT","lng":"-111.30024","geonameId":5654512,"toponymName":"Godfrey Canyon","countryId":"6252001","fcl":"T","population":0,"countryCode":"US","name":"Godfrey Canyon","fclName":"mountain,hill,rock,... ","adminCodes1":{"ISO3166_2":"MT"},"countryName":"United States","fcodeName":"valley","adminName1":"Montana","lat":"45.74548","fcode":"VAL"},{"adminCode1":"MT","lng":"-110.81522","geonameId":5655289,"toponymName":"Green Canyon","countryId":"6252001","fcl":"T","population":0,"countryCode":"US","name":"Green Canyon","fclName":"mountain,hill,rock,... ","adminCodes1":{"ISO3166_2":"MT"},"countryName":"United States","fcodeName":"valley","adminName1":"Montana","lat":"45.93521","fcode":"VAL"},{"adminCode1":"MT","lng":"-110.99689","geonameId":5655291,"toponymName":"Green Canyon","countryId":"6252001","fcl":"T","population":0,"countryCode":"US","name":"Green Canyon","fclName":"mountain,hill,rock,... ","adminCodes1":{"ISO3166_2":"MT"},"countryName":"United States","fcodeName":"valley","adminName1":"Montana","lat":"45.82021","fcode":"VAL"},{"adminCode1":"MT","lng":"-111.35496","geonameId":5655315,"toponymName":"Green Hollow","countryId":"6252001","fcl":"T","population":0,"countryCode":"US","name":"Green Hollow","fclName":"mountain,hill,rock,... ","adminCodes1":{"ISO3166_2":"MT"},"countryName":"United States","fcodeName":"valley","adminName1":"Montana","lat":"45.50826","fcode":"VAL"},{"adminCode1":"MT","lng":"-111.06439","geonameId":5655569,"toponymName":"Grouse Canyon","countryId":"6252001","fcl":"T","population":0,"countryCode":"US","name":"Grouse Canyon","fclName":"mountain,hill,rock,... ","adminCodes1":{"ISO3166_2":"MT"},"countryName":"United States","fcodeName":"valley","adminName1":"Montana","lat":"45.97465","fcode":"VAL"},{"adminCode1":"MT","lng":"-111.44441","geonameId":5646624,"toponymName":"Cottonwood Gulch","countryId":"6252001","fcl":"T","population":0,"countryCode":"US","name":"Cottonwood Gulch","fclName":"mountain,hill,rock,... ","adminCodes1":{"ISO3166_2":"MT"},"countryName":"United States","fcodeName":"valley","adminName1":"Montana","lat":"45.90937","fcode":"VAL"},{"adminCode1":"MT","lng":"-110.90078","geonameId":5648059,"toponymName":"Dean Gulch","countryId":"6252001","fcl":"T","population":0,"countryCode":"US","name":"Dean Gulch","fclName":"mountain,hill,rock,... ","adminCodes1":{"ISO3166_2":"MT"},"countryName":"United States","fcodeName":"valley","adminName1":"Montana","lat":"45.59521","fcode":"VAL"},{"adminCode1":"MT","lng":"-110.99383","geonameId":5649182,"toponymName":"Dry Canyon","countryId":"6252001","fcl":"T","population":0,"countryCode":"US","name":"Dry Canyon","fclName":"mountain,hill,rock,... ","adminCodes1":{"ISO3166_2":"MT"},"countryName":"United States","fcodeName":"valley","adminName1":"Montana","lat":"45.84965","fcode":"VAL"},{"adminCode1":"MT","lng":"-111.098","geonameId":5649365,"toponymName":"Dry Gulch","countryId":"6252001","fcl":"T","population":0,"countryCode":"US","name":"Dry Gulch","fclName":"mountain,hill,rock,... ","adminCodes1":{"ISO3166_2":"MT"},"countryName":"United States","fcodeName":"valley","adminName1":"Montana","lat":"45.54132","fcode":"VAL"},{"adminCode1":"MT","lng":"-111.28996","geonameId":5638820,"toponymName":"Bean Canyon","countryId":"6252001","fcl":"T","population":0,"countryCode":"US","name":"Bean Canyon","fclName":"mountain,hill,rock,... ","adminCodes1":{"ISO3166_2":"MT"},"countryName":"United States","fcodeName":"valley","adminName1":"Montana","lat":"46.13687","fcode":"VAL"},{"adminCode1":"MT","lng":"-110.94133","geonameId":5638839,"toponymName":"Bear Canyon","countryId":"6252001","fcl":"T","population":0,"countryCode":"US","name":"Bear Canyon","fclName":"mountain,hill,rock,... ","adminCodes1":{"ISO3166_2":"MT"},"countryName":"United States","fcodeName":"valley","adminName1":"Montana","lat":"45.6291","fcode":"VAL"},{"adminCode1":"MT","lng":"-111.39552","geonameId":5639889,"toponymName":"Big Davis Gulch","countryId":"6252001","fcl":"T","population":0,"countryCode":"US","name":"Big Davis Gulch","fclName":"mountain,hill,rock,... ","adminCodes1":{"ISO3166_2":"MT"},"countryName":"United States","fcodeName":"valley","adminName1":"Montana","lat":"45.99743","fcode":"VAL"},{"adminCode1":"MT","lng":"-110.97689","geonameId":5656515,"toponymName":"Haw Gulch","countryId":"6252001","fcl":"T","population":0,"countryCode":"US","name":"Haw Gulch","fclName":"mountain,hill,rock,... ","adminCodes1":{"ISO3166_2":"MT"},"countryName":"United States","fcodeName":"valley","adminName1":"Montana","lat":"46.0241","fcode":"VAL"},{"adminCode1":"MT","lng":"-111.15773","geonameId":5656517,"toponymName":"Haw Gulch","countryId":"6252001","fcl":"T","population":0,"countryCode":"US","name":"Haw Gulch","fclName":"mountain,hill,rock,... ","adminCodes1":{"ISO3166_2":"MT"},"countryName":"United States","fcodeName":"valley","adminName1":"Montana","lat":"46.11382","fcode":"VAL"},{"adminCode1":"MT","lng":"-111.06773","geonameId":5657542,"toponymName":"Hodgman Canyon","countryId":"6252001","fcl":"T","population":0,"countryCode":"US","name":"Hodgman Canyon","fclName":"mountain,hill,rock,... ","adminCodes1":{"ISO3166_2":"MT"},"countryName":"United States","fcodeName":"valley","adminName1":"Montana","lat":"45.5866","fcode":"VAL"},{"adminCode1":"MT","lng":"-111.38774","geonameId":5657772,"toponymName":"Home Gulch","countryId":"6252001","fcl":"T","population":0,"countryCode":"US","name":"Home Gulch","fclName":"mountain,hill,rock,... ","adminCodes1":{"ISO3166_2":"MT"},"countryName":"United States","fcodeName":"valley","adminName1":"Montana","lat":"46.02632","fcode":"VAL"},{"adminCode1":"MT","lng":"-111.07911","geonameId":5658506,"toponymName":"Hyalite Canyon","countryId":"6252001","fcl":"T","population":0,"countryCode":"US","name":"Hyalite Canyon","fclName":"mountain,hill,rock,... ","adminCodes1":{"ISO3166_2":"MT"},"countryName":"United States","fcodeName":"valley","adminName1":"Montana","lat":"45.57965","fcode":"VAL"},{"adminCode1":"MT","lng":"-111.05606","geonameId":5659838,"toponymName":"Johnson Canyon","countryId":"6252001","fcl":"T","population":0,"countryCode":"US","name":"Johnson Canyon","fclName":"mountain,hill,rock,... ","adminCodes1":{"ISO3166_2":"MT"},"countryName":"United States","fcodeName":"valley","adminName1":"Montana","lat":"45.96993","fcode":"VAL"},{"adminCode1":"MT","lng":"-110.95078","geonameId":5660477,"toponymName":"Kelly Canyon","countryId":"6252001","fcl":"T","population":0,"countryCode":"US","name":"Kelly Canyon","fclName":"mountain,hill,rock,... ","adminCodes1":{"ISO3166_2":"MT"},"countryName":"United States","fcodeName":"valley","adminName1":"Montana","lat":"45.66882","fcode":"VAL"},{"adminCode1":"MT","lng":"-111.08273","geonameId":5661599,"toponymName":"Lang Canyon","countryId":"6252001","fcl":"T","population":0,"countryCode":"US","name":"Lang Canyon","fclName":"mountain,hill,rock,... ","adminCodes1":{"ISO3166_2":"MT"},"countryName":"United States","fcodeName":"valley","adminName1":"Montana","lat":"46.05048","fcode":"VAL"},{"adminCode1":"MT","lng":"-111.05023","geonameId":5662365,"toponymName":"Limestone Canyon","countryId":"6252001","fcl":"T","population":0,"countryCode":"US","name":"Limestone Canyon","fclName":"mountain,hill,rock,... ","adminCodes1":{"ISO3166_2":"MT"},"countryName":"United States","fcodeName":"valley","adminName1":"Montana","lat":"45.86104","fcode":"VAL"},{"adminCode1":"MT","lng":"-111.1394","geonameId":5662933,"toponymName":"Little Rocky Canyon","countryId":"6252001","fcl":"T","population":0,"countryCode":"US","name":"Little Rocky Canyon","fclName":"mountain,hill,rock,... ","adminCodes1":{"ISO3166_2":"MT"},"countryName":"United States","fcodeName":"valley","adminName1":"Montana","lat":"46.01548","fcode":"VAL"},{"adminCode1":"MT","lng":"-111.0355","geonameId":5665007,"toponymName":"Maxwell Canyon","countryId":"6252001","fcl":"T","population":0,"countryCode":"US","name":"Maxwell Canyon","fclName":"mountain,hill,rock,... ","adminCodes1":{"ISO3166_2":"MT"},"countryName":"United States","fcodeName":"valley","adminName1":"Montana","lat":"46.06965","fcode":"VAL"},{"adminCode1":"MT","lng":"-110.95606","geonameId":5665035,"toponymName":"Mayfield Gulch","countryId":"6252001","fcl":"T","population":0,"countryCode":"US","name":"Mayfield Gulch","fclName":"mountain,hill,rock,... ","adminCodes1":{"ISO3166_2":"MT"},"countryName":"United States","fcodeName":"valley","adminName1":"Montana","lat":"45.70688","fcode":"VAL"},{"adminCode1":"MT","lng":"-111.05856","geonameId":5685906,"toponymName":"Wheeler Gulch","countryId":"6252001","fcl":"T","population":0,"countryCode":"US","name":"Wheeler Gulch","fclName":"mountain,hill,rock,... ","adminCodes1":{"ISO3166_2":"MT"},"countryName":"United States","fcodeName":"valley","adminName1":"Montana","lat":"45.51937","fcode":"VAL"},{"adminCode1":"MT","lng":"-111.28635","geonameId":5685941,"toponymName":"Whiskey Gulch","countryId":"6252001","fcl":"T","population":0,"countryCode":"US","name":"Whiskey Gulch","fclName":"mountain,hill,rock,... ","adminCodes1":{"ISO3166_2":"MT"},"countryName":"United States","fcodeName":"valley","adminName1":"Montana","lat":"46.08854","fcode":"VAL"},{"adminCode1":"MT","lng":"-111.31913","geonameId":5686807,"toponymName":"Windsor Gulch","countryId":"6252001","fcl":"T","population":0,"countryCode":"US","name":"Windsor Gulch","fclName":"mountain,hill,rock,... ","adminCodes1":{"ISO3166_2":"MT"},"countryName":"United States","fcodeName":"valley","adminName1":"Montana","lat":"46.16299","fcode":"VAL"},{"adminCode1":"MT","lng":"-111.38996","geonameId":5554299,"toponymName":"Lone Pine Gulch","countryId":"6252001","fcl":"T","population":0,"countryCode":"US","name":"Lone Pine Gulch","fclName":"mountain,hill,rock,... ","adminCodes1":{"ISO3166_2":"MT"},"countryName":"United States","fcodeName":"valley","adminName1":"Montana","lat":"46.08326","fcode":"VAL"},{"adminCode1":"MT","lng":"-111.17301","geonameId":5684293,"toponymName":"Valley of the Flowers Catholic Church","countryId":"6252001","fcl":"S","population":0,"countryCode":"US","name":"Valley of the Flowers Catholic Church","fclName":"spot, building, farm","adminCodes1":{"ISO3166_2":"MT"},"countryName":"United States","fcodeName":"church","adminName1":"Montana","lat":"45.78382","fcode":"CH"},{"adminCode1":"MT","lng":"-111.19108","geonameId":7242841,"toponymName":"Central Valley Fire District Station 3","countryId":"6252001","fcl":"S","population":0,"countryCode":"US","name":"Central Valley Fire District Station 3","fclName":"spot, building, farm","adminCodes1":{"ISO3166_2":"MT"},"countryName":"United States","fcodeName":"building(s)","adminName1":"Montana","lat":"45.67565","fcode":"BLDG"},{"adminCode1":"MT","lng":"-111.06578","geonameId":7242914,"toponymName":"Central Valley Fire District Station 2","countryId":"6252001","fcl":"S","population":0,"countryCode":"US","name":"Central Valley Fire District Station 2","fclName":"spot, building, farm","adminCodes1":{"ISO3166_2":"MT"},"countryName":"United States","fcodeName":"building(s)","adminName1":"Montana","lat":"45.74337","fcode":"BLDG"},{"adminCode1":"WY","lng":"-107.0009","geonameId":5825767,"toponymName":"Gallatin Draw","countryId":"6252001","fcl":"T","population":0,"countryCode":"US","name":"Gallatin Draw","fclName":"mountain,hill,rock,... ","adminCodes1":{"ISO3166_2":"WY"},"countryName":"United States","fcodeName":"valley","adminName1":"Wyoming","lat":"44.62969","fcode":"VAL"},{"adminCode1":"MT","lng":"-111.33052","geonameId":5653659,"toponymName":"Gallatin Valley Church","countryId":"6252001","fcl":"S","population":0,"countryCode":"US","name":"Gallatin Valley Church","fclName":"spot, building, farm","adminCodes1":{"ISO3166_2":"MT"},"countryName":"United States","fcodeName":"church","adminName1":"Montana","lat":"45.85993","fcode":"CH"},{"adminCode1":"MT","lng":"-111.1769","geonameId":5653660,"toponymName":"Gallatin Valley Family Clinic","countryId":"6252001","fcl":"S","population":0,"countryCode":"US","name":"Gallatin Valley Family Clinic","fclName":"spot, building, farm","adminCodes1":{"ISO3166_2":"MT"},"countryName":"United States","fcodeName":"hospital","adminName1":"Montana","lat":"45.77604","fcode":"HSP"},{"adminCode1":"MT","lng":"-111.04745","geonameId":5653662,"toponymName":"Gallatin Valley Jewish Community","countryId":"6252001","fcl":"S","population":0,"countryCode":"US","name":"Gallatin Valley Jewish Community","fclName":"spot, building, farm","adminCodes1":{"ISO3166_2":"MT"},"countryName":"United States","fcodeName":"church","adminName1":"Montana","lat":"45.67187","fcode":"CH"},{"adminCode1":"MT","lng":"-111.05661","geonameId":5653664,"toponymName":"Gallatin Valley Presbyterian Church","countryId":"6252001","fcl":"S","population":0,"countryCode":"US","name":"Gallatin Valley Presbyterian Church","fclName":"spot, building, farm","adminCodes1":{"ISO3166_2":"MT"},"countryName":"United States","fcodeName":"church","adminName1":"Montana","lat":"45.68021","fcode":"CH"},{"adminCode1":"MT","lng":"-111.18412","geonameId":5684239,"toponymName":"Valley Center Mall","countryId":"6252001","fcl":"S","population":0,"countryCode":"US","name":"Valley Center Mall","fclName":"spot, building, farm","adminCodes1":{"ISO3166_2":"MT"},"countryName":"United States","fcodeName":"mall","adminName1":"Montana","lat":"45.7741","fcode":"MALL"}]}
