{"totalResultsCount":1131,"geonames":[{"adminCode1":"AL","lng":"-85.69688","geonameId":4066437,"toponymName":"Hartford","countryId":"6252001","fcl":"P","population":2647,"countryCode":"US","name":"Hartford","fclName":"city, village,...","adminCodes1":{"ISO3166_2":"AL"},"countryName":"United States","fcodeName":"populated place","adminName1":"Alabama","lat":"31.1024","fcode":"PPL"},{"adminCode1":"AL","lng":"-85.83898","geonameId":4063931,"toponymName":"Geneva County","countryId":"6252001","fcl":"A","population":26790,"countryCode":"US","name":"Geneva","fclName":"country, state, region,...","adminCodes1":{"ISO3166_2":"AL"},"countryName":"United States","fcodeName":"second-order administrative division","adminName1":"Alabama","lat":"31.09502","fcode":"ADM2"},{"adminCode1":"AL","lng":"-85.86382","geonameId":4063926,"toponymName":"Geneva","countryId":"6252001","fcl":"P","population":4460,"countryCode":"US","name":"Geneva","fclName":"city, village,...","adminCodes1":{"ISO3166_2":"AL"},"countryName":"United States","fcodeName":"seat of a second-order administrative division","adminName1":"Alabama","lat":"31.03296","fcode":"PPLA2"},{"adminCode1":"AL","lng":"-86.04605","geonameId":4088360,"toponymName":"Samson","countryId":"6252001","fcl":"P","population":1928,"countryCode":"US","name":"Samson","fclName":"city, village,...","adminCodes1":{"ISO3166_2":"AL"},"countryName":"United States","fcodeName":"populated place","adminName1":"Alabama","lat":"31.11295","fcode":"PPL"},{"adminCode1":"AL","lng":"-85.59438","geonameId":4090470,"toponymName":"Slocomb","countryId":"6252001","fcl":"P","population":1972,"countryCode":"US","name":"Slocomb","fclName":"city, village,...","adminCodes1":{"ISO3166_2":"AL"},"countryName":"United States","fcodeName":"populated place","adminName1":"Alabama","lat":"31.10823","fcode":"PPL"},{"adminCode1":"AL","lng":"-85.5191","geonameId":4074452,"toponymName":"Malvern","countryId":"6252001","fcl":"P","population":1446,"countryCode":"US","name":"Malvern","fclName":"city, village,...","adminCodes1":{"ISO3166_2":"AL"},"countryName":"United States","fcodeName":"populated place","adminName1":"Alabama","lat":"31.13934","fcode":"PPL"},{"adminCode1":"AL","lng":"-85.87716","geonameId":4054650,"toponymName":"Chancellor","countryId":"6252001","fcl":"P","population":0,"countryCode":"US","name":"Chancellor","fclName":"city, village,...","adminCodes1":{"ISO3166_2":"AL"},"countryName":"United States","fcodeName":"populated place","adminName1":"Alabama","lat":"31.18156","fcode":"PPL"},{"adminCode1":"AL","lng":"-85.79327","geonameId":4047497,"toponymName":"Bellwood","countryId":"6252001","fcl":"P","population":0,"countryCode":"US","name":"Bellwood","fclName":"city, village,...","adminCodes1":{"ISO3166_2":"AL"},"countryName":"United States","fcodeName":"populated place","adminName1":"Alabama","lat":"31.17323","fcode":"PPL"},{"adminCode1":"AL","lng":"-85.74438","geonameId":4050081,"toponymName":"Black","countryId":"6252001","fcl":"P","population":208,"countryCode":"US","name":"Black","fclName":"city, village,...","adminCodes1":{"ISO3166_2":"AL"},"countryName":"United States","fcodeName":"populated place","adminName1":"Alabama","lat":"31.00935","fcode":"PPL"},{"adminCode1":"AL","lng":"-85.86339","geonameId":4063942,"toponymName":"Geneva Municipal Airport","countryId":"6252001","fcl":"S","population":0,"countryCode":"US","name":"Geneva Municipal Airport","fclName":"spot, building, farm","adminCodes1":{"ISO3166_2":"AL"},"countryName":"United States","fcodeName":"airport","adminName1":"Alabama","lat":"31.05225","fcode":"AIRP"},{"adminCode1":"AL","lng":"-85.53743","geonameId":4061170,"toponymName":"Fadette","countryId":"6252001","fcl":"P","population":0,"countryCode":"US","name":"Fadette","fclName":"city, village,...","adminCodes1":{"ISO3166_2":"AL"},"countryName":"United States","fcodeName":"populated place","adminName1":"Alabama","lat":"31.04462","fcode":"PPL"},{"adminCode1":"AL","lng":"-86.16633","geonameId":4065748,"toponymName":"Hacoda","countryId":"6252001","fcl":"P","population":0,"countryCode":"US","name":"Hacoda","fclName":"city, village,...","adminCodes1":{"ISO3166_2":"AL"},"countryName":"United States","fcodeName":"populated place","adminName1":"Alabama","lat":"31.0749","fcode":"PPL"},{"adminCode1":"AL","lng":"-85.73132","geonameId":4067145,"toponymName":"High Bluff","countryId":"6252001","fcl":"P","population":0,"countryCode":"US","name":"High Bluff","fclName":"city, village,...","adminCodes1":{"ISO3166_2":"AL"},"countryName":"United States","fcodeName":"populated place","adminName1":"Alabama","lat":"31.15656","fcode":"PPL"},{"adminCode1":"AL","lng":"-85.79993","geonameId":4067211,"toponymName":"Highfalls","countryId":"6252001","fcl":"P","population":0,"countryCode":"US","name":"Highfalls","fclName":"city, village,...","adminCodes1":{"ISO3166_2":"AL"},"countryName":"United States","fcodeName":"populated place","adminName1":"Alabama","lat":"31.09851","fcode":"PPL"},{"adminCode1":"AL","lng":"-85.69243","geonameId":4067276,"toponymName":"Highnote","countryId":"6252001","fcl":"P","population":0,"countryCode":"US","name":"Highnote","fclName":"city, village,...","adminCodes1":{"ISO3166_2":"AL"},"countryName":"United States","fcodeName":"populated place","adminName1":"Alabama","lat":"30.99601","fcode":"PPL"},{"adminCode1":"AL","lng":"-85.6716","geonameId":4059624,"toponymName":"Dundee","countryId":"6252001","fcl":"P","population":0,"countryCode":"US","name":"Dundee","fclName":"city, village,...","adminCodes1":{"ISO3166_2":"AL"},"countryName":"United States","fcodeName":"populated place","adminName1":"Alabama","lat":"31.12045","fcode":"PPL"},{"adminCode1":"AL","lng":"-86.12939","geonameId":4059798,"toponymName":"Earlytown","countryId":"6252001","fcl":"P","population":0,"countryCode":"US","name":"Earlytown","fclName":"city, village,...","adminCodes1":{"ISO3166_2":"AL"},"countryName":"United States","fcodeName":"populated place","adminName1":"Alabama","lat":"31.12851","fcode":"PPL"},{"adminCode1":"AL","lng":"-85.84744","geonameId":4060971,"toponymName":"Eunola","countryId":"6252001","fcl":"P","population":243,"countryCode":"US","name":"Eunola","fclName":"city, village,...","adminCodes1":{"ISO3166_2":"AL"},"countryName":"United States","fcodeName":"populated place","adminName1":"Alabama","lat":"31.0399","fcode":"PPL"},{"adminCode1":"WI","lng":"-88.43343","geonameId":5259169,"toponymName":"Lake Geneva","countryId":"6252001","fcl":"P","population":7778,"countryCode":"US","name":"Lake Geneva","fclName":"city, village,...","adminCodes1":{"ISO3166_2":"WI"},"countryName":"United States","fcodeName":"populated place","adminName1":"Wisconsin","lat":"42.59168","fcode":"PPL"},{"adminCode1":"WI","lng":"-88.50375","geonameId":5259170,"toponymName":"Lake Geneva","countryId":"6252001","fcl":"H","population":0,"countryCode":"US","name":"Lake Geneva","fclName":"stream, lake, ...","adminCodes1":{"ISO3166_2":"WI"},"countryName":"United States","fcodeName":"lake","adminName1":"Wisconsin","lat":"42.56501","fcode":"LK"},{"adminCode1":"NE","lng":"-97.59588","geonameId":5068953,"toponymName":"Geneva","countryId":"6252001","fcl":"P","population":2131,"countryCode":"US","name":"Geneva","fclName":"city, village,...","adminCodes1":{"ISO3166_2":"NE"},"countryName":"United States","fcodeName":"seat of a second-order administrative division","adminName1":"Nebraska","lat":"40.52695","fcode":"PPLA2"},{"adminCode1":"IL","lng":"-88.30535","geonameId":4893591,"toponymName":"Geneva","countryId":"6252001","fcl":"P","population":21806,"countryCode":"US","name":"Geneva","fclName":"city, village,...","adminCodes1":{"ISO3166_2":"IL"},"countryName":"United States","fcodeName":"seat of a second-order administrative division","adminName1":"Illinois","lat":"41.88753","fcode":"PPLA2"},{"adminCode1":"OH","lng":"-80.94815","geonameId":5155572,"toponymName":"Geneva","countryId":"6252001","fcl":"P","population":6051,"countryCode":"US","name":"Geneva","fclName":"city, village,...","adminCodes1":{"ISO3166_2":"OH"},"countryName":"United States","fcodeName":"populated place","adminName1":"Ohio","lat":"41.80505","fcode":"PPL"},{"adminCode1":"NY","lng":"-76.97774","geonameId":5118398,"toponymName":"Geneva","countryId":"6252001","fcl":"P","population":13062,"countryCode":"US","name":"Geneva","fclName":"city, village,...","adminCodes1":{"ISO3166_2":"NY"},"countryName":"United States","fcodeName":"populated place","adminName1":"New York","lat":"42.86896","fcode":"PPL"},{"adminCode1":"OH","lng":"-80.95398","geonameId":5155587,"toponymName":"Geneva-on-the-Lake","countryId":"6252001","fcl":"P","population":1214,"countryCode":"US","name":"Geneva-on-the-Lake","fclName":"city, village,...","adminCodes1":{"ISO3166_2":"OH"},"countryName":"United States","fcodeName":"populated place","adminName1":"Ohio","lat":"41.8595","fcode":"PPL"},{"adminCode1":"MN","lng":"-95.32744","geonameId":5027791,"toponymName":"Lake Geneva","countryId":"6252001","fcl":"H","population":0,"countryCode":"US","name":"Lake Geneva","fclName":"stream, lake, ...","adminCodes1":{"ISO3166_2":"MN"},"countryName":"United States","fcodeName":"lake","adminName1":"Minnesota","lat":"45.89931","fcode":"LK"},{"adminCode1":"AL","lng":"-85.71756","geonameId":7313245,"toponymName":"Geneva County Industrial Park","countryId":"6252001","fcl":"L","population":0,"countryCode":"US","name":"Geneva County Industrial Park","fclName":"parks,area, ...","adminCodes1":{"ISO3166_2":"AL"},"countryName":"United States","fcodeName":"industrial area","adminName1":"Alabama","lat":"31.10928","fcode":"INDS"},{"adminCode1":"AL","lng":"-85.87634","geonameId":7317697,"toponymName":"City of Geneva","countryId":"6252001","fcl":"A","population":4452,"countryCode":"US","name":"City of Geneva","fclName":"country, state, region,...","adminCodes1":{"ISO3166_2":"AL"},"countryName":"United States","fcodeName":"administrative division","adminName1":"Alabama","lat":"31.04367","fcode":"ADMD"},{"adminCode1":"AL","lng":"-85.84967","geonameId":4063948,"toponymName":"Lake Geneva","countryId":"6252001","fcl":"H","population":0,"countryCode":"US","name":"Lake Geneva","fclName":"stream, lake, ...","adminCodes1":{"ISO3166_2":"AL"},"countryName":"United States","fcodeName":"lake","adminName1":"Alabama","lat":"31.02712","fcode":"LK"},{"adminCode1":"MN","lng":"-93.26771","geonameId":5027779,"toponymName":"Geneva","countryId":"6252001","fcl":"P","population":544,"countryCode":"US","name":"Geneva","fclName":"city, village,...","adminCodes1":{"ISO3166_2":"MN"},"countryName":"United States","fcodeName":"populated place","adminName1":"Minnesota","lat":"43.82329","fcode":"PPL"},{"adminCode1":"IN","lng":"-84.95719","geonameId":4920664,"toponymName":"Geneva","countryId":"6252001","fcl":"P","population":1320,"countryCode":"US","name":"Geneva","fclName":"city, village,...","adminCodes1":{"ISO3166_2":"IN"},"countryName":"United States","fcodeName":"populated place","adminName1":"Indiana","lat":"40.59199","fcode":"PPL"},{"adminCode1":"AL","lng":"-85.74279","geonameId":7170640,"toponymName":"Town of Black","countryId":"6252001","fcl":"A","population":207,"countryCode":"US","name":"Town of Black","fclName":"country, state, region,...","adminCodes1":{"ISO3166_2":"AL"},"countryName":"United States","fcodeName":"administrative division","adminName1":"Alabama","lat":"31.01025","fcode":"ADMD"},{"adminCode1":"AL","lng":"-85.59539","geonameId":7170824,"toponymName":"City of Slocomb","countryId":"6252001","fcl":"A","population":1980,"countryCode":"US","name":"City of Slocomb","fclName":"country, state, region,...","adminCodes1":{"ISO3166_2":"AL"},"countryName":"United States","fcodeName":"administrative division","adminName1":"Alabama","lat":"31.11032","fcode":"ADMD"},{"adminCode1":"AL","lng":"-85.521","geonameId":7171327,"toponymName":"Town of Malvern","countryId":"6252001","fcl":"A","population":1448,"countryCode":"US","name":"Town of Malvern","fclName":"country, state, region,...","adminCodes1":{"ISO3166_2":"AL"},"countryName":"United States","fcodeName":"administrative division","adminName1":"Alabama","lat":"31.14278","fcode":"ADMD"},{"adminCode1":"AL","lng":"-85.91031","geonameId":7171530,"toponymName":"Town of Coffee Springs","countryId":"6252001","fcl":"A","population":228,"countryCode":"US","name":"Town of Coffee Springs","fclName":"country, state, region,...","adminCodes1":{"ISO3166_2":"AL"},"countryName":"United States","fcodeName":"administrative division","adminName1":"Alabama","lat":"31.1664","fcode":"ADMD"},{"adminCode1":"AL","lng":"-85.84391","geonameId":7171706,"toponymName":"Town of Eunola (historical)","countryId":"6252001","fcl":"A","population":243,"countryCode":"US","name":"Town of Eunola (historical)","fclName":"country, state, region,...","adminCodes1":{"ISO3166_2":"AL"},"countryName":"United States","fcodeName":"administrative division","adminName1":"Alabama","lat":"31.03601","fcode":"ADMD"},{"adminCode1":"AL","lng":"-85.69157","geonameId":7317727,"toponymName":"City of Hartford","countryId":"6252001","fcl":"A","population":2624,"countryCode":"US","name":"City of Hartford","fclName":"country, state, region,...","adminCodes1":{"ISO3166_2":"AL"},"countryName":"United States","fcodeName":"administrative division","adminName1":"Alabama","lat":"31.10552","fcode":"ADMD"},{"adminCode1":"AL","lng":"-86.04634","geonameId":7318108,"toponymName":"City of Samson","countryId":"6252001","fcl":"A","population":1940,"countryCode":"US","name":"City of Samson","fclName":"country, state, region,...","adminCodes1":{"ISO3166_2":"AL"},"countryName":"United States","fcodeName":"administrative division","adminName1":"Alabama","lat":"31.11238","fcode":"ADMD"},{"adminCode1":"AL","lng":"-86.14435","geonameId":4083049,"toponymName":"Pigeon Pond","countryId":"6252001","fcl":"H","population":0,"countryCode":"US","name":"Pigeon Pond","fclName":"stream, lake, ...","adminCodes1":{"ISO3166_2":"AL"},"countryName":"United States","fcodeName":"lake","adminName1":"Alabama","lat":"31.09804","fcode":"LK"},{"adminCode1":"AL","lng":"-85.84499","geonameId":4084423,"toponymName":"Ponderosa Pond","countryId":"6252001","fcl":"H","population":0,"countryCode":"US","name":"Ponderosa Pond","fclName":"stream, lake, ...","adminCodes1":{"ISO3166_2":"AL"},"countryName":"United States","fcodeName":"lake","adminName1":"Alabama","lat":"31.0893","fcode":"LK"},{"adminCode1":"AL","lng":"-86.10902","geonameId":4061564,"toponymName":"Faulk Millpond","countryId":"6252001","fcl":"H","population":0,"countryCode":"US","name":"Faulk Millpond","fclName":"stream, lake, ...","adminCodes1":{"ISO3166_2":"AL"},"countryName":"United States","fcodeName":"lake","adminName1":"Alabama","lat":"31.13754","fcode":"LK"},{"adminCode1":"AL","lng":"-85.73907","geonameId":4075600,"toponymName":"McNeil Pond","countryId":"6252001","fcl":"H","population":0,"countryCode":"US","name":"McNeil Pond","fclName":"stream, lake, ...","adminCodes1":{"ISO3166_2":"AL"},"countryName":"United States","fcodeName":"lake","adminName1":"Alabama","lat":"31.09184","fcode":"LK"},{"adminCode1":"AL","lng":"-85.67632","geonameId":4066440,"toponymName":"Hartford Lake","countryId":"6252001","fcl":"H","population":0,"countryCode":"US","name":"Hartford Lake","fclName":"stream, lake, ...","adminCodes1":{"ISO3166_2":"AL"},"countryName":"United States","fcodeName":"lake","adminName1":"Alabama","lat":"31.05851","fcode":"LK"},{"adminCode1":"AL","lng":"-85.4641","geonameId":4052237,"toponymName":"Brushy Pond","countryId":"6252001","fcl":"H","population":0,"countryCode":"US","name":"Brushy Pond","fclName":"stream, lake, ...","adminCodes1":{"ISO3166_2":"AL"},"countryName":"United States","fcodeName":"lake","adminName1":"Alabama","lat":"30.9999","fcode":"LK"},{"adminCode1":"AL","lng":"-85.7041","geonameId":4052523,"toponymName":"Burch Pond","countryId":"6252001","fcl":"H","population":0,"countryCode":"US","name":"Burch Pond","fclName":"stream, lake, ...","adminCodes1":{"ISO3166_2":"AL"},"countryName":"United States","fcodeName":"lake","adminName1":"Alabama","lat":"31.08462","fcode":"LK"},{"adminCode1":"AL","lng":"-86.06022","geonameId":4052553,"toponymName":"Burgess Pond","countryId":"6252001","fcl":"H","population":0,"countryCode":"US","name":"Burgess Pond","fclName":"stream, lake, ...","adminCodes1":{"ISO3166_2":"AL"},"countryName":"United States","fcodeName":"lake","adminName1":"Alabama","lat":"30.9974","fcode":"LK"},{"adminCode1":"AL","lng":"-86.08948","geonameId":4095454,"toponymName":"Lake Victoria","countryId":"6252001","fcl":"H","population":0,"countryCode":"US","name":"Lake Victoria","fclName":"stream, lake, ...","adminCodes1":{"ISO3166_2":"AL"},"countryName":"United States","fcodeName":"lake","adminName1":"Alabama","lat":"31.06798","fcode":"LK"},{"adminCode1":"AL","lng":"-86.05911","geonameId":4056687,"toponymName":"Cook Pond","countryId":"6252001","fcl":"H","population":0,"countryCode":"US","name":"Cook Pond","fclName":"stream, lake, ...","adminCodes1":{"ISO3166_2":"AL"},"countryName":"United States","fcodeName":"lake","adminName1":"Alabama","lat":"30.9949","fcode":"LK"},{"adminCode1":"AL","lng":"-85.69466","geonameId":4058260,"toponymName":"Daughtry Pond","countryId":"6252001","fcl":"H","population":0,"countryCode":"US","name":"Daughtry Pond","fclName":"stream, lake, ...","adminCodes1":{"ISO3166_2":"AL"},"countryName":"United States","fcodeName":"lake","adminName1":"Alabama","lat":"31.08906","fcode":"LK"},{"adminCode1":"GA","lng":"-84.55076","geonameId":4196863,"toponymName":"Geneva","countryId":"6252001","fcl":"P","population":100,"countryCode":"US","name":"Geneva","fclName":"city, village,...","adminCodes1":{"ISO3166_2":"GA"},"countryName":"United States","fcodeName":"populated place","adminName1":"Georgia","lat":"32.57986","fcode":"PPL"},{"adminCode1":"AL","lng":"-85.37578","geonameId":4063947,"toponymName":"Geneva Street Historic District","countryId":"6252001","fcl":"L","population":0,"countryCode":"US","name":"Geneva Street Historic District","fclName":"parks,area, ...","adminCodes1":{"ISO3166_2":"AL"},"countryName":"United States","fcodeName":"area","adminName1":"Alabama","lat":"32.64125","fcode":"AREA"},{"adminCode1":"DE","lng":"-75.51853","geonameId":4142736,"toponymName":"Great Geneva","countryId":"6252001","fcl":"L","population":0,"countryCode":"US","name":"Great Geneva","fclName":"parks,area, ...","adminCodes1":{"ISO3166_2":"DE"},"countryName":"United States","fcodeName":"park","adminName1":"Delaware","lat":"39.11761","fcode":"PRK"},{"adminCode1":"FL","lng":"-81.11506","geonameId":4156657,"toponymName":"Geneva","countryId":"6252001","fcl":"P","population":2940,"countryCode":"US","name":"Geneva","fclName":"city, village,...","adminCodes1":{"ISO3166_2":"FL"},"countryName":"United States","fcodeName":"populated place","adminName1":"Florida","lat":"28.73972","fcode":"PPL"},{"adminCode1":"WI","lng":"-88.5751","geonameId":5253369,"toponymName":"Fontana","countryId":"6252001","fcl":"P","population":1720,"countryCode":"US","name":"Fontana","fclName":"city, village,...","adminCodes1":{"ISO3166_2":"WI"},"countryName":"United States","fcodeName":"populated place","adminName1":"Wisconsin","lat":"42.55141","fcode":"PPL"},{"adminCode1":"IN","lng":"-85.71998","geonameId":4257898,"toponymName":"Geneva","countryId":"6252001","fcl":"P","population":1316,"countryCode":"US","name":"Geneva","fclName":"city, village,...","adminCodes1":{"ISO3166_2":"IN"},"countryName":"United States","fcodeName":"populated place","adminName1":"Indiana","lat":"39.39172","fcode":"PPL"},{"adminCode1":"WA","lng":"-122.28131","geonameId":5795351,"toponymName":"Lake Geneva","countryId":"6252001","fcl":"H","population":0,"countryCode":"US","name":"Lake Geneva","fclName":"stream, lake, ...","adminCodes1":{"ISO3166_2":"WA"},"countryName":"United States","fcodeName":"lake","adminName1":"Washington","lat":"47.29153","fcode":"LK"},{"adminCode1":"KS","lng":"-95.49415","geonameId":4272017,"toponymName":"Geneva","countryId":"6252001","fcl":"P","population":0,"countryCode":"US","name":"Geneva","fclName":"city, village,...","adminCodes1":{"ISO3166_2":"KS"},"countryName":"United States","fcodeName":"populated place","adminName1":"Kansas","lat":"38.01698","fcode":"PPL"},{"adminCode1":"AL","lng":"-85.87938","geonameId":4063941,"toponymName":"Geneva High School","countryId":"6252001","fcl":"S","population":0,"countryCode":"US","name":"Geneva High School","fclName":"spot, building, farm","adminCodes1":{"ISO3166_2":"AL"},"countryName":"United States","fcodeName":"school","adminName1":"Alabama","lat":"31.0422","fcode":"SCH"},{"adminCode1":"FL","lng":"-82.0101","geonameId":4161239,"toponymName":"Lake Geneva","countryId":"6252001","fcl":"P","population":0,"countryCode":"US","name":"Lake Geneva","fclName":"city, village,...","adminCodes1":{"ISO3166_2":"FL"},"countryName":"United States","fcodeName":"populated place","adminName1":"Florida","lat":"29.77219","fcode":"PPL"},{"adminCode1":"ID","lng":"-111.06519","geonameId":5593944,"toponymName":"Geneva","countryId":"6252001","fcl":"P","population":0,"countryCode":"US","name":"Geneva","fclName":"city, village,...","adminCodes1":{"ISO3166_2":"ID"},"countryName":"United States","fcodeName":"populated place","adminName1":"Idaho","lat":"42.35854","fcode":"PPL"},{"adminCode1":"WI","lng":"-88.39514","geonameId":8081793,"toponymName":"Grand Geneva Resort Airport","countryId":"6252001","fcl":"S","population":0,"countryCode":"US","name":"Grand Geneva Resort Airport","fclName":"spot, building, farm","adminCodes1":{"ISO3166_2":"WI"},"countryName":"United States","fcodeName":"airport","adminName1":"Wisconsin","lat":"42.61247","fcode":"AIRP"},{"adminCode1":"AL","lng":"-86.09189","geonameId":4082685,"toponymName":"Pera","countryId":"6252001","fcl":"P","population":0,"countryCode":"US","name":"Pera","fclName":"city, village,...","adminCodes1":{"ISO3166_2":"AL"},"countryName":"United States","fcodeName":"populated place","adminName1":"Alabama","lat":"31.13545","fcode":"PPL"},{"adminCode1":"AL","lng":"-86.14272","geonameId":4073871,"toponymName":"Lowery","countryId":"6252001","fcl":"P","population":0,"countryCode":"US","name":"Lowery","fclName":"city, village,...","adminCodes1":{"ISO3166_2":"AL"},"countryName":"United States","fcodeName":"populated place","adminName1":"Alabama","lat":"31.1674","fcode":"PPL"},{"adminCode1":"AL","lng":"-85.97994","geonameId":4074677,"toponymName":"Marl","countryId":"6252001","fcl":"P","population":0,"countryCode":"US","name":"Marl","fclName":"city, village,...","adminCodes1":{"ISO3166_2":"AL"},"countryName":"United States","fcodeName":"populated place","adminName1":"Alabama","lat":"31.09045","fcode":"PPL"},{"adminCode1":"AL","lng":"-85.7516","geonameId":4070593,"toponymName":"Kellys Crossroads","countryId":"6252001","fcl":"P","population":0,"countryCode":"US","name":"Kellys Crossroads","fclName":"city, village,...","adminCodes1":{"ISO3166_2":"AL"},"countryName":"United States","fcodeName":"populated place","adminName1":"Alabama","lat":"31.06962","fcode":"PPL"},{"adminCode1":"AL","lng":"-85.90549","geonameId":4056110,"toponymName":"Coffee Springs","countryId":"6252001","fcl":"H","population":0,"countryCode":"US","name":"Coffee Springs","fclName":"stream, lake, ...","adminCodes1":{"ISO3166_2":"AL"},"countryName":"United States","fcodeName":"spring(s)","adminName1":"Alabama","lat":"31.17156","fcode":"SPNG"},{"adminCode1":"AL","lng":"-85.90938","geonameId":4056114,"toponymName":"Coffee Springs","countryId":"6252001","fcl":"P","population":229,"countryCode":"US","name":"Coffee Springs","fclName":"city, village,...","adminCodes1":{"ISO3166_2":"AL"},"countryName":"United States","fcodeName":"populated place","adminName1":"Alabama","lat":"31.16462","fcode":"PPL"},{"adminCode1":"AL","lng":"-85.98744","geonameId":4093738,"toponymName":"Tight Eye Creek","countryId":"6252001","fcl":"H","population":0,"countryCode":"US","name":"Tight Eye Creek","fclName":"stream, lake, ...","adminCodes1":{"ISO3166_2":"AL"},"countryName":"United States","fcodeName":"stream","adminName1":"Alabama","lat":"31.1424","fcode":"STM"},{"adminCode1":"AL","lng":"-85.8916","geonameId":4098227,"toponymName":"Wiregrass Hospital Airport","countryId":"6252001","fcl":"S","population":0,"countryCode":"US","name":"Wiregrass Hospital Airport","fclName":"spot, building, farm","adminCodes1":{"ISO3166_2":"AL"},"countryName":"United States","fcodeName":"airport","adminName1":"Alabama","lat":"31.04962","fcode":"AIRP"},{"adminCode1":"AL","lng":"-86.05754","geonameId":4828106,"toponymName":"Logan Field","countryId":"6252001","fcl":"S","population":0,"countryCode":"US","name":"Logan Field","fclName":"spot, building, farm","adminCodes1":{"ISO3166_2":"AL"},"countryName":"United States","fcodeName":"airfield","adminName1":"Alabama","lat":"31.10596","fcode":"AIRF"},{"adminCode1":"AL","lng":"-85.59382","geonameId":4831060,"toponymName":"Bailey Crossroads","countryId":"6252001","fcl":"P","population":0,"countryCode":"US","name":"Bailey Crossroads","fclName":"city, village,...","adminCodes1":{"ISO3166_2":"AL"},"countryName":"United States","fcodeName":"populated place","adminName1":"Alabama","lat":"31.19101","fcode":"PPL"},{"adminCode1":"AL","lng":"-85.99289","geonameId":8113321,"toponymName":"Fairlane Airport","countryId":"6252001","fcl":"S","population":0,"countryCode":"US","name":"Fairlane Airport","fclName":"spot, building, farm","adminCodes1":{"ISO3166_2":"AL"},"countryName":"United States","fcodeName":"airport","adminName1":"Alabama","lat":"31.10518","fcode":"AIRP"},{"adminCode1":"AL","lng":"-85.68454","geonameId":8113323,"toponymName":"Flying H Ranch Airport","countryId":"6252001","fcl":"S","population":0,"countryCode":"US","name":"Flying H Ranch Airport","fclName":"spot, building, farm","adminCodes1":{"ISO3166_2":"AL"},"countryName":"United States","fcodeName":"airport","adminName1":"Alabama","lat":"31.05117","fcode":"AIRP"},{"adminCode1":"OH","lng":"-82.43349","geonameId":4512557,"toponymName":"Geneva","countryId":"6252001","fcl":"P","population":6447,"countryCode":"US","name":"Geneva","fclName":"city, village,...","adminCodes1":{"ISO3166_2":"OH"},"countryName":"United States","fcodeName":"populated place","adminName1":"Ohio","lat":"39.66201","fcode":"PPL"},{"adminCode1":"FL","lng":"-82.57312","geonameId":4156665,"toponymName":"Lake Geneva","countryId":"6252001","fcl":"H","population":0,"countryCode":"US","name":"Lake Geneva","fclName":"stream, lake, ...","adminCodes1":{"ISO3166_2":"FL"},"countryName":"United States","fcodeName":"lake","adminName1":"Florida","lat":"28.18799","fcode":"LK"},{"adminCode1":"CO","lng":"-107.07756","geonameId":5422863,"toponymName":"Geneva Lake","countryId":"6252001","fcl":"H","population":0,"countryCode":"US","name":"Geneva Lake","fclName":"stream, lake, ...","adminCodes1":{"ISO3166_2":"CO"},"countryName":"United States","fcodeName":"lake","adminName1":"Colorado","lat":"39.09698","fcode":"LK"},{"adminCode1":"MI","lng":"-84.21483","geonameId":4993802,"toponymName":"Lake Geneva","countryId":"6252001","fcl":"H","population":0,"countryCode":"US","name":"Lake Geneva","fclName":"stream, lake, ...","adminCodes1":{"ISO3166_2":"MI"},"countryName":"United States","fcodeName":"lake","adminName1":"Michigan","lat":"45.17898","fcode":"LK"},{"adminCode1":"IN","lng":"-85.71747","geonameId":4264528,"toponymName":"Scipio","countryId":"6252001","fcl":"P","population":153,"countryCode":"US","name":"Scipio","fclName":"city, village,...","adminCodes1":{"ISO3166_2":"IN"},"countryName":"United States","fcodeName":"populated place","adminName1":"Indiana","lat":"39.07922","fcode":"PPL"},{"adminCode1":"IN","lng":"-85.69858","geonameId":4256223,"toponymName":"Country Squire Lakes","countryId":"6252001","fcl":"P","population":3571,"countryCode":"US","name":"Country Squire Lakes","fclName":"city, village,...","adminCodes1":{"ISO3166_2":"IN"},"countryName":"United States","fcodeName":"populated place","adminName1":"Indiana","lat":"39.03478","fcode":"PPL"},{"adminCode1":"WA","lng":"-122.40183","geonameId":5795348,"toponymName":"Geneva","countryId":"6252001","fcl":"P","population":2321,"countryCode":"US","name":"Geneva","fclName":"city, village,...","adminCodes1":{"ISO3166_2":"WA"},"countryName":"United States","fcodeName":"populated place","adminName1":"Washington","lat":"48.74567","fcode":"PPL"},{"adminCode1":"PA","lng":"-79.90922","geonameId":4559977,"toponymName":"New Geneva","countryId":"6252001","fcl":"P","population":0,"countryCode":"US","name":"New Geneva","fclName":"city, village,...","adminCodes1":{"ISO3166_2":"PA"},"countryName":"United States","fcodeName":"populated place","adminName1":"Pennsylvania","lat":"39.78841","fcode":"PPL"},{"adminCode1":"WA","lng":"-122.24544","geonameId":5815130,"toponymName":"Lake Washington","countryId":"6252001","fcl":"H","population":0,"countryCode":"US","name":"Lake Washington","fclName":"stream, lake, ...","adminCodes1":{"ISO3166_2":"WA"},"countryName":"United States","fcodeName":"lake","adminName1":"Washington","lat":"47.61957","fcode":"LK"},{"adminCode1":"KS","lng":"-95.47315","geonameId":4272019,"toponymName":"Township of Geneva","countryId":"6252001","fcl":"A","population":0,"countryCode":"US","name":"Geneva Township","fclName":"country, state, region,...","adminCodes1":{"ISO3166_2":"KS"},"countryName":"United States","fcodeName":"third-order administrative division","adminName1":"Kansas","lat":"37.99475","fcode":"ADM3"},{"adminCode1":"IN","lng":"-85.72408","geonameId":4257899,"toponymName":"Township of Geneva","countryId":"6252001","fcl":"A","population":0,"countryCode":"US","name":"Geneva Township","fclName":"country, state, region,...","adminCodes1":{"ISO3166_2":"IN"},"countryName":"United States","fcodeName":"third-order administrative division","adminName1":"Indiana","lat":"39.07939","fcode":"ADM3"},{"adminCode1":"IA","lng":"-93.08505","geonameId":4858228,"toponymName":"Township of Geneva","countryId":"6252001","fcl":"A","population":0,"countryCode":"US","name":"Geneva Township","fclName":"country, state, region,...","adminCodes1":{"ISO3166_2":"IA"},"countryName":"United States","fcodeName":"third-order administrative division","adminName1":"Iowa","lat":"42.68709","fcode":"ADM3"},{"adminCode1":"NE","lng":"-97.65287","geonameId":5068965,"toponymName":"Township of Geneva","countryId":"6252001","fcl":"A","population":0,"countryCode":"US","name":"Geneva Township","fclName":"country, state, region,...","adminCodes1":{"ISO3166_2":"NE"},"countryName":"United States","fcodeName":"third-order administrative division","adminName1":"Nebraska","lat":"40.56783","fcode":"ADM3"},{"adminCode1":"IL","lng":"-88.32285","geonameId":4893599,"toponymName":"Township of Geneva","countryId":"6252001","fcl":"A","population":0,"countryCode":"US","name":"Geneva Township","fclName":"country, state, region,...","adminCodes1":{"ISO3166_2":"IL"},"countryName":"United States","fcodeName":"third-order administrative division","adminName1":"Illinois","lat":"41.87727","fcode":"ADM3"},{"adminCode1":"MI","lng":"-84.54768","geonameId":4993803,"toponymName":"Township of Geneva","countryId":"6252001","fcl":"A","population":0,"countryCode":"US","name":"Geneva Township","fclName":"country, state, region,...","adminCodes1":{"ISO3166_2":"MI"},"countryName":"United States","fcodeName":"third-order administrative division","adminName1":"Michigan","lat":"43.6842","fcode":"ADM3"},{"adminCode1":"OH","lng":"-80.95117","geonameId":5155584,"toponymName":"Township of Geneva","countryId":"6252001","fcl":"A","population":0,"countryCode":"US","name":"Geneva Township","fclName":"country, state, region,...","adminCodes1":{"ISO3166_2":"OH"},"countryName":"United States","fcodeName":"third-order administrative division","adminName1":"Ohio","lat":"41.82414","fcode":"ADM3"},{"adminCode1":"MN","lng":"-93.22911","geonameId":5027792,"toponymName":"Township of Geneva","countryId":"6252001","fcl":"A","population":0,"countryCode":"US","name":"Geneva Township","fclName":"country, state, region,...","adminCodes1":{"ISO3166_2":"MN"},"countryName":"United States","fcodeName":"third-order administrative division","adminName1":"Minnesota","lat":"43.80441","fcode":"ADM3"},{"adminCode1":"CO","lng":"-105.82334","geonameId":5422868,"toponymName":"Geneva Peak","countryId":"6252001","fcl":"T","population":0,"countryCode":"US","name":"Geneva Peak","fclName":"mountain,hill,rock,... ","adminCodes1":{"ISO3166_2":"CO"},"countryName":"United States","fcodeName":"mountain","adminName1":"Colorado","lat":"39.5536","fcode":"MT"},{"adminCode1":"IA","lng":"-93.12937","geonameId":4858218,"toponymName":"Geneva","countryId":"6252001","fcl":"P","population":161,"countryCode":"US","name":"Geneva","fclName":"city, village,...","adminCodes1":{"ISO3166_2":"IA"},"countryName":"United States","fcodeName":"populated place","adminName1":"Iowa","lat":"42.67553","fcode":"PPL"},{"adminCode1":"WI","lng":"-88.48203","geonameId":5254147,"toponymName":"Town of Geneva","countryId":"6252001","fcl":"A","population":5040,"countryCode":"US","name":"Town of Geneva","fclName":"country, state, region,...","adminCodes1":{"ISO3166_2":"WI"},"countryName":"United States","fcodeName":"third-order administrative division","adminName1":"Wisconsin","lat":"42.62647","fcode":"ADM3"},{"adminCode1":"WI","lng":"-88.48232","geonameId":5249259,"toponymName":"Como","countryId":"6252001","fcl":"P","population":2631,"countryCode":"US","name":"Como","fclName":"city, village,...","adminCodes1":{"ISO3166_2":"WI"},"countryName":"United States","fcodeName":"populated place","adminName1":"Wisconsin","lat":"42.61224","fcode":"PPL"},{"adminCode1":"WI","lng":"-88.42853","geonameId":5259179,"toponymName":"City of Lake Geneva","countryId":"6252001","fcl":"A","population":7651,"countryCode":"US","name":"City of Lake Geneva","fclName":"country, state, region,...","adminCodes1":{"ISO3166_2":"WI"},"countryName":"United States","fcodeName":"third-order administrative division","adminName1":"Wisconsin","lat":"42.5832","fcode":"ADM3"},{"adminCode1":"MN","lng":"-93.26833","geonameId":5027790,"toponymName":"City of Geneva","countryId":"6252001","fcl":"A","population":0,"countryCode":"US","name":"City of Geneva","fclName":"country, state, region,...","adminCodes1":{"ISO3166_2":"MN"},"countryName":"United States","fcodeName":"third-order administrative division","adminName1":"Minnesota","lat":"43.82389","fcode":"ADM3"},{"adminCode1":"GA","lng":"-84.55161","geonameId":7171794,"toponymName":"Town of Geneva","countryId":"6252001","fcl":"A","population":105,"countryCode":"US","name":"Town of Geneva","fclName":"country, state, region,...","adminCodes1":{"ISO3166_2":"GA"},"countryName":"United States","fcodeName":"administrative division","adminName1":"Georgia","lat":"32.57895","fcode":"ADMD"},{"adminCode1":"AL","lng":"-85.84188","geonameId":4088939,"toponymName":"Scranton","countryId":"6252001","fcl":"P","population":0,"countryCode":"US","name":"Scranton","fclName":"city, village,...","adminCodes1":{"ISO3166_2":"AL"},"countryName":"United States","fcodeName":"populated place","adminName1":"Alabama","lat":"31.19295","fcode":"PPL"},{"adminCode1":"AL","lng":"-86.00411","geonameId":4089112,"toponymName":"Sellersville","countryId":"6252001","fcl":"P","population":0,"countryCode":"US","name":"Sellersville","fclName":"city, village,...","adminCodes1":{"ISO3166_2":"AL"},"countryName":"United States","fcodeName":"populated place","adminName1":"Alabama","lat":"31.1299","fcode":"PPL"},{"adminCode1":"AL","lng":"-85.89271","geonameId":4090852,"toponymName":"Somerset","countryId":"6252001","fcl":"P","population":0,"countryCode":"US","name":"Somerset","fclName":"city, village,...","adminCodes1":{"ISO3166_2":"AL"},"countryName":"United States","fcodeName":"populated place","adminName1":"Alabama","lat":"31.02129","fcode":"PPL"}]}
