{"totalResultsCount":8,"geonames":[{"adminCode1":"MT","lng":"-113.80031","geonameId":5654292,"toponymName":"Glacier National Park","countryId":"6252001","fcl":"L","population":0,"countryCode":"US","name":"Glacier National Park","fclName":"parks,area, ...","adminCodes1":{"ISO3166_2":"MT"},"countryName":"United States","fcodeName":"park","adminName1":"Montana","lat":"48.68306","fcode":"PRK"},{"adminCode1":"AK","lng":"-137.00056","geonameId":5846642,"toponymName":"Glacier Bay National Park and Preserve","countryId":"6252001","fcl":"L","population":0,"countryCode":"US","name":"Glacier Bay National Park and Preserve","fclName":"parks,area, ...","adminCodes1":{"ISO3166_2":"AK"},"countryName":"United States","fcodeName":"park","adminName1":"Alaska","lat":"58.50056","fcode":"PRK"},{"adminCode1":"MT","lng":"-113.80512","geonameId":5685092,"toponymName":"Waterton-Glacier International Peace Park","countryId":"6252001","fcl":"L","population":0,"countryCode":"US","name":"Waterton-Glacier International Peace Park","fclName":"parks,area, ...","adminCodes1":{"ISO3166_2":"MT"},"countryName":"United States","fcodeName":"park","adminName1":"Montana","lat":"48.68747","fcode":"PRK"},{"adminCode1":"AK","lng":"-138.35102","geonameId":9675447,"toponymName":"Glacier Bay National Preserve","countryId":"6252001","fcl":"L","population":0,"countryCode":"US","name":"Glacier Bay National Preserve","fclName":"parks,area, ...","adminCodes1":{"ISO3166_2":"AK"},"countryName":"United States","fcodeName":"park","adminName1":"Alaska","lat":"59.13123","fcode":"PRK"},{"adminCode1":"AK","lng":"-135.87615","geonameId":8090659,"toponymName":"Glacier Bay National Park Fire Department","countryId":"6252001","fcl":"S","population":0,"countryCode":"US","name":"Glacier Bay National Park Fire Department","fclName":"spot, building, farm","adminCodes1":{"ISO3166_2":"AK"},"countryName":"United States","fcodeName":"building(s)","adminName1":"Alaska","lat":"58.45468","fcode":"BLDG"},{"adminCode1":"MT","lng":"-113.9854","geonameId":5654293,"toponymName":"Glacier National Park Headquarters","countryId":"6252001","fcl":"S","population":0,"countryCode":"US","name":"Glacier National Park Headquarters","fclName":"spot, building, farm","adminCodes1":{"ISO3166_2":"MT"},"countryName":"United States","fcodeName":"","adminName1":"Montana","lat":"48.50274"},{"adminCode1":"MT","lng":"-113.98649","geonameId":7243082,"toponymName":"Glacier National Park Fire Brigade","countryId":"6252001","fcl":"S","population":0,"countryCode":"US","name":"Glacier National Park Fire Brigade","fclName":"spot, building, farm","adminCodes1":{"ISO3166_2":"MT"},"countryName":"United States","fcodeName":"building(s)","adminName1":"Montana","lat":"48.50235","fcode":"BLDG"},{"adminCode1":"MT","lng":"-113.98645","geonameId":7244267,"toponymName":"Glacier National Park Law Enforcement","countryId":"6252001","fcl":"S","population":0,"countryCode":"US","name":"Glacier National Park Law Enforcement","fclName":"spot, building, farm","adminCodes1":{"ISO3166_2":"MT"},"countryName":"United States","fcodeName":"building(s)","adminName1":"Montana","lat":"48.5024","fcode":"BLDG"}]}
