{"totalResultsCount":256,"geonames":[{"adminCode1":"OR","lng":"-123.0506","geonameId":5728665,"toponymName":"Gold Hill","countryId":"6252001","fcl":"P","population":1266,"countryCode":"US","name":"Gold Hill","fclName":"city, village,...","adminCodes1":{"ISO3166_2":"OR"},"countryName":"United States","fcodeName":"populated place","adminName1":"Oregon","lat":"42.43179","fcode":"PPL"},{"adminCode1":"IL","lng":"-88.21365","geonameId":4239526,"toponymName":"Gold Hill","countryId":"6252001","fcl":"T","population":0,"countryCode":"US","name":"Gold Hill","fclName":"mountain,hill,rock,... ","adminCodes1":{"ISO3166_2":"IL"},"countryName":"United States","fcodeName":"mountain","adminName1":"Illinois","lat":"37.6931","fcode":"MT"},{"adminCode1":"AL","lng":"-85.50773","geonameId":4064441,"toponymName":"Gold Hill","countryId":"6252001","fcl":"P","population":0,"countryCode":"US","name":"Gold Hill","fclName":"city, village,...","adminCodes1":{"ISO3166_2":"AL"},"countryName":"United States","fcodeName":"populated place","adminName1":"Alabama","lat":"32.7218","fcode":"PPL"},{"adminCode1":"OR","lng":"-123.04255","geonameId":5728671,"toponymName":"Gold Hill Regional Park","countryId":"6252001","fcl":"L","population":0,"countryCode":"US","name":"Gold Hill Regional Park","fclName":"parks,area, ...","adminCodes1":{"ISO3166_2":"OR"},"countryName":"United States","fcodeName":"park","adminName1":"Oregon","lat":"42.43651","fcode":"PRK"},{"adminCode1":"IL","lng":"-88.1867","geonameId":4249830,"toponymName":"Shawneetown","countryId":"6252001","fcl":"P","population":1164,"countryCode":"US","name":"Shawneetown","fclName":"city, village,...","adminCodes1":{"ISO3166_2":"IL"},"countryName":"United States","fcodeName":"seat of a second-order administrative division","adminName1":"Illinois","lat":"37.7131","fcode":"PPLA2"},{"adminCode1":"NV","lng":"-119.6574","geonameId":5504713,"toponymName":"Gold Hill","countryId":"6252001","fcl":"P","population":0,"countryCode":"US","name":"Gold Hill","fclName":"city, village,...","adminCodes1":{"ISO3166_2":"NV"},"countryName":"United States","fcodeName":"populated place","adminName1":"Nevada","lat":"39.29047","fcode":"PPL"},{"adminCode1":"IL","lng":"-88.2367","geonameId":4242042,"toponymName":"Junction","countryId":"6252001","fcl":"P","population":122,"countryCode":"US","name":"Junction","fclName":"city, village,...","adminCodes1":{"ISO3166_2":"IL"},"countryName":"United States","fcodeName":"populated place","adminName1":"Illinois","lat":"37.72338","fcode":"PPL"},{"adminCode1":"CA","lng":"-120.85577","geonameId":5352778,"toponymName":"Gold Run","countryId":"6252001","fcl":"P","population":0,"countryCode":"US","name":"Gold Run","fclName":"city, village,...","adminCodes1":{"ISO3166_2":"CA"},"countryName":"United States","fcodeName":"populated place","adminName1":"California","lat":"39.18073","fcode":"PPL"},{"adminCode1":"UT","lng":"-113.80583","geonameId":5775202,"toponymName":"Gold Hill","countryId":"6252001","fcl":"T","population":0,"countryCode":"US","name":"Gold Hill","fclName":"mountain,hill,rock,... ","adminCodes1":{"ISO3166_2":"UT"},"countryName":"United States","fcodeName":"mountain","adminName1":"Utah","lat":"40.15966","fcode":"MT"},{"adminCode1":"CO","lng":"-105.40961","geonameId":5577434,"toponymName":"Gold Hill","countryId":"6252001","fcl":"P","population":230,"countryCode":"US","name":"Gold Hill","fclName":"city, village,...","adminCodes1":{"ISO3166_2":"CO"},"countryName":"United States","fcodeName":"populated place","adminName1":"Colorado","lat":"40.06334","fcode":"PPL"},{"adminCode1":"VA","lng":"-78.37028","geonameId":4761240,"toponymName":"Gold Hill","countryId":"6252001","fcl":"P","population":0,"countryCode":"US","name":"Gold Hill","fclName":"city, village,...","adminCodes1":{"ISO3166_2":"VA"},"countryName":"United States","fcodeName":"populated place","adminName1":"Virginia","lat":"37.62348","fcode":"PPL"},{"adminCode1":"NC","lng":"-80.33811","geonameId":4468215,"toponymName":"Gold Hill","countryId":"6252001","fcl":"P","population":0,"countryCode":"US","name":"Gold Hill","fclName":"city, village,...","adminCodes1":{"ISO3166_2":"NC"},"countryName":"United States","fcodeName":"populated place","adminName1":"North Carolina","lat":"35.52125","fcode":"PPL"},{"adminCode1":"WA","lng":"-121.53596","geonameId":5795716,"toponymName":"Gold Mountain","countryId":"6252001","fcl":"T","population":0,"countryCode":"US","name":"Gold Mountain","fclName":"mountain,hill,rock,... ","adminCodes1":{"ISO3166_2":"WA"},"countryName":"United States","fcodeName":"mountain","adminName1":"Washington","lat":"48.24205","fcode":"MT"},{"adminCode1":"NC","lng":"-80.40645","geonameId":4488600,"toponymName":"Rockwell","countryId":"6252001","fcl":"P","population":2144,"countryCode":"US","name":"Rockwell","fclName":"city, village,...","adminCodes1":{"ISO3166_2":"NC"},"countryName":"United States","fcodeName":"populated place","adminName1":"North Carolina","lat":"35.55125","fcode":"PPL"},{"adminCode1":"NC","lng":"-80.44673","geonameId":4468595,"toponymName":"Granite Quarry","countryId":"6252001","fcl":"P","population":2995,"countryCode":"US","name":"Granite Quarry","fclName":"city, village,...","adminCodes1":{"ISO3166_2":"NC"},"countryName":"United States","fcodeName":"populated place","adminName1":"North Carolina","lat":"35.61236","fcode":"PPL"},{"adminCode1":"IL","lng":"-88.21004","geonameId":4239528,"toponymName":"Township of Gold Hill","countryId":"6252001","fcl":"A","population":0,"countryCode":"US","name":"Gold Hill Township","fclName":"country, state, region,...","adminCodes1":{"ISO3166_2":"IL"},"countryName":"United States","fcodeName":"third-order administrative division","adminName1":"Illinois","lat":"37.73272","fcode":"ADM3"},{"adminCode1":"NC","lng":"-80.31117","geonameId":4468255,"toponymName":"Gold Hill Airport","countryId":"6252001","fcl":"S","population":0,"countryCode":"US","name":"Gold Hill Airport","fclName":"spot, building, farm","adminCodes1":{"ISO3166_2":"NC"},"countryName":"United States","fcodeName":"airport","adminName1":"North Carolina","lat":"35.50903","fcode":"AIRP"},{"adminCode1":"UT","lng":"-110.91379","geonameId":5775201,"toponymName":"Gold Hill","countryId":"6252001","fcl":"T","population":0,"countryCode":"US","name":"Gold Hill","fclName":"mountain,hill,rock,... ","adminCodes1":{"ISO3166_2":"UT"},"countryName":"United States","fcodeName":"mountain","adminName1":"Utah","lat":"40.81161","fcode":"MT"},{"adminCode1":"UT","lng":"-110.90934","geonameId":5775204,"toponymName":"Gold Hill Pass","countryId":"6252001","fcl":"T","population":0,"countryCode":"US","name":"Gold Hill Pass","fclName":"mountain,hill,rock,... ","adminCodes1":{"ISO3166_2":"UT"},"countryName":"United States","fcodeName":"gap","adminName1":"Utah","lat":"40.82467","fcode":"GAP"},{"adminCode1":"WY","lng":"-106.37808","geonameId":5826134,"toponymName":"Gold Hill","countryId":"6252001","fcl":"T","population":0,"countryCode":"US","name":"Gold Hill","fclName":"mountain,hill,rock,... ","adminCodes1":{"ISO3166_2":"WY"},"countryName":"United States","fcodeName":"mountain","adminName1":"Wyoming","lat":"41.35247","fcode":"MT"},{"adminCode1":"OR","lng":"-123.05256","geonameId":7173506,"toponymName":"City of Gold Hill","countryId":"6252001","fcl":"A","population":1220,"countryCode":"US","name":"City of Gold Hill","fclName":"country, state, region,...","adminCodes1":{"ISO3166_2":"OR"},"countryName":"United States","fcodeName":"administrative division","adminName1":"Oregon","lat":"42.43577","fcode":"ADMD"},{"adminCode1":"CO","lng":"-106.47614","geonameId":5423236,"toponymName":"Gold Hill","countryId":"6252001","fcl":"T","population":0,"countryCode":"US","name":"Gold Hill","fclName":"mountain,hill,rock,... ","adminCodes1":{"ISO3166_2":"CO"},"countryName":"United States","fcodeName":"mountain","adminName1":"Colorado","lat":"38.71166","fcode":"MT"},{"adminCode1":"CO","lng":"-106.73976","geonameId":5423237,"toponymName":"Gold Hill","countryId":"6252001","fcl":"T","population":0,"countryCode":"US","name":"Gold Hill","fclName":"mountain,hill,rock,... ","adminCodes1":{"ISO3166_2":"CO"},"countryName":"United States","fcodeName":"mountain","adminName1":"Colorado","lat":"39.04582","fcode":"MT"},{"adminCode1":"CO","lng":"-107.8234","geonameId":5423238,"toponymName":"Gold Hill","countryId":"6252001","fcl":"T","population":0,"countryCode":"US","name":"Gold Hill","fclName":"mountain,hill,rock,... ","adminCodes1":{"ISO3166_2":"CO"},"countryName":"United States","fcodeName":"mountain","adminName1":"Colorado","lat":"37.89416","fcode":"MT"},{"adminCode1":"CO","lng":"-106.16058","geonameId":5423240,"toponymName":"Gold Hill","countryId":"6252001","fcl":"T","population":0,"countryCode":"US","name":"Gold Hill","fclName":"mountain,hill,rock,... ","adminCodes1":{"ISO3166_2":"CO"},"countryName":"United States","fcodeName":"mountain","adminName1":"Colorado","lat":"39.4161","fcode":"MT"},{"adminCode1":"NC","lng":"-80.41047","geonameId":4468221,"toponymName":"Township of Gold Hill","countryId":"6252001","fcl":"A","population":0,"countryCode":"US","name":"Gold Hill Township","fclName":"country, state, region,...","adminCodes1":{"ISO3166_2":"NC"},"countryName":"United States","fcodeName":"third-order administrative division","adminName1":"North Carolina","lat":"35.54085","fcode":"ADM3"},{"adminCode1":"VA","lng":"-78.3675","geonameId":4761244,"toponymName":"District 7, Gold Hill (historical)","countryId":"6252001","fcl":"A","population":0,"countryCode":"US","name":"District 7, Gold Hill (historical)","fclName":"country, state, region,...","adminCodes1":{"ISO3166_2":"VA"},"countryName":"United States","fcodeName":"administrative division","adminName1":"Virginia","lat":"37.60765","fcode":"ADMD"},{"adminCode1":"NM","lng":"-105.45584","geonameId":5469444,"toponymName":"Gold Hill","countryId":"6252001","fcl":"T","population":0,"countryCode":"US","name":"Gold Hill","fclName":"mountain,hill,rock,... ","adminCodes1":{"ISO3166_2":"NM"},"countryName":"United States","fcodeName":"mountain","adminName1":"New Mexico","lat":"36.64308","fcode":"MT"},{"adminCode1":"NC","lng":"-80.36342","geonameId":4495480,"toponymName":"Township 7-Gold Hill","countryId":"6252001","fcl":"A","population":0,"countryCode":"US","name":"Township 7-Gold Hill","fclName":"country, state, region,...","adminCodes1":{"ISO3166_2":"NC"},"countryName":"United States","fcodeName":"administrative division","adminName1":"North Carolina","lat":"35.46542","fcode":"ADMD"},{"adminCode1":"GA","lng":"-84.81604","geonameId":4206584,"toponymName":"Lone Oak","countryId":"6252001","fcl":"P","population":89,"countryCode":"US","name":"Lone Oak","fclName":"city, village,...","adminCodes1":{"ISO3166_2":"GA"},"countryName":"United States","fcodeName":"populated place","adminName1":"Georgia","lat":"33.17179","fcode":"PPL"},{"adminCode1":"AK","lng":"-134.32611","geonameId":5556743,"toponymName":"Roberts Peak","countryId":"6252001","fcl":"T","population":0,"countryCode":"US","name":"Roberts Peak","fclName":"mountain,hill,rock,... ","adminCodes1":{"ISO3166_2":"AK"},"countryName":"United States","fcodeName":"mountain","adminName1":"Alaska","lat":"58.28611","fcode":"MT"},{"adminCode1":"NC","lng":"-80.42006","geonameId":4462469,"toponymName":"Crescent","countryId":"6252001","fcl":"P","population":0,"countryCode":"US","name":"Crescent","fclName":"city, village,...","adminCodes1":{"ISO3166_2":"NC"},"countryName":"United States","fcodeName":"populated place","adminName1":"North Carolina","lat":"35.57542","fcode":"PPL"},{"adminCode1":"CA","lng":"-116.97311","geonameId":5352711,"toponymName":"Gold Hill","countryId":"6252001","fcl":"T","population":0,"countryCode":"US","name":"Gold Hill","fclName":"mountain,hill,rock,... ","adminCodes1":{"ISO3166_2":"CA"},"countryName":"United States","fcodeName":"mountain","adminName1":"California","lat":"36.01245","fcode":"MT"},{"adminCode1":"MT","lng":"-112.53196","geonameId":5654590,"toponymName":"Gold Hill","countryId":"6252001","fcl":"T","population":0,"countryCode":"US","name":"Gold Hill","fclName":"mountain,hill,rock,... ","adminCodes1":{"ISO3166_2":"MT"},"countryName":"United States","fcodeName":"mountain","adminName1":"Montana","lat":"45.76215","fcode":"MT"},{"adminCode1":"UT","lng":"-111.50132","geonameId":5775207,"toponymName":"Gold Hill","countryId":"6252001","fcl":"T","population":0,"countryCode":"US","name":"Gold Hill","fclName":"mountain,hill,rock,... ","adminCodes1":{"ISO3166_2":"UT"},"countryName":"United States","fcodeName":"mountain","adminName1":"Utah","lat":"41.58633","fcode":"MT"},{"adminCode1":"NV","lng":"-117.07703","geonameId":5504712,"toponymName":"Gold Hill","countryId":"6252001","fcl":"T","population":0,"countryCode":"US","name":"Gold Hill","fclName":"mountain,hill,rock,... ","adminCodes1":{"ISO3166_2":"NV"},"countryName":"United States","fcodeName":"ridge(s)","adminName1":"Nevada","lat":"38.53549","fcode":"RDGE"},{"adminCode1":"CA","lng":"-120.88466","geonameId":5352742,"toponymName":"Gold Hill","countryId":"6252001","fcl":"P","population":0,"countryCode":"US","name":"Gold Hill","fclName":"city, village,...","adminCodes1":{"ISO3166_2":"CA"},"countryName":"United States","fcodeName":"populated place","adminName1":"California","lat":"38.76101","fcode":"PPL"},{"adminCode1":"NV","lng":"-117.49759","geonameId":5504718,"toponymName":"Gold Hill Mine","countryId":"6252001","fcl":"S","population":0,"countryCode":"US","name":"Gold Hill Mine","fclName":"spot, building, farm","adminCodes1":{"ISO3166_2":"NV"},"countryName":"United States","fcodeName":"mine(s)","adminName1":"Nevada","lat":"37.56021","fcode":"MN"},{"adminCode1":"WV","lng":"-79.19782","geonameId":4811288,"toponymName":"Landes","countryId":"6252001","fcl":"P","population":0,"countryCode":"US","name":"Landes","fclName":"city, village,...","adminCodes1":{"ISO3166_2":"WV"},"countryName":"United States","fcodeName":"populated place","adminName1":"West Virginia","lat":"38.89678","fcode":"PPL"},{"adminCode1":"ID","lng":"-114.28703","geonameId":5594229,"toponymName":"Gold Hill Mine","countryId":"6252001","fcl":"S","population":0,"countryCode":"US","name":"Gold Hill Mine","fclName":"spot, building, farm","adminCodes1":{"ISO3166_2":"ID"},"countryName":"United States","fcodeName":"mine(s)","adminName1":"Idaho","lat":"45.36992","fcode":"MN"},{"adminCode1":"CA","lng":"-120.86438","geonameId":5338446,"toponymName":"Cold Spring Hill","countryId":"6252001","fcl":"T","population":0,"countryCode":"US","name":"Cold Spring Hill","fclName":"mountain,hill,rock,... ","adminCodes1":{"ISO3166_2":"CA"},"countryName":"United States","fcodeName":"mountain","adminName1":"California","lat":"39.16712","fcode":"MT"},{"adminCode1":"MT","lng":"-110.53245","geonameId":5654694,"toponymName":"Goldstone","countryId":"6252001","fcl":"P","population":0,"countryCode":"US","name":"Goldstone","fclName":"city, village,...","adminCodes1":{"ISO3166_2":"MT"},"countryName":"United States","fcodeName":"populated place","adminName1":"Montana","lat":"48.89973","fcode":"PPL"},{"adminCode1":"NV","lng":"-119.63907","geonameId":5502108,"toponymName":"Comstock Lode Mining District","countryId":"6252001","fcl":"A","population":0,"countryCode":"US","name":"Comstock Lode Mining District","fclName":"country, state, region,...","adminCodes1":{"ISO3166_2":"NV"},"countryName":"United States","fcodeName":"administrative division","adminName1":"Nevada","lat":"39.29936","fcode":"ADMD"},{"adminCode1":"NV","lng":"-116.81562","geonameId":5503097,"toponymName":"Donovan Mountain","countryId":"6252001","fcl":"T","population":0,"countryCode":"US","name":"Donovan Mountain","fclName":"mountain,hill,rock,... ","adminCodes1":{"ISO3166_2":"NV"},"countryName":"United States","fcodeName":"mountain","adminName1":"Nevada","lat":"37.003","fcode":"MT"},{"adminCode1":"NM","lng":"-108.81478","geonameId":5469441,"toponymName":"Gold Hill","countryId":"6252001","fcl":"T","population":0,"countryCode":"US","name":"Gold Hill","fclName":"mountain,hill,rock,... ","adminCodes1":{"ISO3166_2":"NM"},"countryName":"United States","fcodeName":"mountain","adminName1":"New Mexico","lat":"33.28895","fcode":"MT"},{"adminCode1":"OR","lng":"-117.39547","geonameId":5728664,"toponymName":"Gold Hill","countryId":"6252001","fcl":"T","population":0,"countryCode":"US","name":"Gold Hill","fclName":"mountain,hill,rock,... ","adminCodes1":{"ISO3166_2":"OR"},"countryName":"United States","fcodeName":"mountain","adminName1":"Oregon","lat":"44.54377","fcode":"MT"},{"adminCode1":"OR","lng":"-123.02097","geonameId":5728666,"toponymName":"Gold Hill","countryId":"6252001","fcl":"T","population":0,"countryCode":"US","name":"Gold Hill","fclName":"mountain,hill,rock,... ","adminCodes1":{"ISO3166_2":"OR"},"countryName":"United States","fcodeName":"mountain","adminName1":"Oregon","lat":"42.44236","fcode":"MT"},{"adminCode1":"OR","lng":"-122.36674","geonameId":5728667,"toponymName":"Gold Hill","countryId":"6252001","fcl":"T","population":0,"countryCode":"US","name":"Gold Hill","fclName":"mountain,hill,rock,... ","adminCodes1":{"ISO3166_2":"OR"},"countryName":"United States","fcodeName":"mountain","adminName1":"Oregon","lat":"44.21207","fcode":"MT"},{"adminCode1":"OR","lng":"-119.03689","geonameId":5728675,"toponymName":"Gold Hill","countryId":"6252001","fcl":"T","population":0,"countryCode":"US","name":"Gold Hill","fclName":"mountain,hill,rock,... ","adminCodes1":{"ISO3166_2":"OR"},"countryName":"United States","fcodeName":"mountain","adminName1":"Oregon","lat":"43.97404","fcode":"MT"},{"adminCode1":"MT","lng":"-115.51601","geonameId":5654588,"toponymName":"Gold Hill","countryId":"6252001","fcl":"T","population":0,"countryCode":"US","name":"Gold Hill","fclName":"mountain,hill,rock,... ","adminCodes1":{"ISO3166_2":"MT"},"countryName":"United States","fcodeName":"mountain","adminName1":"Montana","lat":"48.5844","fcode":"MT"},{"adminCode1":"MT","lng":"-112.10194","geonameId":5654589,"toponymName":"Gold Hill","countryId":"6252001","fcl":"T","population":0,"countryCode":"US","name":"Gold Hill","fclName":"mountain,hill,rock,... ","adminCodes1":{"ISO3166_2":"MT"},"countryName":"United States","fcodeName":"mountain","adminName1":"Montana","lat":"45.78159","fcode":"MT"},{"adminCode1":"MT","lng":"-109.94102","geonameId":5654591,"toponymName":"Gold Hill","countryId":"6252001","fcl":"T","population":0,"countryCode":"US","name":"Gold Hill","fclName":"mountain,hill,rock,... ","adminCodes1":{"ISO3166_2":"MT"},"countryName":"United States","fcodeName":"mountain","adminName1":"Montana","lat":"45.6016","fcode":"MT"},{"adminCode1":"MT","lng":"-112.11638","geonameId":5654593,"toponymName":"Gold Hill Gulch","countryId":"6252001","fcl":"T","population":0,"countryCode":"US","name":"Gold Hill Gulch","fclName":"mountain,hill,rock,... ","adminCodes1":{"ISO3166_2":"MT"},"countryName":"United States","fcodeName":"valley","adminName1":"Montana","lat":"45.79465","fcode":"VAL"},{"adminCode1":"MT","lng":"-109.21517","geonameId":5654594,"toponymName":"Gold Hill","countryId":"6252001","fcl":"T","population":0,"countryCode":"US","name":"Gold Hill","fclName":"mountain,hill,rock,... ","adminCodes1":{"ISO3166_2":"MT"},"countryName":"United States","fcodeName":"mountain","adminName1":"Montana","lat":"47.17831","fcode":"MT"},{"adminCode1":"UT","lng":"-113.83055","geonameId":5775203,"toponymName":"Gold Hill","countryId":"6252001","fcl":"P","population":0,"countryCode":"US","name":"Gold Hill","fclName":"city, village,...","adminCodes1":{"ISO3166_2":"UT"},"countryName":"United States","fcodeName":"populated place","adminName1":"Utah","lat":"40.16633","fcode":"PPL"},{"adminCode1":"UT","lng":"-113.87833","geonameId":5775205,"toponymName":"Gold Hill Pass","countryId":"6252001","fcl":"T","population":0,"countryCode":"US","name":"Gold Hill Pass","fclName":"mountain,hill,rock,... ","adminCodes1":{"ISO3166_2":"UT"},"countryName":"United States","fcodeName":"gap","adminName1":"Utah","lat":"40.1866","fcode":"GAP"},{"adminCode1":"UT","lng":"-113.70972","geonameId":5775206,"toponymName":"Gold Hill Wash","countryId":"6252001","fcl":"T","population":0,"countryCode":"US","name":"Gold Hill Wash","fclName":"mountain,hill,rock,... ","adminCodes1":{"ISO3166_2":"UT"},"countryName":"United States","fcodeName":"valley","adminName1":"Utah","lat":"40.23827","fcode":"VAL"},{"adminCode1":"UT","lng":"-111.93494","geonameId":5775208,"toponymName":"Gold Mine Hill","countryId":"6252001","fcl":"T","population":0,"countryCode":"US","name":"Gold Mine Hill","fclName":"mountain,hill,rock,... ","adminCodes1":{"ISO3166_2":"UT"},"countryName":"United States","fcodeName":"mountain","adminName1":"Utah","lat":"41.52827","fcode":"MT"},{"adminCode1":"WY","lng":"-105.3586","geonameId":5826136,"toponymName":"Gold Hill","countryId":"6252001","fcl":"T","population":0,"countryCode":"US","name":"Gold Hill","fclName":"mountain,hill,rock,... ","adminCodes1":{"ISO3166_2":"WY"},"countryName":"United States","fcodeName":"mountain","adminName1":"Wyoming","lat":"41.8633","fcode":"MT"},{"adminCode1":"AK","lng":"-147.27528","geonameId":5863001,"toponymName":"Gold Hill","countryId":"6252001","fcl":"T","population":0,"countryCode":"US","name":"Gold Hill","fclName":"mountain,hill,rock,... ","adminCodes1":{"ISO3166_2":"AK"},"countryName":"United States","fcodeName":"mountain","adminName1":"Alaska","lat":"63.18972","fcode":"MT"},{"adminCode1":"AK","lng":"-166.26667","geonameId":5863002,"toponymName":"Gold Hill","countryId":"6252001","fcl":"T","population":0,"countryCode":"US","name":"Gold Hill","fclName":"mountain,hill,rock,... ","adminCodes1":{"ISO3166_2":"AK"},"countryName":"United States","fcodeName":"mountain","adminName1":"Alaska","lat":"65.05","fcode":"MT"},{"adminCode1":"AK","lng":"-141.89944","geonameId":5863003,"toponymName":"Gold Hill","countryId":"6252001","fcl":"T","population":0,"countryCode":"US","name":"Gold Hill","fclName":"mountain,hill,rock,... ","adminCodes1":{"ISO3166_2":"AK"},"countryName":"United States","fcodeName":"mountain","adminName1":"Alaska","lat":"62.10278","fcode":"MT"},{"adminCode1":"AK","lng":"-143.02583","geonameId":5863004,"toponymName":"Gold Hill","countryId":"6252001","fcl":"T","population":0,"countryCode":"US","name":"Gold Hill","fclName":"mountain,hill,rock,... ","adminCodes1":{"ISO3166_2":"AK"},"countryName":"United States","fcodeName":"mountain","adminName1":"Alaska","lat":"62.31944","fcode":"MT"},{"adminCode1":"AK","lng":"-152.73833","geonameId":5863005,"toponymName":"Gold Hill","countryId":"6252001","fcl":"T","population":0,"countryCode":"US","name":"Gold Hill","fclName":"mountain,hill,rock,... ","adminCodes1":{"ISO3166_2":"AK"},"countryName":"United States","fcodeName":"mountain","adminName1":"Alaska","lat":"65.25444","fcode":"MT"},{"adminCode1":"AK","lng":"-152.66667","geonameId":5863006,"toponymName":"Gold Hill","countryId":"6252001","fcl":"T","population":0,"countryCode":"US","name":"Gold Hill","fclName":"mountain,hill,rock,... ","adminCodes1":{"ISO3166_2":"AK"},"countryName":"United States","fcodeName":"mountain","adminName1":"Alaska","lat":"65.25","fcode":"MT"},{"adminCode1":"AK","lng":"-151.61139","geonameId":5863008,"toponymName":"Gold Hill","countryId":"6252001","fcl":"T","population":0,"countryCode":"US","name":"Gold Hill","fclName":"mountain,hill,rock,... ","adminCodes1":{"ISO3166_2":"AK"},"countryName":"United States","fcodeName":"mountain","adminName1":"Alaska","lat":"62.12556","fcode":"MT"},{"adminCode1":"AK","lng":"-165.28333","geonameId":5863011,"toponymName":"Gold Hill Gulch","countryId":"6252001","fcl":"T","population":0,"countryCode":"US","name":"Gold Hill Gulch","fclName":"mountain,hill,rock,... ","adminCodes1":{"ISO3166_2":"AK"},"countryName":"United States","fcodeName":"valley","adminName1":"Alaska","lat":"64.48333","fcode":"VAL"},{"adminCode1":"MO","lng":"-90.64512","geonameId":4388135,"toponymName":"Gold Hill","countryId":"6252001","fcl":"T","population":0,"countryCode":"US","name":"Gold Hill","fclName":"mountain,hill,rock,... ","adminCodes1":{"ISO3166_2":"MO"},"countryName":"United States","fcodeName":"mountain","adminName1":"Missouri","lat":"37.21477","fcode":"MT"},{"adminCode1":"AL","lng":"-85.52773","geonameId":4064440,"toponymName":"Gold Hill","countryId":"6252001","fcl":"P","population":0,"countryCode":"US","name":"Gold Hill","fclName":"city, village,...","adminCodes1":{"ISO3166_2":"AL"},"countryName":"United States","fcodeName":"populated place","adminName1":"Alabama","lat":"33.5865","fcode":"PPL"},{"adminCode1":"AR","lng":"-92.96184","geonameId":4112515,"toponymName":"Gold Hill","countryId":"6252001","fcl":"P","population":0,"countryCode":"US","name":"Gold Hill","fclName":"city, village,...","adminCodes1":{"ISO3166_2":"AR"},"countryName":"United States","fcodeName":"populated place","adminName1":"Arkansas","lat":"35.19592","fcode":"PPL"},{"adminCode1":"ID","lng":"-116.77933","geonameId":5592103,"toponymName":"East Gold Hill","countryId":"6252001","fcl":"T","population":0,"countryCode":"US","name":"East Gold Hill","fclName":"mountain,hill,rock,... ","adminCodes1":{"ISO3166_2":"ID"},"countryName":"United States","fcodeName":"mountain","adminName1":"Idaho","lat":"46.97684","fcode":"MT"},{"adminCode1":"ID","lng":"-115.86014","geonameId":5594219,"toponymName":"Gold Hill","countryId":"6252001","fcl":"T","population":0,"countryCode":"US","name":"Gold Hill","fclName":"mountain,hill,rock,... ","adminCodes1":{"ISO3166_2":"ID"},"countryName":"United States","fcodeName":"mountain","adminName1":"Idaho","lat":"46.48685","fcode":"MT"},{"adminCode1":"ID","lng":"-115.21513","geonameId":5594220,"toponymName":"Gold Hill","countryId":"6252001","fcl":"T","population":0,"countryCode":"US","name":"Gold Hill","fclName":"mountain,hill,rock,... ","adminCodes1":{"ISO3166_2":"ID"},"countryName":"United States","fcodeName":"mountain","adminName1":"Idaho","lat":"46.34603","fcode":"MT"},{"adminCode1":"ID","lng":"-116.79322","geonameId":5594221,"toponymName":"Gold Hill","countryId":"6252001","fcl":"T","population":0,"countryCode":"US","name":"Gold Hill","fclName":"mountain,hill,rock,... ","adminCodes1":{"ISO3166_2":"ID"},"countryName":"United States","fcodeName":"mountain","adminName1":"Idaho","lat":"46.96795","fcode":"MT"},{"adminCode1":"ID","lng":"-116.49404","geonameId":5594222,"toponymName":"Gold Hill","countryId":"6252001","fcl":"T","population":0,"countryCode":"US","name":"Gold Hill","fclName":"mountain,hill,rock,... ","adminCodes1":{"ISO3166_2":"ID"},"countryName":"United States","fcodeName":"mountain","adminName1":"Idaho","lat":"46.65684","fcode":"MT"},{"adminCode1":"ID","lng":"-116.92959","geonameId":5594223,"toponymName":"Gold Hill","countryId":"6252001","fcl":"T","population":0,"countryCode":"US","name":"Gold Hill","fclName":"mountain,hill,rock,... ","adminCodes1":{"ISO3166_2":"ID"},"countryName":"United States","fcodeName":"mountain","adminName1":"Idaho","lat":"46.08293","fcode":"MT"},{"adminCode1":"ID","lng":"-115.82516","geonameId":5594224,"toponymName":"Gold Hill","countryId":"6252001","fcl":"T","population":0,"countryCode":"US","name":"Gold Hill","fclName":"mountain,hill,rock,... ","adminCodes1":{"ISO3166_2":"ID"},"countryName":"United States","fcodeName":"mountain","adminName1":"Idaho","lat":"47.43076","fcode":"MT"},{"adminCode1":"ID","lng":"-116.49658","geonameId":5594231,"toponymName":"Gold Hill","countryId":"6252001","fcl":"T","population":0,"countryCode":"US","name":"Gold Hill","fclName":"mountain,hill,rock,... ","adminCodes1":{"ISO3166_2":"ID"},"countryName":"United States","fcodeName":"mountain","adminName1":"Idaho","lat":"48.23992","fcode":"MT"},{"adminCode1":"NV","lng":"-119.54545","geonameId":5504709,"toponymName":"Gold Hill","countryId":"6252001","fcl":"T","population":0,"countryCode":"US","name":"Gold Hill","fclName":"mountain,hill,rock,... ","adminCodes1":{"ISO3166_2":"NV"},"countryName":"United States","fcodeName":"mountain","adminName1":"Nevada","lat":"38.7413","fcode":"MT"},{"adminCode1":"NV","lng":"-117.22536","geonameId":5504711,"toponymName":"Gold Hill","countryId":"6252001","fcl":"T","population":0,"countryCode":"US","name":"Gold Hill","fclName":"mountain,hill,rock,... ","adminCodes1":{"ISO3166_2":"NV"},"countryName":"United States","fcodeName":"mountain","adminName1":"Nevada","lat":"38.06493","fcode":"MT"},{"adminCode1":"AZ","lng":"-109.84618","geonameId":5296128,"toponymName":"Gold Hill","countryId":"6252001","fcl":"T","population":0,"countryCode":"US","name":"Gold Hill","fclName":"mountain,hill,rock,... ","adminCodes1":{"ISO3166_2":"AZ"},"countryName":"United States","fcodeName":"mountain","adminName1":"Arizona","lat":"31.39816","fcode":"MT"},{"adminCode1":"AZ","lng":"-109.1545","geonameId":5296129,"toponymName":"Gold Hill","countryId":"6252001","fcl":"T","population":0,"countryCode":"US","name":"Gold Hill","fclName":"mountain,hill,rock,... ","adminCodes1":{"ISO3166_2":"AZ"},"countryName":"United States","fcodeName":"mountain","adminName1":"Arizona","lat":"32.33702","fcode":"MT"},{"adminCode1":"AZ","lng":"-111.74293","geonameId":5296130,"toponymName":"Gold Hill","countryId":"6252001","fcl":"T","population":0,"countryCode":"US","name":"Gold Hill","fclName":"mountain,hill,rock,... ","adminCodes1":{"ISO3166_2":"AZ"},"countryName":"United States","fcodeName":"mountain","adminName1":"Arizona","lat":"36.1111","fcode":"MT"},{"adminCode1":"AZ","lng":"-111.4143","geonameId":5296131,"toponymName":"Gold Hill","countryId":"6252001","fcl":"T","population":0,"countryCode":"US","name":"Gold Hill","fclName":"mountain,hill,rock,... ","adminCodes1":{"ISO3166_2":"AZ"},"countryName":"United States","fcodeName":"mountain","adminName1":"Arizona","lat":"34.15781","fcode":"MT"},{"adminCode1":"AZ","lng":"-111.8557","geonameId":5296132,"toponymName":"Gold Hill","countryId":"6252001","fcl":"T","population":0,"countryCode":"US","name":"Gold Hill","fclName":"mountain,hill,rock,... ","adminCodes1":{"ISO3166_2":"AZ"},"countryName":"United States","fcodeName":"mountain","adminName1":"Arizona","lat":"33.89004","fcode":"MT"},{"adminCode1":"AZ","lng":"-112.29294","geonameId":5296133,"toponymName":"Gold Hill","countryId":"6252001","fcl":"T","population":0,"countryCode":"US","name":"Gold Hill","fclName":"mountain,hill,rock,... ","adminCodes1":{"ISO3166_2":"AZ"},"countryName":"United States","fcodeName":"mountain","adminName1":"Arizona","lat":"34.04281","fcode":"MT"},{"adminCode1":"CO","lng":"-106.04835","geonameId":5423239,"toponymName":"Gold Hill","countryId":"6252001","fcl":"P","population":0,"countryCode":"US","name":"Gold Hill","fclName":"city, village,...","adminCodes1":{"ISO3166_2":"CO"},"countryName":"United States","fcodeName":"populated place","adminName1":"Colorado","lat":"39.54526","fcode":"PPL"},{"adminCode1":"TX","lng":"-101.44762","geonameId":5522235,"toponymName":"Gold Hill","countryId":"6252001","fcl":"T","population":0,"countryCode":"US","name":"Gold Hill","fclName":"mountain,hill,rock,... ","adminCodes1":{"ISO3166_2":"TX"},"countryName":"United States","fcodeName":"mountain","adminName1":"Texas","lat":"32.27068","fcode":"MT"},{"adminCode1":"TX","lng":"-104.05463","geonameId":5522236,"toponymName":"Gold Hill","countryId":"6252001","fcl":"T","population":0,"countryCode":"US","name":"Gold Hill","fclName":"mountain,hill,rock,... ","adminCodes1":{"ISO3166_2":"TX"},"countryName":"United States","fcodeName":"mountain","adminName1":"Texas","lat":"31.03764","fcode":"MT"},{"adminCode1":"TX","lng":"-100.06562","geonameId":5522237,"toponymName":"Gold Hill","countryId":"6252001","fcl":"T","population":0,"countryCode":"US","name":"Gold Hill","fclName":"mountain,hill,rock,... ","adminCodes1":{"ISO3166_2":"TX"},"countryName":"United States","fcodeName":"mountain","adminName1":"Texas","lat":"29.14885","fcode":"MT"},{"adminCode1":"SD","lng":"-103.60742","geonameId":5765112,"toponymName":"Gold Hill Mine","countryId":"6252001","fcl":"S","population":0,"countryCode":"US","name":"Gold Hill Mine","fclName":"spot, building, farm","adminCodes1":{"ISO3166_2":"SD"},"countryName":"United States","fcodeName":"mine(s)","adminName1":"South Dakota","lat":"43.98526","fcode":"MN"},{"adminCode1":"WA","lng":"-118.65614","geonameId":5795702,"toponymName":"Gold Hill","countryId":"6252001","fcl":"T","population":0,"countryCode":"US","name":"Gold Hill","fclName":"mountain,hill,rock,... ","adminCodes1":{"ISO3166_2":"WA"},"countryName":"United States","fcodeName":"mountain","adminName1":"Washington","lat":"48.66961","fcode":"MT"},{"adminCode1":"WA","lng":"-119.71091","geonameId":5795703,"toponymName":"Gold Hill","countryId":"6252001","fcl":"T","population":0,"countryCode":"US","name":"Gold Hill","fclName":"mountain,hill,rock,... ","adminCodes1":{"ISO3166_2":"WA"},"countryName":"United States","fcodeName":"mountain","adminName1":"Washington","lat":"48.80904","fcode":"MT"},{"adminCode1":"WA","lng":"-117.76775","geonameId":5795704,"toponymName":"Gold Hill","countryId":"6252001","fcl":"T","population":0,"countryCode":"US","name":"Gold Hill","fclName":"mountain,hill,rock,... ","adminCodes1":{"ISO3166_2":"WA"},"countryName":"United States","fcodeName":"mountain","adminName1":"Washington","lat":"48.32545","fcode":"MT"},{"adminCode1":"WA","lng":"-118.0961","geonameId":5795705,"toponymName":"Gold Hill","countryId":"6252001","fcl":"T","population":0,"countryCode":"US","name":"Gold Hill","fclName":"mountain,hill,rock,... ","adminCodes1":{"ISO3166_2":"WA"},"countryName":"United States","fcodeName":"mountain","adminName1":"Washington","lat":"48.34823","fcode":"MT"},{"adminCode1":"WA","lng":"-118.05249","geonameId":5795706,"toponymName":"Gold Hill","countryId":"6252001","fcl":"T","population":0,"countryCode":"US","name":"Gold Hill","fclName":"mountain,hill,rock,... ","adminCodes1":{"ISO3166_2":"WA"},"countryName":"United States","fcodeName":"mountain","adminName1":"Washington","lat":"48.62962","fcode":"MT"},{"adminCode1":"WA","lng":"-121.42592","geonameId":5795707,"toponymName":"Gold Hill","countryId":"6252001","fcl":"T","population":0,"countryCode":"US","name":"Gold Hill","fclName":"mountain,hill,rock,... ","adminCodes1":{"ISO3166_2":"WA"},"countryName":"United States","fcodeName":"mountain","adminName1":"Washington","lat":"46.92178","fcode":"MT"},{"adminCode1":"AK","lng":"-147.95065","geonameId":5863000,"toponymName":"Gold Hill","countryId":"6252001","fcl":"T","population":0,"countryCode":"US","name":"Gold Hill","fclName":"mountain,hill,rock,... ","adminCodes1":{"ISO3166_2":"AK"},"countryName":"United States","fcodeName":"mountain","adminName1":"Alaska","lat":"64.85094","fcode":"MT"},{"adminCode1":"CA","lng":"-121.53831","geonameId":5564239,"toponymName":"Gold Hill","countryId":"6252001","fcl":"T","population":0,"countryCode":"US","name":"Gold Hill","fclName":"mountain,hill,rock,... ","adminCodes1":{"ISO3166_2":"CA"},"countryName":"United States","fcodeName":"mountain","adminName1":"California","lat":"40.0021","fcode":"MT"},{"adminCode1":"CA","lng":"-121.9925","geonameId":5564240,"toponymName":"Gold Hill","countryId":"6252001","fcl":"T","population":0,"countryCode":"US","name":"Gold Hill","fclName":"mountain,hill,rock,... ","adminCodes1":{"ISO3166_2":"CA"},"countryName":"United States","fcodeName":"mountain","adminName1":"California","lat":"40.66849","fcode":"MT"}]}
