{"totalResultsCount":303,"geonames":[{"adminCode1":"AZ","lng":"-112.14684","geonameId":5296402,"toponymName":"Grand Canyon National Park Airport","countryId":"6252001","fcl":"S","population":0,"countryCode":"US","name":"Grand Canyon National Park Airport","fclName":"spot, building, farm","adminCodes1":{"ISO3166_2":"AZ"},"countryName":"United States","fcodeName":"airport","adminName1":"Arizona","lat":"35.95221","fcode":"AIRP"},{"adminCode1":"AZ","lng":"-111.50098","geonameId":5551752,"toponymName":"Arizona","countryId":"6252001","fcl":"A","population":5863809,"countryCode":"US","name":"Arizona","fclName":"country, state, region,...","adminCodes1":{"ISO3166_2":"AZ"},"countryName":"United States","fcodeName":"first-order administrative division","adminName1":"Arizona","lat":"34.5003","fcode":"ADM1"},{"adminCode1":"UT","lng":"-109.53345","geonameId":5543839,"toponymName":"Negro Bill Canyon","countryId":"6252001","fcl":"T","population":0,"countryCode":"US","name":"Negro Bill Canyon","fclName":"mountain,hill,rock,... ","adminCodes1":{"ISO3166_2":"UT"},"countryName":"United States","fcodeName":"valley","adminName1":"Utah","lat":"38.61026","fcode":"VAL"},{"adminCode1":"AZ","lng":"-112.13934","geonameId":5296391,"toponymName":"Grand Canyon","countryId":"6252001","fcl":"P","population":1460,"countryCode":"US","name":"Grand Canyon","fclName":"city, village,...","adminCodes1":{"ISO3166_2":"AZ"},"countryName":"United States","fcodeName":"populated place","adminName1":"Arizona","lat":"36.05443","fcode":"PPL"},{"adminCode1":"AZ","lng":"-113.23122","geonameId":5296417,"toponymName":"Grand Canyon Bar 10 Airport","countryId":"6252001","fcl":"S","population":0,"countryCode":"US","name":"Grand Canyon Bar Ten Airport","fclName":"spot, building, farm","adminCodes1":{"ISO3166_2":"AZ"},"countryName":"United States","fcodeName":"airport","adminName1":"Arizona","lat":"36.26018","fcode":"AIRP"},{"adminCode1":"UT","lng":"-109.99639","geonameId":7701965,"toponymName":"Mineral Canyon Strip","countryId":"6252001","fcl":"S","population":0,"countryCode":"US","name":"Mineral Canyon Strip","fclName":"spot, building, farm","adminCodes1":{"ISO3166_2":"UT"},"countryName":"United States","fcodeName":"airport","adminName1":"Utah","lat":"38.53203","fcode":"AIRP"},{"adminCode1":"AZ","lng":"-112.113","geonameId":5296401,"toponymName":"Grand Canyon National Park","countryId":"6252001","fcl":"L","population":0,"countryCode":"US","name":"Grand Canyon National Park","fclName":"parks,area, ...","adminCodes1":{"ISO3166_2":"AZ"},"countryName":"United States","fcodeName":"park","adminName1":"Arizona","lat":"36.10697","fcode":"PRK"},{"adminCode1":"AZ","lng":"-113.99607","geonameId":5296392,"toponymName":"Grand Canyon","countryId":"6252001","fcl":"T","population":0,"countryCode":"US","name":"Grand Canyon","fclName":"mountain,hill,rock,... ","adminCodes1":{"ISO3166_2":"AZ"},"countryName":"United States","fcodeName":"valley","adminName1":"Arizona","lat":"36.11276","fcode":"VAL"},{"adminCode1":"AZ","lng":"-113.24106","geonameId":5296395,"toponymName":"Grand Canyon Caverns Airport","countryId":"6252001","fcl":"S","population":0,"countryCode":"US","name":"Grand Canyon Caverns Airport","fclName":"spot, building, farm","adminCodes1":{"ISO3166_2":"AZ"},"countryName":"United States","fcodeName":"airport","adminName1":"Arizona","lat":"35.52962","fcode":"AIRP"},{"adminCode1":"AZ","lng":"-113.81945","geonameId":5296410,"toponymName":"Grand Canyon West Airport","countryId":"6252001","fcl":"S","population":0,"countryCode":"US","name":"Grand Canyon West Airport","fclName":"spot, building, farm","adminCodes1":{"ISO3166_2":"AZ"},"countryName":"United States","fcodeName":"airport","adminName1":"Arizona","lat":"35.98559","fcode":"AIRP"},{"adminCode1":"UT","lng":"-109.22567","geonameId":5549460,"toponymName":"Westwater Canyon","countryId":"6252001","fcl":"T","population":0,"countryCode":"US","name":"Westwater Canyon","fclName":"mountain,hill,rock,... ","adminCodes1":{"ISO3166_2":"UT"},"countryName":"United States","fcodeName":"valley","adminName1":"Utah","lat":"38.97082","fcode":"VAL"},{"adminCode1":"AZ","lng":"-112.50907","geonameId":5296404,"toponymName":"Grand Canyon National Game Preserve","countryId":"6252001","fcl":"L","population":0,"countryCode":"US","name":"Grand Canyon National Game Preserve","fclName":"parks,area, ...","adminCodes1":{"ISO3166_2":"AZ"},"countryName":"United States","fcodeName":"park","adminName1":"Arizona","lat":"36.33331","fcode":"PRK"},{"adminCode1":"CO","lng":"-106.13308","geonameId":5575394,"toponymName":"Byers Canyon","countryId":"6252001","fcl":"T","population":0,"countryCode":"US","name":"Byers Canyon","fclName":"mountain,hill,rock,... ","adminCodes1":{"ISO3166_2":"CO"},"countryName":"United States","fcodeName":"valley","adminName1":"Colorado","lat":"40.06943","fcode":"VAL"},{"adminCode1":"CO","lng":"-106.50781","geonameId":5423471,"toponymName":"Gore Canyon","countryId":"6252001","fcl":"T","population":0,"countryCode":"US","name":"Gore Canyon","fclName":"mountain,hill,rock,... ","adminCodes1":{"ISO3166_2":"CO"},"countryName":"United States","fcodeName":"valley","adminName1":"Colorado","lat":"39.99054","fcode":"VAL"},{"adminCode1":"OR","lng":"-116.47181","geonameId":5728963,"toponymName":"Grand Canyon of the Snake River","countryId":"6252001","fcl":"T","population":0,"countryCode":"US","name":"Grand Canyon of the Snake River","fclName":"mountain,hill,rock,... ","adminCodes1":{"ISO3166_2":"OR"},"countryName":"United States","fcodeName":"valley","adminName1":"Oregon","lat":"45.65961","fcode":"VAL"},{"adminCode1":"TX","lng":"-103.61212","geonameId":5530257,"toponymName":"Santa Elena Canyon","countryId":"6252001","fcl":"T","population":0,"countryCode":"US","name":"Santa Elena Canyon","fclName":"mountain,hill,rock,... ","adminCodes1":{"ISO3166_2":"TX"},"countryName":"United States","fcodeName":"valley","adminName1":"Texas","lat":"29.16547","fcode":"VAL"},{"adminCode1":"UT","lng":"-109.5468","geonameId":5541525,"toponymName":"Kelly Canyon","countryId":"6252001","fcl":"T","population":0,"countryCode":"US","name":"Kelly Canyon","fclName":"mountain,hill,rock,... ","adminCodes1":{"ISO3166_2":"UT"},"countryName":"United States","fcodeName":"valley","adminName1":"Utah","lat":"39.45941","fcode":"VAL"},{"adminCode1":"UT","lng":"-110.11736","geonameId":5539887,"toponymName":"Gray Canyon","countryId":"6252001","fcl":"T","population":0,"countryCode":"US","name":"Gray Canyon","fclName":"mountain,hill,rock,... ","adminCodes1":{"ISO3166_2":"UT"},"countryName":"United States","fcodeName":"valley","adminName1":"Utah","lat":"39.1033","fcode":"VAL"},{"adminCode1":"UT","lng":"-109.70874","geonameId":5546610,"toponymName":"Sego Canyon","countryId":"6252001","fcl":"T","population":0,"countryCode":"US","name":"Sego Canyon","fclName":"mountain,hill,rock,... ","adminCodes1":{"ISO3166_2":"UT"},"countryName":"United States","fcodeName":"valley","adminName1":"Utah","lat":"39.02441","fcode":"VAL"},{"adminCode1":"UT","lng":"-109.34928","geonameId":5548766,"toponymName":"Tub Canyon","countryId":"6252001","fcl":"T","population":0,"countryCode":"US","name":"Tub Canyon","fclName":"mountain,hill,rock,... ","adminCodes1":{"ISO3166_2":"UT"},"countryName":"United States","fcodeName":"valley","adminName1":"Utah","lat":"38.81498","fcode":"VAL"},{"adminCode1":"UT","lng":"-109.33345","geonameId":5536054,"toponymName":"Bull Canyon","countryId":"6252001","fcl":"T","population":0,"countryCode":"US","name":"Bull Canyon","fclName":"mountain,hill,rock,... ","adminCodes1":{"ISO3166_2":"UT"},"countryName":"United States","fcodeName":"valley","adminName1":"Utah","lat":"38.80526","fcode":"VAL"},{"adminCode1":"UT","lng":"-109.25067","geonameId":5537536,"toponymName":"Cow Canyon","countryId":"6252001","fcl":"T","population":0,"countryCode":"US","name":"Cow Canyon","fclName":"mountain,hill,rock,... ","adminCodes1":{"ISO3166_2":"UT"},"countryName":"United States","fcodeName":"valley","adminName1":"Utah","lat":"38.81276","fcode":"VAL"},{"adminCode1":"UT","lng":"-109.63708","geonameId":5546706,"toponymName":"She Canyon","countryId":"6252001","fcl":"T","population":0,"countryCode":"US","name":"She Canyon","fclName":"mountain,hill,rock,... ","adminCodes1":{"ISO3166_2":"UT"},"countryName":"United States","fcodeName":"valley","adminName1":"Utah","lat":"39.32524","fcode":"VAL"},{"adminCode1":"UT","lng":"-109.25762","geonameId":5535955,"toponymName":"Bryson Canyon Gas Field","countryId":"6252001","fcl":"L","population":0,"countryCode":"US","name":"Bryson Canyon Gas Field","fclName":"parks,area, ...","adminCodes1":{"ISO3166_2":"UT"},"countryName":"United States","fcodeName":"oilfield","adminName1":"Utah","lat":"39.34192","fcode":"OILF"},{"adminCode1":"UT","lng":"-109.19817","geonameId":5538666,"toponymName":"East Canyon Gas Field","countryId":"6252001","fcl":"L","population":0,"countryCode":"US","name":"East Canyon Gas Field","fclName":"parks,area, ...","adminCodes1":{"ISO3166_2":"UT"},"countryName":"United States","fcodeName":"oilfield","adminName1":"Utah","lat":"39.42136","fcode":"OILF"},{"adminCode1":"AZ","lng":"-112.15406","geonameId":5296409,"toponymName":"Grand Canyon Village","countryId":"6252001","fcl":"P","population":1550,"countryCode":"US","name":"Grand Canyon Village","fclName":"city, village,...","adminCodes1":{"ISO3166_2":"AZ"},"countryName":"United States","fcodeName":"populated place","adminName1":"Arizona","lat":"36.04637","fcode":"PPL"},{"adminCode1":"CO","lng":"-105.86751","geonameId":5575058,"toponymName":"Box Canyon","countryId":"6252001","fcl":"T","population":0,"countryCode":"US","name":"Box Canyon","fclName":"mountain,hill,rock,... ","adminCodes1":{"ISO3166_2":"CO"},"countryName":"United States","fcodeName":"valley","adminName1":"Colorado","lat":"40.46859","fcode":"VAL"},{"adminCode1":"AZ","lng":"-113.23132","geonameId":5296394,"toponymName":"Grand Canyon Caverns","countryId":"6252001","fcl":"P","population":0,"countryCode":"US","name":"Grand Canyon Caverns","fclName":"city, village,...","adminCodes1":{"ISO3166_2":"AZ"},"countryName":"United States","fcodeName":"populated place","adminName1":"Arizona","lat":"35.52833","fcode":"PPL"},{"adminCode1":"UT","lng":"-109.6454","geonameId":5541950,"toponymName":"Left Hand Nash Wash","countryId":"6252001","fcl":"T","population":0,"countryCode":"US","name":"Left Hand Nash Wash","fclName":"mountain,hill,rock,... ","adminCodes1":{"ISO3166_2":"UT"},"countryName":"United States","fcodeName":"valley","adminName1":"Utah","lat":"39.10608","fcode":"VAL"},{"adminCode1":"MO","lng":"-91.10376","geonameId":4388413,"toponymName":"Grand Canyon","countryId":"6252001","fcl":"T","population":0,"countryCode":"US","name":"Grand Canyon","fclName":"mountain,hill,rock,... ","adminCodes1":{"ISO3166_2":"MO"},"countryName":"United States","fcodeName":"canyon","adminName1":"Missouri","lat":"38.65894","fcode":"CNYN"},{"adminCode1":"CO","lng":"-105.71751","geonameId":5580698,"toponymName":"Paradise Park","countryId":"6252001","fcl":"T","population":0,"countryCode":"US","name":"Paradise Park","fclName":"mountain,hill,rock,... ","adminCodes1":{"ISO3166_2":"CO"},"countryName":"United States","fcodeName":"plain(s)","adminName1":"Colorado","lat":"40.19804","fcode":"PLN"},{"adminCode1":"UT","lng":"-109.59734","geonameId":5540807,"toponymName":"Hunters Canyon","countryId":"6252001","fcl":"T","population":0,"countryCode":"US","name":"Hunters Canyon","fclName":"mountain,hill,rock,... ","adminCodes1":{"ISO3166_2":"UT"},"countryName":"United States","fcodeName":"valley","adminName1":"Utah","lat":"38.50998","fcode":"VAL"},{"adminCode1":"UT","lng":"-109.58762","geonameId":5543295,"toponymName":"Moab Canyon","countryId":"6252001","fcl":"T","population":0,"countryCode":"US","name":"Moab Canyon","fclName":"mountain,hill,rock,... ","adminCodes1":{"ISO3166_2":"UT"},"countryName":"United States","fcodeName":"valley","adminName1":"Utah","lat":"38.60137","fcode":"VAL"},{"adminCode1":"UT","lng":"-109.52429","geonameId":5545983,"toponymName":"Rock Spring Canyon","countryId":"6252001","fcl":"T","population":0,"countryCode":"US","name":"Rock Spring Canyon","fclName":"mountain,hill,rock,... ","adminCodes1":{"ISO3166_2":"UT"},"countryName":"United States","fcodeName":"valley","adminName1":"Utah","lat":"39.43052","fcode":"VAL"},{"adminCode1":"UT","lng":"-109.62346","geonameId":5546210,"toponymName":"Sagers Canyon","countryId":"6252001","fcl":"T","population":0,"countryCode":"US","name":"Sagers Canyon","fclName":"mountain,hill,rock,... ","adminCodes1":{"ISO3166_2":"UT"},"countryName":"United States","fcodeName":"valley","adminName1":"Utah","lat":"39.01719","fcode":"VAL"},{"adminCode1":"UT","lng":"-109.64012","geonameId":5546641,"toponymName":"Sevenmile Canyon","countryId":"6252001","fcl":"T","population":0,"countryCode":"US","name":"Sevenmile Canyon","fclName":"mountain,hill,rock,... ","adminCodes1":{"ISO3166_2":"UT"},"countryName":"United States","fcodeName":"valley","adminName1":"Utah","lat":"38.66748","fcode":"VAL"},{"adminCode1":"UT","lng":"-109.72206","geonameId":5547264,"toponymName":"South Fork Sevenmile Canyon","countryId":"6252001","fcl":"T","population":0,"countryCode":"US","name":"South Fork Sevenmile Canyon","fclName":"mountain,hill,rock,... ","adminCodes1":{"ISO3166_2":"UT"},"countryName":"United States","fcodeName":"valley","adminName1":"Utah","lat":"38.64859","fcode":"VAL"},{"adminCode1":"UT","lng":"-110.02818","geonameId":5547509,"toponymName":"Spring Canyon Point","countryId":"6252001","fcl":"T","population":0,"countryCode":"US","name":"Spring Canyon Point","fclName":"mountain,hill,rock,... ","adminCodes1":{"ISO3166_2":"UT"},"countryName":"United States","fcodeName":"ridge(s)","adminName1":"Utah","lat":"38.62304","fcode":"RDGE"},{"adminCode1":"UT","lng":"-110.02709","geonameId":5548426,"toponymName":"Three Fords Canyon","countryId":"6252001","fcl":"T","population":0,"countryCode":"US","name":"Three Fords Canyon","fclName":"mountain,hill,rock,... ","adminCodes1":{"ISO3166_2":"UT"},"countryName":"United States","fcodeName":"valley","adminName1":"Utah","lat":"39.34747","fcode":"VAL"},{"adminCode1":"UT","lng":"-109.33206","geonameId":5550066,"toponymName":"Yellow Jacket Canyon","countryId":"6252001","fcl":"T","population":0,"countryCode":"US","name":"Yellow Jacket Canyon","fclName":"mountain,hill,rock,... ","adminCodes1":{"ISO3166_2":"UT"},"countryName":"United States","fcodeName":"valley","adminName1":"Utah","lat":"38.81165","fcode":"VAL"},{"adminCode1":"UT","lng":"-109.65484","geonameId":5536058,"toponymName":"Bull Canyon","countryId":"6252001","fcl":"T","population":0,"countryCode":"US","name":"Bull Canyon","fclName":"mountain,hill,rock,... ","adminCodes1":{"ISO3166_2":"UT"},"countryName":"United States","fcodeName":"valley","adminName1":"Utah","lat":"38.5722","fcode":"VAL"},{"adminCode1":"UT","lng":"-109.98402","geonameId":5539417,"toponymName":"Freckles Canyon","countryId":"6252001","fcl":"T","population":0,"countryCode":"US","name":"Freckles Canyon","fclName":"mountain,hill,rock,... ","adminCodes1":{"ISO3166_2":"UT"},"countryName":"United States","fcodeName":"valley","adminName1":"Utah","lat":"38.73581","fcode":"VAL"},{"adminCode1":"UT","lng":"-109.72207","geonameId":5545799,"toponymName":"Right Hand Thompson Canyon","countryId":"6252001","fcl":"T","population":0,"countryCode":"US","name":"Right Hand Thompson Canyon","fclName":"mountain,hill,rock,... ","adminCodes1":{"ISO3166_2":"UT"},"countryName":"United States","fcodeName":"valley","adminName1":"Utah","lat":"39.05219","fcode":"VAL"},{"adminCode1":"UT","lng":"-110.06263","geonameId":5548118,"toponymName":"Tenmile Canyon","countryId":"6252001","fcl":"T","population":0,"countryCode":"US","name":"Tenmile Canyon","fclName":"mountain,hill,rock,... ","adminCodes1":{"ISO3166_2":"UT"},"countryName":"United States","fcodeName":"valley","adminName1":"Utah","lat":"38.65942","fcode":"VAL"},{"adminCode1":"UT","lng":"-109.71124","geonameId":5548385,"toponymName":"Thompson Canyon","countryId":"6252001","fcl":"T","population":0,"countryCode":"US","name":"Thompson Canyon","fclName":"mountain,hill,rock,... ","adminCodes1":{"ISO3166_2":"UT"},"countryName":"United States","fcodeName":"valley","adminName1":"Utah","lat":"38.98025","fcode":"VAL"},{"adminCode1":"UT","lng":"-110.06875","geonameId":5548807,"toponymName":"Tusher Canyon","countryId":"6252001","fcl":"T","population":0,"countryCode":"US","name":"Tusher Canyon","fclName":"mountain,hill,rock,... ","adminCodes1":{"ISO3166_2":"UT"},"countryName":"United States","fcodeName":"valley","adminName1":"Utah","lat":"39.08691","fcode":"VAL"},{"adminCode1":"WY","lng":"-110.48532","geonameId":5843650,"toponymName":"Grand Canyon of the Yellowstone","countryId":"6252001","fcl":"T","population":0,"countryCode":"US","name":"Grand Canyon of the Yellowstone","fclName":"mountain,hill,rock,... ","adminCodes1":{"ISO3166_2":"WY"},"countryName":"United States","fcodeName":"valley","adminName1":"Wyoming","lat":"44.71975","fcode":"VAL"},{"adminCode1":"UT","lng":"-109.37151","geonameId":5540623,"toponymName":"Horse Canyon","countryId":"6252001","fcl":"T","population":0,"countryCode":"US","name":"Horse Canyon","fclName":"mountain,hill,rock,... ","adminCodes1":{"ISO3166_2":"UT"},"countryName":"United States","fcodeName":"valley","adminName1":"Utah","lat":"39.47025","fcode":"VAL"},{"adminCode1":"UT","lng":"-109.57735","geonameId":5540866,"toponymName":"Ice Canyon","countryId":"6252001","fcl":"T","population":0,"countryCode":"US","name":"Ice Canyon","fclName":"mountain,hill,rock,... ","adminCodes1":{"ISO3166_2":"UT"},"countryName":"United States","fcodeName":"valley","adminName1":"Utah","lat":"39.46191","fcode":"VAL"},{"adminCode1":"UT","lng":"-109.81208","geonameId":5541169,"toponymName":"Jennie Canyon","countryId":"6252001","fcl":"T","population":0,"countryCode":"US","name":"Jennie Canyon","fclName":"mountain,hill,rock,... ","adminCodes1":{"ISO3166_2":"UT"},"countryName":"United States","fcodeName":"valley","adminName1":"Utah","lat":"39.26941","fcode":"VAL"},{"adminCode1":"UT","lng":"-109.74347","geonameId":5541781,"toponymName":"Laplan Canyon","countryId":"6252001","fcl":"T","population":0,"countryCode":"US","name":"Laplan Canyon","fclName":"mountain,hill,rock,... ","adminCodes1":{"ISO3166_2":"UT"},"countryName":"United States","fcodeName":"valley","adminName1":"Utah","lat":"39.25247","fcode":"VAL"},{"adminCode1":"UT","lng":"-109.36401","geonameId":5542075,"toponymName":"Little Berry Canyon","countryId":"6252001","fcl":"T","population":0,"countryCode":"US","name":"Little Berry Canyon","fclName":"mountain,hill,rock,... ","adminCodes1":{"ISO3166_2":"UT"},"countryName":"United States","fcodeName":"valley","adminName1":"Utah","lat":"39.45775","fcode":"VAL"},{"adminCode1":"UT","lng":"-109.53457","geonameId":5542174,"toponymName":"Little Jim Canyon","countryId":"6252001","fcl":"T","population":0,"countryCode":"US","name":"Little Jim Canyon","fclName":"mountain,hill,rock,... ","adminCodes1":{"ISO3166_2":"UT"},"countryName":"United States","fcodeName":"valley","adminName1":"Utah","lat":"39.4333","fcode":"VAL"},{"adminCode1":"UT","lng":"-109.63124","geonameId":5544391,"toponymName":"One Eye Canyon","countryId":"6252001","fcl":"T","population":0,"countryCode":"US","name":"One Eye Canyon","fclName":"mountain,hill,rock,... ","adminCodes1":{"ISO3166_2":"UT"},"countryName":"United States","fcodeName":"valley","adminName1":"Utah","lat":"39.32358","fcode":"VAL"},{"adminCode1":"UT","lng":"-109.8882","geonameId":5544967,"toponymName":"Pinto Canyon","countryId":"6252001","fcl":"T","population":0,"countryCode":"US","name":"Pinto Canyon","fclName":"mountain,hill,rock,... ","adminCodes1":{"ISO3166_2":"UT"},"countryName":"United States","fcodeName":"valley","adminName1":"Utah","lat":"39.42941","fcode":"VAL"},{"adminCode1":"UT","lng":"-109.76486","geonameId":5545201,"toponymName":"Post Canyon","countryId":"6252001","fcl":"T","population":0,"countryCode":"US","name":"Post Canyon","fclName":"mountain,hill,rock,... ","adminCodes1":{"ISO3166_2":"UT"},"countryName":"United States","fcodeName":"valley","adminName1":"Utah","lat":"39.4158","fcode":"VAL"},{"adminCode1":"UT","lng":"-109.81403","geonameId":5545203,"toponymName":"Post Canyon Ridge","countryId":"6252001","fcl":"T","population":0,"countryCode":"US","name":"Post Canyon Ridge","fclName":"mountain,hill,rock,... ","adminCodes1":{"ISO3166_2":"UT"},"countryName":"United States","fcodeName":"ridge(s)","adminName1":"Utah","lat":"39.34358","fcode":"RDGE"},{"adminCode1":"UT","lng":"-109.79014","geonameId":5545206,"toponymName":"Post Canyon Point","countryId":"6252001","fcl":"T","population":0,"countryCode":"US","name":"Post Canyon Point","fclName":"mountain,hill,rock,... ","adminCodes1":{"ISO3166_2":"UT"},"countryName":"United States","fcodeName":"mountain","adminName1":"Utah","lat":"39.3708","fcode":"MT"},{"adminCode1":"UT","lng":"-109.58235","geonameId":5546614,"toponymName":"Segundo Canyon","countryId":"6252001","fcl":"T","population":0,"countryCode":"US","name":"Segundo Canyon","fclName":"mountain,hill,rock,... ","adminCodes1":{"ISO3166_2":"UT"},"countryName":"United States","fcodeName":"valley","adminName1":"Utah","lat":"39.31747","fcode":"VAL"},{"adminCode1":"UT","lng":"-109.8232","geonameId":5546798,"toponymName":"Short Canyon","countryId":"6252001","fcl":"T","population":0,"countryCode":"US","name":"Short Canyon","fclName":"mountain,hill,rock,... ","adminCodes1":{"ISO3166_2":"UT"},"countryName":"United States","fcodeName":"valley","adminName1":"Utah","lat":"39.43385","fcode":"VAL"},{"adminCode1":"UT","lng":"-109.90542","geonameId":5547024,"toponymName":"Slough Canyon Point","countryId":"6252001","fcl":"T","population":0,"countryCode":"US","name":"Slough Canyon Point","fclName":"mountain,hill,rock,... ","adminCodes1":{"ISO3166_2":"UT"},"countryName":"United States","fcodeName":"mountain","adminName1":"Utah","lat":"39.3733","fcode":"MT"},{"adminCode1":"UT","lng":"-109.4754","geonameId":5547106,"toponymName":"Snowshoe Canyon","countryId":"6252001","fcl":"T","population":0,"countryCode":"US","name":"Snowshoe Canyon","fclName":"mountain,hill,rock,... ","adminCodes1":{"ISO3166_2":"UT"},"countryName":"United States","fcodeName":"valley","adminName1":"Utah","lat":"39.44774","fcode":"VAL"},{"adminCode1":"UT","lng":"-109.69263","geonameId":5547883,"toponymName":"Supply Canyon","countryId":"6252001","fcl":"T","population":0,"countryCode":"US","name":"Supply Canyon","fclName":"mountain,hill,rock,... ","adminCodes1":{"ISO3166_2":"UT"},"countryName":"United States","fcodeName":"valley","adminName1":"Utah","lat":"39.29524","fcode":"VAL"},{"adminCode1":"UT","lng":"-109.54485","geonameId":5548637,"toponymName":"Trail Canyon","countryId":"6252001","fcl":"T","population":0,"countryCode":"US","name":"Trail Canyon","fclName":"mountain,hill,rock,... ","adminCodes1":{"ISO3166_2":"UT"},"countryName":"United States","fcodeName":"valley","adminName1":"Utah","lat":"39.44997","fcode":"VAL"},{"adminCode1":"UT","lng":"-109.82347","geonameId":5548638,"toponymName":"Trail Canyon","countryId":"6252001","fcl":"T","population":0,"countryCode":"US","name":"Trail Canyon","fclName":"mountain,hill,rock,... ","adminCodes1":{"ISO3166_2":"UT"},"countryName":"United States","fcodeName":"valley","adminName1":"Utah","lat":"39.19997","fcode":"VAL"},{"adminCode1":"UT","lng":"-109.21539","geonameId":5535933,"toponymName":"Brusher Canyon","countryId":"6252001","fcl":"T","population":0,"countryCode":"US","name":"Brusher Canyon","fclName":"mountain,hill,rock,... ","adminCodes1":{"ISO3166_2":"UT"},"countryName":"United States","fcodeName":"valley","adminName1":"Utah","lat":"39.41442","fcode":"VAL"},{"adminCode1":"UT","lng":"-109.66291","geonameId":5535967,"toponymName":"Buck Canyon","countryId":"6252001","fcl":"T","population":0,"countryCode":"US","name":"Buck Canyon","fclName":"mountain,hill,rock,... ","adminCodes1":{"ISO3166_2":"UT"},"countryName":"United States","fcodeName":"valley","adminName1":"Utah","lat":"39.20025","fcode":"VAL"},{"adminCode1":"UT","lng":"-109.27345","geonameId":5536169,"toponymName":"Bunchground Canyon","countryId":"6252001","fcl":"T","population":0,"countryCode":"US","name":"Bunchground Canyon","fclName":"mountain,hill,rock,... ","adminCodes1":{"ISO3166_2":"UT"},"countryName":"United States","fcodeName":"valley","adminName1":"Utah","lat":"38.62721","fcode":"VAL"},{"adminCode1":"UT","lng":"-109.48624","geonameId":5536619,"toponymName":"Cedar Camp Canyon","countryId":"6252001","fcl":"T","population":0,"countryCode":"US","name":"Cedar Camp Canyon","fclName":"mountain,hill,rock,... ","adminCodes1":{"ISO3166_2":"UT"},"countryName":"United States","fcodeName":"valley","adminName1":"Utah","lat":"39.44636","fcode":"VAL"},{"adminCode1":"UT","lng":"-109.5629","geonameId":5536791,"toponymName":"Cherry Canyon","countryId":"6252001","fcl":"T","population":0,"countryCode":"US","name":"Cherry Canyon","fclName":"mountain,hill,rock,... ","adminCodes1":{"ISO3166_2":"UT"},"countryName":"United States","fcodeName":"valley","adminName1":"Utah","lat":"39.17414","fcode":"VAL"},{"adminCode1":"UT","lng":"-109.49735","geonameId":5536792,"toponymName":"Cherry Canyon","countryId":"6252001","fcl":"T","population":0,"countryCode":"US","name":"Cherry Canyon","fclName":"mountain,hill,rock,... ","adminCodes1":{"ISO3166_2":"UT"},"countryName":"United States","fcodeName":"valley","adminName1":"Utah","lat":"39.41858","fcode":"VAL"},{"adminCode1":"UT","lng":"-109.73347","geonameId":5537328,"toponymName":"Corral Canyon Point","countryId":"6252001","fcl":"T","population":0,"countryCode":"US","name":"Corral Canyon Point","fclName":"mountain,hill,rock,... ","adminCodes1":{"ISO3166_2":"UT"},"countryName":"United States","fcodeName":"cape","adminName1":"Utah","lat":"39.34913","fcode":"CAPE"},{"adminCode1":"UT","lng":"-109.6768","geonameId":5538435,"toponymName":"Dry Fork Bull Canyon","countryId":"6252001","fcl":"T","population":0,"countryCode":"US","name":"Dry Fork Bull Canyon","fclName":"mountain,hill,rock,... ","adminCodes1":{"ISO3166_2":"UT"},"countryName":"United States","fcodeName":"valley","adminName1":"Utah","lat":"39.57663","fcode":"VAL"},{"adminCode1":"UT","lng":"-109.83486","geonameId":5538696,"toponymName":"East Fork Chandler Canyon","countryId":"6252001","fcl":"T","population":0,"countryCode":"US","name":"East Fork Chandler Canyon","fclName":"mountain,hill,rock,... ","adminCodes1":{"ISO3166_2":"UT"},"countryName":"United States","fcodeName":"valley","adminName1":"Utah","lat":"39.47358","fcode":"VAL"},{"adminCode1":"UT","lng":"-109.69597","geonameId":5539214,"toponymName":"Fivemile Canyon","countryId":"6252001","fcl":"T","population":0,"countryCode":"US","name":"Fivemile Canyon","fclName":"mountain,hill,rock,... ","adminCodes1":{"ISO3166_2":"UT"},"countryName":"United States","fcodeName":"valley","adminName1":"Utah","lat":"39.36024","fcode":"VAL"},{"adminCode1":"UT","lng":"-109.57457","geonameId":5540185,"toponymName":"Harmes Canyon","countryId":"6252001","fcl":"T","population":0,"countryCode":"US","name":"Harmes Canyon","fclName":"mountain,hill,rock,... ","adminCodes1":{"ISO3166_2":"UT"},"countryName":"United States","fcodeName":"valley","adminName1":"Utah","lat":"39.25691","fcode":"VAL"},{"adminCode1":"UT","lng":"-109.5679","geonameId":5534824,"toponymName":"Bear Canyon","countryId":"6252001","fcl":"T","population":0,"countryCode":"US","name":"Bear Canyon","fclName":"mountain,hill,rock,... ","adminCodes1":{"ISO3166_2":"UT"},"countryName":"United States","fcodeName":"valley","adminName1":"Utah","lat":"39.15553","fcode":"VAL"},{"adminCode1":"UT","lng":"-109.81069","geonameId":5534881,"toponymName":"Beaver Canyon","countryId":"6252001","fcl":"T","population":0,"countryCode":"US","name":"Beaver Canyon","fclName":"mountain,hill,rock,... ","adminCodes1":{"ISO3166_2":"UT"},"countryName":"United States","fcodeName":"valley","adminName1":"Utah","lat":"39.28385","fcode":"VAL"},{"adminCode1":"UT","lng":"-109.82986","geonameId":5535340,"toponymName":"Black Canyon","countryId":"6252001","fcl":"T","population":0,"countryCode":"US","name":"Black Canyon","fclName":"mountain,hill,rock,... ","adminCodes1":{"ISO3166_2":"UT"},"countryName":"United States","fcodeName":"valley","adminName1":"Utah","lat":"39.20052","fcode":"VAL"},{"adminCode1":"UT","lng":"-109.67041","geonameId":5535665,"toponymName":"Bogart Canyon","countryId":"6252001","fcl":"T","population":0,"countryCode":"US","name":"Bogart Canyon","fclName":"mountain,hill,rock,... ","adminCodes1":{"ISO3166_2":"UT"},"countryName":"United States","fcodeName":"valley","adminName1":"Utah","lat":"39.19552","fcode":"VAL"},{"adminCode1":"CO","lng":"-105.71362","geonameId":5577940,"toponymName":"Hell Canyon","countryId":"6252001","fcl":"T","population":0,"countryCode":"US","name":"Hell Canyon","fclName":"mountain,hill,rock,... ","adminCodes1":{"ISO3166_2":"CO"},"countryName":"United States","fcodeName":"valley","adminName1":"Colorado","lat":"40.11026","fcode":"VAL"},{"adminCode1":"CO","lng":"-106.50114","geonameId":5418019,"toponymName":"Corduroy Canyon","countryId":"6252001","fcl":"T","population":0,"countryCode":"US","name":"Corduroy Canyon","fclName":"mountain,hill,rock,... ","adminCodes1":{"ISO3166_2":"CO"},"countryName":"United States","fcodeName":"valley","adminName1":"Colorado","lat":"39.96304","fcode":"VAL"},{"adminCode1":"AK","lng":"-160.98194","geonameId":5863181,"toponymName":"Grand Canyon","countryId":"6252001","fcl":"T","population":0,"countryCode":"US","name":"Grand Canyon","fclName":"mountain,hill,rock,... ","adminCodes1":{"ISO3166_2":"AK"},"countryName":"United States","fcodeName":"valley","adminName1":"Alaska","lat":"67.92694","fcode":"VAL"},{"adminCode1":"AZ","lng":"-111.83405","geonameId":5296405,"toponymName":"Grand Canyon Navajo Tribal Park","countryId":"6252001","fcl":"L","population":0,"countryCode":"US","name":"Grand Canyon Navajo Tribal Park","fclName":"parks,area, ...","adminCodes1":{"ISO3166_2":"AZ"},"countryName":"United States","fcodeName":"park","adminName1":"Arizona","lat":"36.31665","fcode":"PRK"},{"adminCode1":"UT","lng":"-109.37095","geonameId":5543749,"toponymName":"Nash Wash","countryId":"6252001","fcl":"T","population":0,"countryCode":"US","name":"Nash Wash","fclName":"mountain,hill,rock,... ","adminCodes1":{"ISO3166_2":"UT"},"countryName":"United States","fcodeName":"valley","adminName1":"Utah","lat":"38.88887","fcode":"VAL"},{"adminCode1":"CA","lng":"-119.72517","geonameId":5353460,"toponymName":"Grand Canyon of the Tuolumne River","countryId":"6252001","fcl":"T","population":0,"countryCode":"US","name":"Grand Canyon of the Tuolumne River","fclName":"mountain,hill,rock,... ","adminCodes1":{"ISO3166_2":"CA"},"countryName":"United States","fcodeName":"valley","adminName1":"California","lat":"37.94992","fcode":"VAL"},{"adminCode1":"AZ","lng":"-112.13065","geonameId":5296396,"toponymName":"Grand Canyon University","countryId":"6252001","fcl":"S","population":0,"countryCode":"US","name":"Grand Canyon University","fclName":"spot, building, farm","adminCodes1":{"ISO3166_2":"AZ"},"countryName":"United States","fcodeName":"school","adminName1":"Arizona","lat":"33.51109","fcode":"SCH"},{"adminCode1":"AZ","lng":"-112.13667","geonameId":5296406,"toponymName":"Grand Canyon Railroad Station","countryId":"6252001","fcl":"S","population":0,"countryCode":"US","name":"Grand Canyon Railroad Station","fclName":"spot, building, farm","adminCodes1":{"ISO3166_2":"AZ"},"countryName":"United States","fcodeName":"railroad station","adminName1":"Arizona","lat":"36.05694","fcode":"RSTN"},{"adminCode1":"PA","lng":"-77.39651","geonameId":5191614,"toponymName":"Wellsboro Johnston Airport","countryId":"6252001","fcl":"S","population":0,"countryCode":"US","name":"Wellsboro Johnston Airport","fclName":"spot, building, farm","adminCodes1":{"ISO3166_2":"PA"},"countryName":"United States","fcodeName":"airport","adminName1":"Pennsylvania","lat":"41.7279","fcode":"AIRP"},{"adminCode1":"GA","lng":"-84.91604","geonameId":4217488,"toponymName":"Providence Canyons","countryId":"6252001","fcl":"T","population":0,"countryCode":"US","name":"Providence Canyons","fclName":"mountain,hill,rock,... ","adminCodes1":{"ISO3166_2":"GA"},"countryName":"United States","fcodeName":"valley","adminName1":"Georgia","lat":"32.06377","fcode":"VAL"},{"adminCode1":"AZ","lng":"-113.76892","geonameId":6619202,"toponymName":"Grand Canyon","countryId":"6252001","fcl":"T","population":0,"countryCode":"US","name":"Grand Canyon","fclName":"mountain,hill,rock,... ","adminCodes1":{"ISO3166_2":"AZ"},"countryName":"United States","fcodeName":"canyon","adminName1":"Arizona","lat":"35.97391","fcode":"CNYN"},{"adminCode1":"UT","lng":"-109.95318","geonameId":5540619,"toponymName":"Horse Canyon","countryId":"6252001","fcl":"T","population":0,"countryCode":"US","name":"Horse Canyon","fclName":"mountain,hill,rock,... ","adminCodes1":{"ISO3166_2":"UT"},"countryName":"United States","fcodeName":"valley","adminName1":"Utah","lat":"38.98553","fcode":"VAL"},{"adminCode1":"UT","lng":"-109.48485","geonameId":5540620,"toponymName":"Horse Canyon","countryId":"6252001","fcl":"T","population":0,"countryCode":"US","name":"Horse Canyon","fclName":"mountain,hill,rock,... ","adminCodes1":{"ISO3166_2":"UT"},"countryName":"United States","fcodeName":"valley","adminName1":"Utah","lat":"39.18719","fcode":"VAL"},{"adminCode1":"UT","lng":"-109.88125","geonameId":5540621,"toponymName":"Horse Canyon","countryId":"6252001","fcl":"T","population":0,"countryCode":"US","name":"Horse Canyon","fclName":"mountain,hill,rock,... ","adminCodes1":{"ISO3166_2":"UT"},"countryName":"United States","fcodeName":"valley","adminName1":"Utah","lat":"39.22913","fcode":"VAL"},{"adminCode1":"UT","lng":"-109.37873","geonameId":5540622,"toponymName":"Horse Canyon","countryId":"6252001","fcl":"T","population":0,"countryCode":"US","name":"Horse Canyon","fclName":"mountain,hill,rock,... ","adminCodes1":{"ISO3166_2":"UT"},"countryName":"United States","fcodeName":"valley","adminName1":"Utah","lat":"39.32664","fcode":"VAL"},{"adminCode1":"UT","lng":"-109.43735","geonameId":5540801,"toponymName":"Hunt Canyon","countryId":"6252001","fcl":"T","population":0,"countryCode":"US","name":"Hunt Canyon","fclName":"mountain,hill,rock,... ","adminCodes1":{"ISO3166_2":"UT"},"countryName":"United States","fcodeName":"valley","adminName1":"Utah","lat":"39.31386","fcode":"VAL"},{"adminCode1":"UT","lng":"-109.50651","geonameId":5541075,"toponymName":"Jackass Canyon","countryId":"6252001","fcl":"T","population":0,"countryCode":"US","name":"Jackass Canyon","fclName":"mountain,hill,rock,... ","adminCodes1":{"ISO3166_2":"UT"},"countryName":"United States","fcodeName":"valley","adminName1":"Utah","lat":"38.6272","fcode":"VAL"},{"adminCode1":"UT","lng":"-109.04428","geonameId":5541208,"toponymName":"Jim Canyon","countryId":"6252001","fcl":"T","population":0,"countryCode":"US","name":"Jim Canyon","fclName":"mountain,hill,rock,... ","adminCodes1":{"ISO3166_2":"UT"},"countryName":"United States","fcodeName":"valley","adminName1":"Utah","lat":"39.39081","fcode":"VAL"},{"adminCode1":"UT","lng":"-109.10317","geonameId":5541340,"toponymName":"Jones Canyon","countryId":"6252001","fcl":"T","population":0,"countryCode":"US","name":"Jones Canyon","fclName":"mountain,hill,rock,... ","adminCodes1":{"ISO3166_2":"UT"},"countryName":"United States","fcodeName":"valley","adminName1":"Utah","lat":"39.06693","fcode":"VAL"},{"adminCode1":"UT","lng":"-109.90236","geonameId":5541910,"toponymName":"Left Fork Naylon Canyon","countryId":"6252001","fcl":"T","population":0,"countryCode":"US","name":"Left Fork Naylon Canyon","fclName":"mountain,hill,rock,... ","adminCodes1":{"ISO3166_2":"UT"},"countryName":"United States","fcodeName":"valley","adminName1":"Utah","lat":"39.14608","fcode":"VAL"}]}
