{"totalResultsCount":3252,"geonames":[{"adminCode1":"SC","lng":"-82.39401","geonameId":4580543,"toponymName":"Greenville","countryId":"6252001","fcl":"P","population":64579,"countryCode":"US","name":"Greenville","fclName":"city, village,...","adminCodes1":{"ISO3166_2":"SC"},"countryName":"United States","fcodeName":"seat of a second-order administrative division","adminName1":"South Carolina","lat":"34.85262","fcode":"PPLA2"},{"adminCode1":"SC","lng":"-82.22706","geonameId":4580599,"toponymName":"Greer","countryId":"6252001","fcl":"P","population":28365,"countryCode":"US","name":"Greer","fclName":"city, village,...","adminCodes1":{"ISO3166_2":"SC"},"countryName":"United States","fcodeName":"populated place","adminName1":"South Carolina","lat":"34.93873","fcode":"PPL"},{"adminCode1":"NC","lng":"-77.36635","geonameId":4469160,"toponymName":"Greenville","countryId":"6252001","fcl":"P","population":90597,"countryCode":"US","name":"Greenville","fclName":"city, village,...","adminCodes1":{"ISO3166_2":"NC"},"countryName":"United States","fcodeName":"seat of a second-order administrative division","adminName1":"North Carolina","lat":"35.61266","fcode":"PPLA2"},{"adminCode1":"SC","lng":"-82.25428","geonameId":4595864,"toponymName":"Simpsonville","countryId":"6252001","fcl":"P","population":20736,"countryCode":"US","name":"Simpsonville","fclName":"city, village,...","adminCodes1":{"ISO3166_2":"SC"},"countryName":"United States","fcodeName":"populated place","adminName1":"South Carolina","lat":"34.73706","fcode":"PPL"},{"adminCode1":"SC","lng":"-82.31012","geonameId":4586523,"toponymName":"Mauldin","countryId":"6252001","fcl":"P","population":25135,"countryCode":"US","name":"Mauldin","fclName":"city, village,...","adminCodes1":{"ISO3166_2":"SC"},"countryName":"United States","fcodeName":"populated place","adminName1":"South Carolina","lat":"34.77873","fcode":"PPL"},{"adminCode1":"SC","lng":"-82.21886","geonameId":6301603,"toponymName":"Greenville–Spartanburg International Airport","countryId":"6252001","fcl":"S","population":0,"countryCode":"US","name":"Greenville–Spartanburg International Airport","fclName":"spot, building, farm","adminCodes1":{"ISO3166_2":"SC"},"countryName":"United States","fcodeName":"airport","adminName1":"South Carolina","lat":"34.89567","fcode":"AIRP"},{"adminCode1":"MS","lng":"-91.05978","geonameId":4428475,"toponymName":"Greenville","countryId":"6252001","fcl":"P","population":32156,"countryCode":"US","name":"Greenville","fclName":"city, village,...","adminCodes1":{"ISO3166_2":"MS"},"countryName":"United States","fcodeName":"seat of a second-order administrative division","adminName1":"Mississippi","lat":"33.40898","fcode":"PPLA2"},{"adminCode1":"TX","lng":"-96.11081","geonameId":4695066,"toponymName":"Greenville","countryId":"6252001","fcl":"P","population":26515,"countryCode":"US","name":"Greenville","fclName":"city, village,...","adminCodes1":{"ISO3166_2":"TX"},"countryName":"United States","fcodeName":"seat of a second-order administrative division","adminName1":"Texas","lat":"33.13845","fcode":"PPLA2"},{"adminCode1":"OH","lng":"-84.63301","geonameId":5156493,"toponymName":"Greenville","countryId":"6252001","fcl":"P","population":13006,"countryCode":"US","name":"Greenville","fclName":"city, village,...","adminCodes1":{"ISO3166_2":"OH"},"countryName":"United States","fcodeName":"seat of a second-order administrative division","adminName1":"Ohio","lat":"40.10283","fcode":"PPLA2"},{"adminCode1":"SC","lng":"-82.44345","geonameId":4598865,"toponymName":"Travelers Rest","countryId":"6252001","fcl":"P","population":4994,"countryCode":"US","name":"Travelers Rest","fclName":"city, village,...","adminCodes1":{"ISO3166_2":"SC"},"countryName":"United States","fcodeName":"populated place","adminName1":"South Carolina","lat":"34.96762","fcode":"PPL"},{"adminCode1":"SC","lng":"-82.3509","geonameId":4580554,"toponymName":"Greenville Downtown Airport","countryId":"6252001","fcl":"S","population":0,"countryCode":"US","name":"Greenville Downtown Airport","fclName":"spot, building, farm","adminCodes1":{"ISO3166_2":"SC"},"countryName":"United States","fcodeName":"airport","adminName1":"South Carolina","lat":"34.85031","fcode":"AIRP"},{"adminCode1":"SC","lng":"-82.37072","geonameId":4580549,"toponymName":"Greenville County","countryId":"6252001","fcl":"A","population":451225,"countryCode":"US","name":"Greenville","fclName":"country, state, region,...","adminCodes1":{"ISO3166_2":"SC"},"countryName":"United States","fcodeName":"second-order administrative division","adminName1":"South Carolina","lat":"34.89431","fcode":"ADM2"},{"adminCode1":"SC","lng":"-82.3756","geonameId":4576791,"toponymName":"Donaldson Center Airport","countryId":"6252001","fcl":"S","population":0,"countryCode":"US","name":"Donaldson Center Airport","fclName":"spot, building, farm","adminCodes1":{"ISO3166_2":"SC"},"countryName":"United States","fcodeName":"airport","adminName1":"South Carolina","lat":"34.75662","fcode":"AIRP"},{"adminCode1":"IL","lng":"-89.37396","geonameId":4239869,"toponymName":"Greenville Airport","countryId":"6252001","fcl":"S","population":0,"countryCode":"US","name":"Greenville Airport","fclName":"spot, building, farm","adminCodes1":{"ISO3166_2":"IL"},"countryName":"United States","fcodeName":"airport","adminName1":"Illinois","lat":"38.83454","fcode":"AIRP"},{"adminCode1":"SC","lng":"-82.19567","geonameId":4579043,"toponymName":"Fountain Inn","countryId":"6252001","fcl":"P","population":8317,"countryCode":"US","name":"Fountain Inn","fclName":"city, village,...","adminCodes1":{"ISO3166_2":"SC"},"countryName":"United States","fcodeName":"populated place","adminName1":"South Carolina","lat":"34.68901","fcode":"PPL"},{"adminCode1":"SC","lng":"-82.29623","geonameId":4598353,"toponymName":"Taylors","countryId":"6252001","fcl":"P","population":21617,"countryCode":"US","name":"Taylors","fclName":"city, village,...","adminCodes1":{"ISO3166_2":"SC"},"countryName":"United States","fcodeName":"populated place","adminName1":"South Carolina","lat":"34.92039","fcode":"PPL"},{"adminCode1":"MS","lng":"-90.9851","geonameId":4428484,"toponymName":"Greenville International Airport","countryId":"6252001","fcl":"S","population":0,"countryCode":"US","name":"Greenville International Airport","fclName":"spot, building, farm","adminCodes1":{"ISO3166_2":"MS"},"countryName":"United States","fcodeName":"airport","adminName1":"Mississippi","lat":"33.48234","fcode":"AIRP"},{"adminCode1":"PA","lng":"-80.39118","geonameId":5192019,"toponymName":"Greenville","countryId":"6252001","fcl":"P","population":5819,"countryCode":"US","name":"Greenville","fclName":"city, village,...","adminCodes1":{"ISO3166_2":"PA"},"countryName":"United States","fcodeName":"populated place","adminName1":"Pennsylvania","lat":"41.4045","fcode":"PPL"},{"adminCode1":"ME","lng":"-69.5538","geonameId":4965985,"toponymName":"Greenville Municipal Airport","countryId":"6252001","fcl":"S","population":0,"countryCode":"US","name":"Greenville Municipal Airport","fclName":"spot, building, farm","adminCodes1":{"ISO3166_2":"ME"},"countryName":"United States","fcodeName":"airport","adminName1":"Maine","lat":"45.46533","fcode":"AIRP"},{"adminCode1":"NC","lng":"-77.38104","geonameId":4485641,"toponymName":"Pitt-Greenville Airport","countryId":"6252001","fcl":"S","population":0,"countryCode":"US","name":"Pitt-Greenville Airport","fclName":"spot, building, farm","adminCodes1":{"ISO3166_2":"NC"},"countryName":"United States","fcodeName":"airport","adminName1":"North Carolina","lat":"35.6336","fcode":"AIRP"},{"adminCode1":"SC","lng":"-82.45346","geonameId":4590476,"toponymName":"Parker","countryId":"6252001","fcl":"P","population":11431,"countryCode":"US","name":"Parker","fclName":"city, village,...","adminCodes1":{"ISO3166_2":"SC"},"countryName":"United States","fcodeName":"populated place","adminName1":"South Carolina","lat":"34.85067","fcode":"PPL"},{"adminCode1":"SC","lng":"-82.22956","geonameId":4578602,"toponymName":"Five Forks","countryId":"6252001","fcl":"P","population":14140,"countryCode":"US","name":"Five Forks","fclName":"city, village,...","adminCodes1":{"ISO3166_2":"SC"},"countryName":"United States","fcodeName":"populated place","adminName1":"South Carolina","lat":"34.80484","fcode":"PPL"},{"adminCode1":"SC","lng":"-82.42429","geonameId":4579484,"toponymName":"Gantt","countryId":"6252001","fcl":"P","population":14229,"countryCode":"US","name":"Gantt","fclName":"city, village,...","adminCodes1":{"ISO3166_2":"SC"},"countryName":"United States","fcodeName":"populated place","adminName1":"South Carolina","lat":"34.80012","fcode":"PPL"},{"adminCode1":"SC","lng":"-82.6179","geonameId":4573024,"toponymName":"Caesars Head State Park","countryId":"6252001","fcl":"L","population":0,"countryCode":"US","name":"Caesars Head State Park","fclName":"parks,area, ...","adminCodes1":{"ISO3166_2":"SC"},"countryName":"United States","fcodeName":"park","adminName1":"South Carolina","lat":"35.10428","fcode":"PRK"},{"adminCode1":"SC","lng":"-82.45596","geonameId":4570664,"toponymName":"Berea","countryId":"6252001","fcl":"P","population":14295,"countryCode":"US","name":"Berea","fclName":"city, village,...","adminCodes1":{"ISO3166_2":"SC"},"countryName":"United States","fcodeName":"populated place","adminName1":"South Carolina","lat":"34.8854","fcode":"PPL"},{"adminCode1":"SC","lng":"-82.36845","geonameId":4598650,"toponymName":"Tigerville","countryId":"6252001","fcl":"P","population":1312,"countryCode":"US","name":"Tigerville","fclName":"city, village,...","adminCodes1":{"ISO3166_2":"SC"},"countryName":"United States","fcodeName":"populated place","adminName1":"South Carolina","lat":"35.06845","fcode":"PPL"},{"adminCode1":"SC","lng":"-82.33317","geonameId":4599937,"toponymName":"Wade Hampton","countryId":"6252001","fcl":"P","population":20622,"countryCode":"US","name":"Wade Hampton","fclName":"city, village,...","adminCodes1":{"ISO3166_2":"SC"},"countryName":"United States","fcodeName":"populated place","adminName1":"South Carolina","lat":"34.90373","fcode":"PPL"},{"adminCode1":"GA","lng":"-84.71298","geonameId":4198218,"toponymName":"Greenville","countryId":"6252001","fcl":"P","population":862,"countryCode":"US","name":"Greenville","fclName":"city, village,...","adminCodes1":{"ISO3166_2":"GA"},"countryName":"United States","fcodeName":"seat of a second-order administrative division","adminName1":"Georgia","lat":"33.02874","fcode":"PPLA2"},{"adminCode1":"NH","lng":"-71.8123","geonameId":5086935,"toponymName":"Greenville","countryId":"6252001","fcl":"P","population":1108,"countryCode":"US","name":"Greenville","fclName":"city, village,...","adminCodes1":{"ISO3166_2":"NH"},"countryName":"United States","fcodeName":"populated place","adminName1":"New Hampshire","lat":"42.76731","fcode":"PPL"},{"adminCode1":"MI","lng":"-85.2528","geonameId":4994763,"toponymName":"Greenville","countryId":"6252001","fcl":"P","population":8444,"countryCode":"US","name":"Greenville","fclName":"city, village,...","adminCodes1":{"ISO3166_2":"MI"},"countryName":"United States","fcodeName":"populated place","adminName1":"Michigan","lat":"43.17753","fcode":"PPL"},{"adminCode1":"ME","lng":"-69.59061","geonameId":4965978,"toponymName":"Greenville","countryId":"6252001","fcl":"P","population":1257,"countryCode":"US","name":"Greenville","fclName":"city, village,...","adminCodes1":{"ISO3166_2":"ME"},"countryName":"United States","fcodeName":"populated place","adminName1":"Maine","lat":"45.45949","fcode":"PPL"},{"adminCode1":"WI","lng":"-88.5365","geonameId":5255099,"toponymName":"Greenville","countryId":"6252001","fcl":"P","population":0,"countryCode":"US","name":"Greenville","fclName":"city, village,...","adminCodes1":{"ISO3166_2":"WI"},"countryName":"United States","fcodeName":"populated place","adminName1":"Wisconsin","lat":"44.30026","fcode":"PPL"},{"adminCode1":"AL","lng":"-86.61775","geonameId":4065302,"toponymName":"Greenville","countryId":"6252001","fcl":"P","population":7845,"countryCode":"US","name":"Greenville","fclName":"city, village,...","adminCodes1":{"ISO3166_2":"AL"},"countryName":"United States","fcodeName":"seat of a second-order administrative division","adminName1":"Alabama","lat":"31.8296","fcode":"PPLA2"},{"adminCode1":"TN","lng":"-82.83099","geonameId":4626334,"toponymName":"Greeneville","countryId":"6252001","fcl":"P","population":15094,"countryCode":"US","name":"Greeneville","fclName":"city, village,...","adminCodes1":{"ISO3166_2":"TN"},"countryName":"United States","fcodeName":"seat of a second-order administrative division","adminName1":"Tennessee","lat":"36.16316","fcode":"PPLA2"},{"adminCode1":"IN","lng":"-85.98636","geonameId":4258307,"toponymName":"Greenville","countryId":"6252001","fcl":"P","population":730,"countryCode":"US","name":"Greenville","fclName":"city, village,...","adminCodes1":{"ISO3166_2":"IN"},"countryName":"United States","fcodeName":"populated place","adminName1":"Indiana","lat":"38.37256","fcode":"PPL"},{"adminCode1":"PA","lng":"-75.50185","geonameId":5187925,"toponymName":"East Greenville","countryId":"6252001","fcl":"P","population":2985,"countryCode":"US","name":"East Greenville","fclName":"city, village,...","adminCodes1":{"ISO3166_2":"PA"},"countryName":"United States","fcodeName":"populated place","adminName1":"Pennsylvania","lat":"40.40649","fcode":"PPL"},{"adminCode1":"WI","lng":"-88.51927","geonameId":5266045,"toponymName":"Appleton International Airport","countryId":"6252001","fcl":"S","population":0,"countryCode":"US","name":"Appleton Airport","fclName":"spot, building, farm","adminCodes1":{"ISO3166_2":"WI"},"countryName":"United States","fcodeName":"airport","adminName1":"Wisconsin","lat":"44.25721","fcode":"AIRP"},{"adminCode1":"AL","lng":"-86.62136","geonameId":4090943,"toponymName":"South Greenville Historic District","countryId":"6252001","fcl":"L","population":0,"countryCode":"US","name":"South Greenville Historic District","fclName":"parks,area, ...","adminCodes1":{"ISO3166_2":"AL"},"countryName":"United States","fcodeName":"area","adminName1":"Alabama","lat":"31.82599","fcode":"AREA"},{"adminCode1":"KY","lng":"-87.17889","geonameId":4293477,"toponymName":"Greenville","countryId":"6252001","fcl":"P","population":4395,"countryCode":"US","name":"Greenville","fclName":"city, village,...","adminCodes1":{"ISO3166_2":"KY"},"countryName":"United States","fcodeName":"seat of a second-order administrative division","adminName1":"Kentucky","lat":"37.20115","fcode":"PPLA2"},{"adminCode1":"OH","lng":"-84.63023","geonameId":5174185,"toponymName":"Treaty of Greenville State Park","countryId":"6252001","fcl":"L","population":0,"countryCode":"US","name":"Treaty of Greenville State Park","fclName":"parks,area, ...","adminCodes1":{"ISO3166_2":"OH"},"countryName":"United States","fcodeName":"park","adminName1":"Ohio","lat":"40.11005","fcode":"PRK"},{"adminCode1":"ME","lng":"-69.61617","geonameId":4965983,"toponymName":"Greenville Junction","countryId":"6252001","fcl":"P","population":0,"countryCode":"US","name":"Greenville Junction","fclName":"city, village,...","adminCodes1":{"ISO3166_2":"ME"},"countryName":"United States","fcodeName":"populated place","adminName1":"Maine","lat":"45.46088","fcode":"PPL"},{"adminCode1":"SC","lng":"-82.49265","geonameId":7260133,"toponymName":"Slater-Marietta","countryId":"6252001","fcl":"P","population":2176,"countryCode":"US","name":"Slater-Marietta","fclName":"city, village,...","adminCodes1":{"ISO3166_2":"SC"},"countryName":"United States","fcodeName":"populated place","adminName1":"South Carolina","lat":"35.03472","fcode":"PPL"},{"adminCode1":"SC","lng":"-82.42401","geonameId":4594975,"toponymName":"Sans Souci","countryId":"6252001","fcl":"P","population":7869,"countryCode":"US","name":"Sans Souci","fclName":"city, village,...","adminCodes1":{"ISO3166_2":"SC"},"countryName":"United States","fcodeName":"populated place","adminName1":"South Carolina","lat":"34.8779","fcode":"PPL"},{"adminCode1":"SC","lng":"-82.41929","geonameId":4577121,"toponymName":"Dunean","countryId":"6252001","fcl":"P","population":3671,"countryCode":"US","name":"Dunean","fclName":"city, village,...","adminCodes1":{"ISO3166_2":"SC"},"countryName":"United States","fcodeName":"populated place","adminName1":"South Carolina","lat":"34.82484","fcode":"PPL"},{"adminCode1":"SC","lng":"-82.44374","geonameId":4579979,"toponymName":"Golden Grove","countryId":"6252001","fcl":"P","population":2467,"countryCode":"US","name":"Golden Grove","fclName":"city, village,...","adminCodes1":{"ISO3166_2":"SC"},"countryName":"United States","fcodeName":"populated place","adminName1":"South Carolina","lat":"34.73401","fcode":"PPL"},{"adminCode1":"SC","lng":"-82.43151","geonameId":4574835,"toponymName":"City View","countryId":"6252001","fcl":"P","population":1345,"countryCode":"US","name":"City View","fclName":"city, village,...","adminCodes1":{"ISO3166_2":"SC"},"countryName":"United States","fcodeName":"populated place","adminName1":"South Carolina","lat":"34.86151","fcode":"PPL"},{"adminCode1":"SC","lng":"-82.52735","geonameId":4574985,"toponymName":"Cleveland","countryId":"6252001","fcl":"P","population":0,"countryCode":"US","name":"Cleveland","fclName":"city, village,...","adminCodes1":{"ISO3166_2":"SC"},"countryName":"United States","fcodeName":"populated place","adminName1":"South Carolina","lat":"35.07234","fcode":"PPL"},{"adminCode1":"SC","lng":"-82.34984","geonameId":4575417,"toponymName":"Conestee","countryId":"6252001","fcl":"P","population":0,"countryCode":"US","name":"Conestee","fclName":"city, village,...","adminCodes1":{"ISO3166_2":"SC"},"countryName":"United States","fcodeName":"populated place","adminName1":"South Carolina","lat":"34.76817","fcode":"PPL"},{"adminCode1":"SC","lng":"-82.42762","geonameId":4583795,"toponymName":"Judson","countryId":"6252001","fcl":"P","population":2050,"countryCode":"US","name":"Judson","fclName":"city, village,...","adminCodes1":{"ISO3166_2":"SC"},"countryName":"United States","fcodeName":"populated place","adminName1":"South Carolina","lat":"34.83317","fcode":"PPL"},{"adminCode1":"SC","lng":"-82.43901","geonameId":4600413,"toponymName":"Welcome","countryId":"6252001","fcl":"P","population":6668,"countryCode":"US","name":"Welcome","fclName":"city, village,...","adminCodes1":{"ISO3166_2":"SC"},"countryName":"United States","fcodeName":"populated place","adminName1":"South Carolina","lat":"34.82651","fcode":"PPL"},{"adminCode1":"SC","lng":"-82.52679","geonameId":4594713,"toponymName":"Saluda Mountains","countryId":"6252001","fcl":"T","population":0,"countryCode":"US","name":"Saluda Mountains","fclName":"mountain,hill,rock,... ","adminCodes1":{"ISO3166_2":"SC"},"countryName":"United States","fcodeName":"mountains","adminName1":"South Carolina","lat":"35.15623","fcode":"MTS"},{"adminCode1":"SC","lng":"-82.49512","geonameId":4595979,"toponymName":"Slater","countryId":"6252001","fcl":"P","population":0,"countryCode":"US","name":"Slater","fclName":"city, village,...","adminCodes1":{"ISO3166_2":"SC"},"countryName":"United States","fcodeName":"populated place","adminName1":"South Carolina","lat":"35.03178","fcode":"PPL"},{"adminCode1":"SC","lng":"-82.58068","geonameId":4585412,"toponymName":"Little Pinnacle Mountain","countryId":"6252001","fcl":"T","population":0,"countryCode":"US","name":"Little Pinnacle Mountain","fclName":"mountain,hill,rock,... ","adminCodes1":{"ISO3166_2":"SC"},"countryName":"United States","fcodeName":"mountain","adminName1":"South Carolina","lat":"35.11928","fcode":"MT"},{"adminCode1":"SC","lng":"-82.37123","geonameId":4589276,"toponymName":"Nicholtown","countryId":"6252001","fcl":"P","population":0,"countryCode":"US","name":"Nicholtown","fclName":"city, village,...","adminCodes1":{"ISO3166_2":"SC"},"countryName":"United States","fcodeName":"populated place","adminName1":"South Carolina","lat":"34.8404","fcode":"PPL"},{"adminCode1":"SC","lng":"-82.3779","geonameId":4590278,"toponymName":"Overbrook","countryId":"6252001","fcl":"P","population":0,"countryCode":"US","name":"Overbrook","fclName":"city, village,...","adminCodes1":{"ISO3166_2":"SC"},"countryName":"United States","fcodeName":"populated place","adminName1":"South Carolina","lat":"34.85984","fcode":"PPL"},{"adminCode1":"SC","lng":"-82.41068","geonameId":4590442,"toponymName":"Paris Mountain","countryId":"6252001","fcl":"T","population":0,"countryCode":"US","name":"Paris Mountain","fclName":"mountain,hill,rock,... ","adminCodes1":{"ISO3166_2":"SC"},"countryName":"United States","fcodeName":"mountain","adminName1":"South Carolina","lat":"34.94123","fcode":"MT"},{"adminCode1":"SC","lng":"-82.39957","geonameId":4590943,"toponymName":"Piazza Bergamo","countryId":"6252001","fcl":"L","population":0,"countryCode":"US","name":"Piazza Bergamo","fclName":"parks,area, ...","adminCodes1":{"ISO3166_2":"SC"},"countryName":"United States","fcodeName":"park","adminName1":"South Carolina","lat":"34.85206","fcode":"PRK"},{"adminCode1":"SC","lng":"-82.62346","geonameId":4573020,"toponymName":"Caesars Head","countryId":"6252001","fcl":"P","population":0,"countryCode":"US","name":"Caesars Head","fclName":"city, village,...","adminCodes1":{"ISO3166_2":"SC"},"countryName":"United States","fcodeName":"populated place","adminName1":"South Carolina","lat":"35.10567","fcode":"PPL"},{"adminCode1":"SC","lng":"-82.28067","geonameId":4574587,"toponymName":"Chick Springs","countryId":"6252001","fcl":"P","population":0,"countryCode":"US","name":"Chick Springs","fclName":"city, village,...","adminCodes1":{"ISO3166_2":"SC"},"countryName":"United States","fcodeName":"populated place","adminName1":"South Carolina","lat":"34.92706","fcode":"PPL"},{"adminCode1":"SC","lng":"-82.39096","geonameId":4600152,"toponymName":"Ware Place","countryId":"6252001","fcl":"P","population":228,"countryCode":"US","name":"Ware Place","fclName":"city, village,...","adminCodes1":{"ISO3166_2":"SC"},"countryName":"United States","fcodeName":"populated place","adminName1":"South Carolina","lat":"34.62789","fcode":"PPL"},{"adminCode1":"IL","lng":"-89.41314","geonameId":4239867,"toponymName":"Greenville","countryId":"6252001","fcl":"P","population":6666,"countryCode":"US","name":"Greenville","fclName":"city, village,...","adminCodes1":{"ISO3166_2":"IL"},"countryName":"United States","fcodeName":"seat of a second-order administrative division","adminName1":"Illinois","lat":"38.89227","fcode":"PPLA2"},{"adminCode1":"CA","lng":"-120.95107","geonameId":5564488,"toponymName":"Greenville","countryId":"6252001","fcl":"P","population":1129,"countryCode":"US","name":"Greenville","fclName":"city, village,...","adminCodes1":{"ISO3166_2":"CA"},"countryName":"United States","fcodeName":"populated place","adminName1":"California","lat":"40.13961","fcode":"PPL"},{"adminCode1":"FL","lng":"-83.63015","geonameId":4157505,"toponymName":"Greenville","countryId":"6252001","fcl":"P","population":803,"countryCode":"US","name":"Greenville","fclName":"city, village,...","adminCodes1":{"ISO3166_2":"FL"},"countryName":"United States","fcodeName":"populated place","adminName1":"Florida","lat":"30.46937","fcode":"PPL"},{"adminCode1":"IA","lng":"-95.1461","geonameId":4859267,"toponymName":"Greenville","countryId":"6252001","fcl":"P","population":74,"countryCode":"US","name":"Greenville","fclName":"city, village,...","adminCodes1":{"ISO3166_2":"IA"},"countryName":"United States","fcodeName":"populated place","adminName1":"Iowa","lat":"43.01664","fcode":"PPL"},{"adminCode1":"UT","lng":"-112.71244","geonameId":5539965,"toponymName":"Greenville","countryId":"6252001","fcl":"P","population":0,"countryCode":"US","name":"Greenville","fclName":"city, village,...","adminCodes1":{"ISO3166_2":"UT"},"countryName":"United States","fcodeName":"populated place","adminName1":"Utah","lat":"38.25441","fcode":"PPL"},{"adminCode1":"MI","lng":"-85.25861","geonameId":4994739,"toponymName":"Greenville Municipal Airport","countryId":"6252001","fcl":"S","population":0,"countryCode":"US","name":"Greenville Municipal Airport","fclName":"spot, building, farm","adminCodes1":{"ISO3166_2":"MI"},"countryName":"United States","fcodeName":"airport","adminName1":"Michigan","lat":"43.14389","fcode":"AIRP"},{"adminCode1":"SC","lng":"-82.36518","geonameId":7317708,"toponymName":"City of Greenville","countryId":"6252001","fcl":"A","population":58409,"countryCode":"US","name":"City of Greenville","fclName":"country, state, region,...","adminCodes1":{"ISO3166_2":"SC"},"countryName":"United States","fcodeName":"administrative division","adminName1":"South Carolina","lat":"34.83649","fcode":"ADMD"},{"adminCode1":"VA","lng":"-79.15586","geonameId":4762275,"toponymName":"Greenville","countryId":"6252001","fcl":"P","population":832,"countryCode":"US","name":"Greenville","fclName":"city, village,...","adminCodes1":{"ISO3166_2":"VA"},"countryName":"United States","fcodeName":"populated place","adminName1":"Virginia","lat":"38.00347","fcode":"PPL"},{"adminCode1":"RI","lng":"-71.55201","geonameId":5222476,"toponymName":"Greenville","countryId":"6252001","fcl":"P","population":8658,"countryCode":"US","name":"Greenville","fclName":"city, village,...","adminCodes1":{"ISO3166_2":"RI"},"countryName":"United States","fcodeName":"populated place","adminName1":"Rhode Island","lat":"41.87121","fcode":"PPL"},{"adminCode1":"OH","lng":"-81.63151","geonameId":5152665,"toponymName":"East Greenville","countryId":"6252001","fcl":"P","population":0,"countryCode":"US","name":"East Greenville","fclName":"city, village,...","adminCodes1":{"ISO3166_2":"OH"},"countryName":"United States","fcodeName":"populated place","adminName1":"Ohio","lat":"40.7995","fcode":"PPL"},{"adminCode1":"OH","lng":"-84.37773","geonameId":5156503,"toponymName":"Greenville Falls State Nature Preserve","countryId":"6252001","fcl":"L","population":0,"countryCode":"US","name":"Greenville Falls State Nature Preserve","fclName":"parks,area, ...","adminCodes1":{"ISO3166_2":"OH"},"countryName":"United States","fcodeName":"park","adminName1":"Ohio","lat":"40.10422","fcode":"PRK"},{"adminCode1":"NY","lng":"-74.02208","geonameId":5119401,"toponymName":"Greenville","countryId":"6252001","fcl":"P","population":688,"countryCode":"US","name":"Greenville","fclName":"city, village,...","adminCodes1":{"ISO3166_2":"NY"},"countryName":"United States","fcodeName":"populated place","adminName1":"New York","lat":"42.41536","fcode":"PPL"},{"adminCode1":"GA","lng":"-84.71622","geonameId":7169545,"toponymName":"City of Greenville","countryId":"6252001","fcl":"A","population":876,"countryCode":"US","name":"City of Greenville","fclName":"country, state, region,...","adminCodes1":{"ISO3166_2":"GA"},"countryName":"United States","fcodeName":"third-order administrative division","adminName1":"Georgia","lat":"33.03224","fcode":"ADM3"},{"adminCode1":"SC","lng":"-82.19904","geonameId":7169472,"toponymName":"City of Fountain Inn","countryId":"6252001","fcl":"A","population":7799,"countryCode":"US","name":"City of Fountain Inn","fclName":"country, state, region,...","adminCodes1":{"ISO3166_2":"SC"},"countryName":"United States","fcodeName":"administrative division","adminName1":"South Carolina","lat":"34.69889","fcode":"ADMD"},{"adminCode1":"SC","lng":"-82.25718","geonameId":7170821,"toponymName":"City of Simpsonville","countryId":"6252001","fcl":"A","population":18238,"countryCode":"US","name":"City of Simpsonville","fclName":"country, state, region,...","adminCodes1":{"ISO3166_2":"SC"},"countryName":"United States","fcodeName":"administrative division","adminName1":"South Carolina","lat":"34.72938","fcode":"ADMD"},{"adminCode1":"SC","lng":"-82.23459","geonameId":7317712,"toponymName":"City of Greer","countryId":"6252001","fcl":"A","population":25515,"countryCode":"US","name":"City of Greer","fclName":"country, state, region,...","adminCodes1":{"ISO3166_2":"SC"},"countryName":"United States","fcodeName":"administrative division","adminName1":"South Carolina","lat":"34.93721","fcode":"ADMD"},{"adminCode1":"SC","lng":"-82.29977","geonameId":7318090,"toponymName":"City of Mauldin","countryId":"6252001","fcl":"A","population":22889,"countryCode":"US","name":"City of Mauldin","fclName":"country, state, region,...","adminCodes1":{"ISO3166_2":"SC"},"countryName":"United States","fcodeName":"administrative division","adminName1":"South Carolina","lat":"34.7865","fcode":"ADMD"},{"adminCode1":"SC","lng":"-82.44074","geonameId":7318160,"toponymName":"City of Travelers Rest","countryId":"6252001","fcl":"A","population":4576,"countryCode":"US","name":"City of Travelers Rest","fclName":"country, state, region,...","adminCodes1":{"ISO3166_2":"SC"},"countryName":"United States","fcodeName":"administrative division","adminName1":"South Carolina","lat":"34.96823","fcode":"ADMD"},{"adminCode1":"SC","lng":"-82.40151","geonameId":4592626,"toponymName":"Reedy River Falls Park","countryId":"6252001","fcl":"L","population":0,"countryCode":"US","name":"Reedy River Falls Park","fclName":"parks,area, ...","adminCodes1":{"ISO3166_2":"SC"},"countryName":"United States","fcodeName":"park","adminName1":"South Carolina","lat":"34.84373","fcode":"PRK"},{"adminCode1":"SC","lng":"-82.54179","geonameId":4592968,"toponymName":"River Falls","countryId":"6252001","fcl":"P","population":0,"countryCode":"US","name":"River Falls","fclName":"city, village,...","adminCodes1":{"ISO3166_2":"SC"},"countryName":"United States","fcodeName":"populated place","adminName1":"South Carolina","lat":"35.12401","fcode":"PPL"},{"adminCode1":"SC","lng":"-82.39346","geonameId":4593257,"toponymName":"Rockwood Park","countryId":"6252001","fcl":"L","population":0,"countryCode":"US","name":"Rockwood Park","fclName":"parks,area, ...","adminCodes1":{"ISO3166_2":"SC"},"countryName":"United States","fcodeName":"park","adminName1":"South Carolina","lat":"34.81734","fcode":"PRK"},{"adminCode1":"SC","lng":"-82.23595","geonameId":4593545,"toponymName":"Rotary Park","countryId":"6252001","fcl":"L","population":0,"countryCode":"US","name":"Rotary Park","fclName":"parks,area, ...","adminCodes1":{"ISO3166_2":"SC"},"countryName":"United States","fcodeName":"park","adminName1":"South Carolina","lat":"34.93706","fcode":"PRK"},{"adminCode1":"SC","lng":"-82.50105","geonameId":4593694,"toponymName":"Rutledge Lake","countryId":"6252001","fcl":"H","population":0,"countryCode":"US","name":"Rutledge Lake","fclName":"stream, lake, ...","adminCodes1":{"ISO3166_2":"SC"},"countryName":"United States","fcodeName":"lake","adminName1":"South Carolina","lat":"34.91189","fcode":"LK"},{"adminCode1":"SC","lng":"-82.43096","geonameId":4584498,"toponymName":"Lakeside Park","countryId":"6252001","fcl":"L","population":0,"countryCode":"US","name":"Lakeside Park","fclName":"parks,area, ...","adminCodes1":{"ISO3166_2":"SC"},"countryName":"United States","fcodeName":"park","adminName1":"South Carolina","lat":"34.76345","fcode":"PRK"},{"adminCode1":"SC","lng":"-82.33456","geonameId":4585119,"toponymName":"Lickville","countryId":"6252001","fcl":"P","population":0,"countryCode":"US","name":"Lickville","fclName":"city, village,...","adminCodes1":{"ISO3166_2":"SC"},"countryName":"United States","fcodeName":"populated place","adminName1":"South Carolina","lat":"34.61789","fcode":"PPL"},{"adminCode1":"SC","lng":"-82.50151","geonameId":4586259,"toponymName":"Marietta","countryId":"6252001","fcl":"P","population":0,"countryCode":"US","name":"Marietta","fclName":"city, village,...","adminCodes1":{"ISO3166_2":"SC"},"countryName":"United States","fcodeName":"populated place","adminName1":"South Carolina","lat":"35.02095","fcode":"PPL"},{"adminCode1":"SC","lng":"-82.39318","geonameId":4586856,"toponymName":"McPherson Park","countryId":"6252001","fcl":"L","population":0,"countryCode":"US","name":"McPherson Park","fclName":"parks,area, ...","adminCodes1":{"ISO3166_2":"SC"},"countryName":"United States","fcodeName":"park","adminName1":"South Carolina","lat":"34.85706","fcode":"PRK"},{"adminCode1":"SC","lng":"-82.40484","geonameId":4586895,"toponymName":"Meadowbrook Park","countryId":"6252001","fcl":"L","population":0,"countryCode":"US","name":"Meadowbrook Park","fclName":"parks,area, ...","adminCodes1":{"ISO3166_2":"SC"},"countryName":"United States","fcodeName":"park","adminName1":"South Carolina","lat":"34.85067","fcode":"PRK"},{"adminCode1":"SC","lng":"-82.3554","geonameId":4589524,"toponymName":"Northside PArk","countryId":"6252001","fcl":"L","population":0,"countryCode":"US","name":"Northside PArk","fclName":"parks,area, ...","adminCodes1":{"ISO3166_2":"SC"},"countryName":"United States","fcodeName":"park","adminName1":"South Carolina","lat":"34.95901","fcode":"PRK"},{"adminCode1":"SC","lng":"-82.39207","geonameId":4589549,"toponymName":"Northwood Industrial Park","countryId":"6252001","fcl":"L","population":0,"countryCode":"US","name":"Northwood Industrial Park","fclName":"parks,area, ...","adminCodes1":{"ISO3166_2":"SC"},"countryName":"United States","fcodeName":"industrial area","adminName1":"South Carolina","lat":"34.88178","fcode":"INDS"},{"adminCode1":"SC","lng":"-82.28095","geonameId":4589569,"toponymName":"O'Neal","countryId":"6252001","fcl":"P","population":0,"countryCode":"US","name":"O'Neal","fclName":"city, village,...","adminCodes1":{"ISO3166_2":"SC"},"countryName":"United States","fcodeName":"populated place","adminName1":"South Carolina","lat":"35.00734","fcode":"PPL"},{"adminCode1":"SC","lng":"-82.51207","geonameId":4590229,"toponymName":"Osborne Mountain","countryId":"6252001","fcl":"T","population":0,"countryCode":"US","name":"Osborne Mountain","fclName":"mountain,hill,rock,... ","adminCodes1":{"ISO3166_2":"SC"},"countryName":"United States","fcodeName":"mountain","adminName1":"South Carolina","lat":"35.12762","fcode":"MT"},{"adminCode1":"SC","lng":"-82.3954","geonameId":4590444,"toponymName":"Paris Mountain State Park","countryId":"6252001","fcl":"L","population":0,"countryCode":"US","name":"Paris Mountain State Park","fclName":"parks,area, ...","adminCodes1":{"ISO3166_2":"SC"},"countryName":"United States","fcodeName":"park","adminName1":"South Carolina","lat":"34.94512","fcode":"PRK"},{"adminCode1":"SC","lng":"-82.32206","geonameId":4590643,"toponymName":"Pax Mountain","countryId":"6252001","fcl":"T","population":0,"countryCode":"US","name":"Pax Mountain","fclName":"mountain,hill,rock,... ","adminCodes1":{"ISO3166_2":"SC"},"countryName":"United States","fcodeName":"mountain","adminName1":"South Carolina","lat":"35.06595","fcode":"MT"},{"adminCode1":"SC","lng":"-82.23011","geonameId":4590733,"toponymName":"Pelham Industrial Park","countryId":"6252001","fcl":"L","population":0,"countryCode":"US","name":"Pelham Industrial Park","fclName":"parks,area, ...","adminCodes1":{"ISO3166_2":"SC"},"countryName":"United States","fcodeName":"industrial area","adminName1":"South Carolina","lat":"34.8529","fcode":"INDS"},{"adminCode1":"SC","lng":"-82.38984","geonameId":4590904,"toponymName":"Pettigru Street Historic District","countryId":"6252001","fcl":"L","population":0,"countryCode":"US","name":"Pettigru Street Historic District","fclName":"parks,area, ...","adminCodes1":{"ISO3166_2":"SC"},"countryName":"United States","fcodeName":"park","adminName1":"South Carolina","lat":"34.85012","fcode":"PRK"},{"adminCode1":"SC","lng":"-82.42707","geonameId":4590990,"toponymName":"Piedmont Industrial Park","countryId":"6252001","fcl":"L","population":0,"countryCode":"US","name":"Piedmont Industrial Park","fclName":"parks,area, ...","adminCodes1":{"ISO3166_2":"SC"},"countryName":"United States","fcodeName":"industrial area","adminName1":"South Carolina","lat":"34.7904","fcode":"INDS"},{"adminCode1":"SC","lng":"-82.48207","geonameId":4591640,"toponymName":"Pleasant Ridge State Park","countryId":"6252001","fcl":"L","population":0,"countryCode":"US","name":"Pleasant Ridge State Park","fclName":"parks,area, ...","adminCodes1":{"ISO3166_2":"SC"},"countryName":"United States","fcodeName":"park","adminName1":"South Carolina","lat":"35.09206","fcode":"PRK"},{"adminCode1":"SC","lng":"-82.34568","geonameId":4591665,"toponymName":"Pleasantburg Industrial Park","countryId":"6252001","fcl":"L","population":0,"countryCode":"US","name":"Pleasantburg Industrial Park","fclName":"parks,area, ...","adminCodes1":{"ISO3166_2":"SC"},"countryName":"United States","fcodeName":"industrial area","adminName1":"South Carolina","lat":"34.83734","fcode":"INDS"},{"adminCode1":"SC","lng":"-82.41123","geonameId":4591707,"toponymName":"Poe Mill Park","countryId":"6252001","fcl":"L","population":0,"countryCode":"US","name":"Poe Mill Park","fclName":"parks,area, ...","adminCodes1":{"ISO3166_2":"SC"},"countryName":"United States","fcodeName":"park","adminName1":"South Carolina","lat":"34.87206","fcode":"PRK"}]}
