{"totalResultsCount":10,"geonames":[{"adminCode1":"ND","lng":"-103.93799","geonameId":5689410,"toponymName":"Grenora","countryId":"6252001","fcl":"P","population":250,"countryCode":"US","name":"Grenora","fclName":"city, village,...","adminCodes1":{"ISO3166_2":"ND"},"countryName":"United States","fcodeName":"populated place","adminName1":"North Dakota","lat":"48.61836","fcode":"PPL"},{"adminCode1":"ND","lng":"-103.93666","geonameId":5689412,"toponymName":"City of Grenora","countryId":"6252001","fcl":"A","population":244,"countryCode":"US","name":"City of Grenora","fclName":"country, state, region,...","adminCodes1":{"ISO3166_2":"ND"},"countryName":"United States","fcodeName":"third-order administrative division","adminName1":"North Dakota","lat":"48.6199","fcode":"ADM3"},{"adminCode1":"ND","lng":"-104.02188","geonameId":5689413,"toponymName":"Township of Grenora","countryId":"6252001","fcl":"A","population":0,"countryCode":"US","name":"Grenora Township","fclName":"country, state, region,...","adminCodes1":{"ISO3166_2":"ND"},"countryName":"United States","fcodeName":"administrative division","adminName1":"North Dakota","lat":"48.58336","fcode":"ADMD"},{"adminCode1":"ND","lng":"-103.93576","geonameId":5689411,"toponymName":"Grenora AAirport","countryId":"6252001","fcl":"S","population":0,"countryCode":"US","name":"Grenora AAirport","fclName":"spot, building, farm","adminCodes1":{"ISO3166_2":"ND"},"countryName":"United States","fcodeName":"airport","adminName1":"North Dakota","lat":"48.62531","fcode":"AIRP"},{"adminCode1":"ND","lng":"-103.93762","geonameId":8503120,"toponymName":"Grenora Post Office","countryId":"6252001","fcl":"S","population":0,"countryCode":"US","name":"Grenora Post Office","fclName":"spot, building, farm","adminCodes1":{"ISO3166_2":"ND"},"countryName":"United States","fcodeName":"post office","adminName1":"North Dakota","lat":"48.61777","fcode":"PO"},{"adminCode1":"ND","lng":"-103.93382","geonameId":5689409,"toponymName":"Grendra Airfield (historical)","countryId":"6252001","fcl":"S","population":0,"countryCode":"US","name":"Grendra Airfield (historical)","fclName":"spot, building, farm","adminCodes1":{"ISO3166_2":"ND"},"countryName":"United States","fcodeName":"abandoned airfield","adminName1":"North Dakota","lat":"48.61669","fcode":"AIRQ"},{"adminCode1":"ND","lng":"-103.9376","geonameId":8101329,"toponymName":"Grenora Ambulance Service","countryId":"6252001","fcl":"S","population":0,"countryCode":"US","name":"Grenora Ambulance Service","fclName":"spot, building, farm","adminCodes1":{"ISO3166_2":"ND"},"countryName":"United States","fcodeName":"building(s)","adminName1":"North Dakota","lat":"48.61905","fcode":"BLDG"},{"adminCode1":"ND","lng":"-103.93683","geonameId":8088975,"toponymName":"Grenora Fire Protection District Station","countryId":"6252001","fcl":"S","population":0,"countryCode":"US","name":"Grenora Fire Protection District Station","fclName":"spot, building, farm","adminCodes1":{"ISO3166_2":"ND"},"countryName":"United States","fcodeName":"building(s)","adminName1":"North Dakota","lat":"48.61879","fcode":"BLDG"},{"adminCode1":"ND","lng":"-103.93779","geonameId":9681820,"toponymName":"Grenora City Hall","countryId":"6252001","fcl":"S","population":0,"countryCode":"US","name":"Grenora City Hall","fclName":"spot, building, farm","adminCodes1":{"ISO3166_2":"ND"},"countryName":"United States","fcodeName":"building(s)","adminName1":"North Dakota","lat":"48.61681","fcode":"BLDG"},{"adminCode1":"ND","lng":"-103.93327","geonameId":9683000,"toponymName":"Grenora Public School","countryId":"6252001","fcl":"S","population":0,"countryCode":"US","name":"Grenora Public School","fclName":"spot, building, farm","adminCodes1":{"ISO3166_2":"ND"},"countryName":"United States","fcodeName":"school","adminName1":"North Dakota","lat":"48.62078","fcode":"SCH"}]}
