{"totalResultsCount":9,"geonames":[{"adminCode1":"MT","lng":"-113.73223","geonameId":5684022,"toponymName":"Upper Grinnell Lake","countryId":"6252001","fcl":"H","population":0,"countryCode":"US","name":"Upper Grinnell Lake","fclName":"stream, lake, ...","adminCodes1":{"ISO3166_2":"MT"},"countryName":"United States","fcodeName":"lake","adminName1":"Montana","lat":"48.75942","fcode":"LK"},{"adminCode1":"MT","lng":"-113.7048","geonameId":5655514,"toponymName":"Grinnell Lake","countryId":"6252001","fcl":"H","population":0,"countryCode":"US","name":"Grinnell Lake","fclName":"stream, lake, ...","adminCodes1":{"ISO3166_2":"MT"},"countryName":"United States","fcodeName":"lake","adminName1":"Montana","lat":"48.76581","fcode":"LK"},{"adminCode1":"MT","lng":"-113.68289","geonameId":5655515,"toponymName":"Grinnell Point","countryId":"6252001","fcl":"T","population":0,"countryCode":"US","name":"Grinnell Point","fclName":"mountain,hill,rock,... ","adminCodes1":{"ISO3166_2":"MT"},"countryName":"United States","fcodeName":"cliff(s)","adminName1":"Montana","lat":"48.78748","fcode":"CLF"},{"adminCode1":"MT","lng":"-113.72706","geonameId":5655516,"toponymName":"Mount Grinnell","countryId":"6252001","fcl":"T","population":0,"countryCode":"US","name":"Mount Grinnell","fclName":"mountain,hill,rock,... ","adminCodes1":{"ISO3166_2":"MT"},"countryName":"United States","fcodeName":"mountain","adminName1":"Montana","lat":"48.77664","fcode":"MT"},{"adminCode1":"MT","lng":"-113.72702","geonameId":5655529,"toponymName":"Grinnell Glacier","countryId":"6252001","fcl":"H","population":0,"countryCode":"US","name":"Grinnell Glacier","fclName":"stream, lake, ...","adminCodes1":{"ISO3166_2":"MT"},"countryName":"United States","fcodeName":"glacier(s)","adminName1":"Montana","lat":"48.75239","fcode":"GLCR"},{"adminCode1":"MT","lng":"-113.7065","geonameId":5655513,"toponymName":"Grinnell Glacier Trail","countryId":"6252001","fcl":"R","population":0,"countryCode":"US","name":"Grinnell Glacier Trail","fclName":"road, railroad ","adminCodes1":{"ISO3166_2":"MT"},"countryName":"United States","fcodeName":"trail","adminName1":"Montana","lat":"48.77387","fcode":"TRL"},{"adminCode1":"MT","lng":"-113.69345","geonameId":5655511,"toponymName":"Grinnell Creek","countryId":"6252001","fcl":"H","population":0,"countryCode":"US","name":"Grinnell Creek","fclName":"stream, lake, ...","adminCodes1":{"ISO3166_2":"MT"},"countryName":"United States","fcodeName":"stream","adminName1":"Montana","lat":"48.77081","fcode":"STM"},{"adminCode1":"MT","lng":"-113.72019","geonameId":5655512,"toponymName":"Grinnell Falls","countryId":"6252001","fcl":"H","population":0,"countryCode":"US","name":"Grinnell Falls","fclName":"stream, lake, ...","adminCodes1":{"ISO3166_2":"MT"},"countryName":"United States","fcodeName":"overfalls","adminName1":"Montana","lat":"48.76275","fcode":"OVF"},{"adminCode1":"AK","lng":"-144.8058","geonameId":5863417,"toponymName":"Grinnell Glacier","countryId":"6252001","fcl":"H","population":0,"countryCode":"US","name":"Grinnell Glacier","fclName":"stream, lake, ...","adminCodes1":{"ISO3166_2":"AK"},"countryName":"United States","fcodeName":"glacier(s)","adminName1":"Alaska","lat":"60.71523","fcode":"GLCR"}]}
