{"totalResultsCount":1454,"geonames":[{"adminCode1":"TN","lng":"-85.72258","geonameId":4626743,"toponymName":"Grundy County","countryId":"6252001","fcl":"A","population":13703,"countryCode":"US","name":"Grundy","fclName":"country, state, region,...","adminCodes1":{"ISO3166_2":"TN"},"countryName":"United States","fcodeName":"second-order administrative division","adminName1":"Tennessee","lat":"35.38837","fcode":"ADM2"},{"adminCode1":"IA","lng":"-92.79142","geonameId":4859441,"toponymName":"Grundy County","countryId":"6252001","fcl":"A","population":12453,"countryCode":"US","name":"Grundy","fclName":"country, state, region,...","adminCodes1":{"ISO3166_2":"IA"},"countryName":"United States","fcodeName":"second-order administrative division","adminName1":"Iowa","lat":"42.40187","fcode":"ADM2"},{"adminCode1":"IL","lng":"-88.4185","geonameId":4894828,"toponymName":"Grundy County","countryId":"6252001","fcl":"A","population":50063,"countryCode":"US","name":"Grundy","fclName":"country, state, region,...","adminCodes1":{"ISO3166_2":"IL"},"countryName":"United States","fcodeName":"second-order administrative division","adminName1":"Illinois","lat":"41.28509","fcode":"ADM2"},{"adminCode1":"MO","lng":"-93.59172","geonameId":5057568,"toponymName":"Trenton Municipal Airport","countryId":"6252001","fcl":"S","population":0,"countryCode":"US","name":"Trenton Municipal Airport","fclName":"spot, building, farm","adminCodes1":{"ISO3166_2":"MO"},"countryName":"United States","fcodeName":"airport","adminName1":"Missouri","lat":"40.07911","fcode":"AIRP"},{"adminCode1":"MO","lng":"-93.56534","geonameId":5055285,"toponymName":"Grundy County","countryId":"6252001","fcl":"A","population":10261,"countryCode":"US","name":"Grundy","fclName":"country, state, region,...","adminCodes1":{"ISO3166_2":"MO"},"countryName":"United States","fcodeName":"second-order administrative division","adminName1":"Missouri","lat":"40.11393","fcode":"ADM2"},{"adminCode1":"TN","lng":"-85.71636","geonameId":4626754,"toponymName":"Grundy Lakes Game Preserve","countryId":"6252001","fcl":"L","population":0,"countryCode":"US","name":"Grundy Lakes Game Preserve","fclName":"parks,area, ...","adminCodes1":{"ISO3166_2":"TN"},"countryName":"United States","fcodeName":"park","adminName1":"Tennessee","lat":"35.27036","fcode":"PRK"},{"adminCode1":"TN","lng":"-85.73608","geonameId":4663110,"toponymName":"Tracy City","countryId":"6252001","fcl":"P","population":1440,"countryCode":"US","name":"Tracy City","fclName":"city, village,...","adminCodes1":{"ISO3166_2":"TN"},"countryName":"United States","fcodeName":"populated place","adminName1":"Tennessee","lat":"35.26036","fcode":"PPL"},{"adminCode1":"IA","lng":"-92.59936","geonameId":4872729,"toponymName":"Reinbeck","countryId":"6252001","fcl":"P","population":1639,"countryCode":"US","name":"Reinbeck","fclName":"city, village,...","adminCodes1":{"ISO3166_2":"IA"},"countryName":"United States","fcodeName":"populated place","adminName1":"Iowa","lat":"42.3236","fcode":"PPL"},{"adminCode1":"IA","lng":"-92.87465","geonameId":4852519,"toponymName":"Conrad","countryId":"6252001","fcl":"P","population":1100,"countryCode":"US","name":"Conrad","fclName":"city, village,...","adminCodes1":{"ISO3166_2":"IA"},"countryName":"United States","fcodeName":"populated place","adminName1":"Iowa","lat":"42.22471","fcode":"PPL"},{"adminCode1":"IA","lng":"-92.62825","geonameId":4854158,"toponymName":"Dike","countryId":"6252001","fcl":"P","population":1289,"countryCode":"US","name":"Dike","fclName":"city, village,...","adminCodes1":{"ISO3166_2":"IA"},"countryName":"United States","fcodeName":"populated place","adminName1":"Iowa","lat":"42.46415","fcode":"PPL"},{"adminCode1":"IL","lng":"-88.26173","geonameId":4902386,"toponymName":"Minooka","countryId":"6252001","fcl":"P","population":11243,"countryCode":"US","name":"Minooka","fclName":"city, village,...","adminCodes1":{"ISO3166_2":"IL"},"countryName":"United States","fcodeName":"populated place","adminName1":"Illinois","lat":"41.45531","fcode":"PPL"},{"adminCode1":"MO","lng":"-93.66216","geonameId":5054636,"toponymName":"Crowder State Park","countryId":"6252001","fcl":"L","population":0,"countryCode":"US","name":"Crowder State Park","fclName":"parks,area, ...","adminCodes1":{"ISO3166_2":"MO"},"countryName":"United States","fcodeName":"park","adminName1":"Missouri","lat":"40.09473","fcode":"PRK"},{"adminCode1":"IA","lng":"-92.76853","geonameId":4859430,"toponymName":"Grundy Center","countryId":"6252001","fcl":"P","population":2714,"countryCode":"US","name":"Grundy Center","fclName":"city, village,...","adminCodes1":{"ISO3166_2":"IA"},"countryName":"United States","fcodeName":"seat of a second-order administrative division","adminName1":"Iowa","lat":"42.36165","fcode":"PPLA2"},{"adminCode1":"IL","lng":"-88.30978","geonameId":4893472,"toponymName":"Gardner","countryId":"6252001","fcl":"P","population":1434,"countryCode":"US","name":"Gardner","fclName":"city, village,...","adminCodes1":{"ISO3166_2":"IL"},"countryName":"United States","fcodeName":"populated place","adminName1":"Illinois","lat":"41.18559","fcode":"PPL"},{"adminCode1":"IL","lng":"-88.43535","geonameId":4893564,"toponymName":"Gebhard Woods State Park","countryId":"6252001","fcl":"L","population":0,"countryCode":"US","name":"Gebhard Woods State Park","fclName":"parks,area, ...","adminCodes1":{"ISO3166_2":"IL"},"countryName":"United States","fcodeName":"park","adminName1":"Illinois","lat":"41.35698","fcode":"PRK"},{"adminCode1":"IL","lng":"-88.42118","geonameId":4902706,"toponymName":"Morris","countryId":"6252001","fcl":"P","population":14363,"countryCode":"US","name":"Morris","fclName":"city, village,...","adminCodes1":{"ISO3166_2":"IL"},"countryName":"United States","fcodeName":"seat of a second-order administrative division","adminName1":"Illinois","lat":"41.35725","fcode":"PPLA2"},{"adminCode1":"IL","lng":"-88.28562","geonameId":4888270,"toponymName":"Coal City","countryId":"6252001","fcl":"P","population":5489,"countryCode":"US","name":"Coal City","fclName":"city, village,...","adminCodes1":{"ISO3166_2":"IL"},"countryName":"United States","fcodeName":"populated place","adminName1":"Illinois","lat":"41.28781","fcode":"PPL"},{"adminCode1":"TN","lng":"-85.56775","geonameId":4647809,"toponymName":"Palmer","countryId":"6252001","fcl":"P","population":662,"countryCode":"US","name":"Palmer","fclName":"city, village,...","adminCodes1":{"ISO3166_2":"TN"},"countryName":"United States","fcodeName":"populated place","adminName1":"Tennessee","lat":"35.35118","fcode":"PPL"},{"adminCode1":"TN","lng":"-85.88081","geonameId":4648641,"toponymName":"Pelham","countryId":"6252001","fcl":"P","population":403,"countryCode":"US","name":"Pelham","fclName":"city, village,...","adminCodes1":{"ISO3166_2":"TN"},"countryName":"United States","fcodeName":"populated place","adminName1":"Tennessee","lat":"35.31008","fcode":"PPL"},{"adminCode1":"TN","lng":"-85.58331","geonameId":4658864,"toponymName":"South Cumberland Recreation Area","countryId":"6252001","fcl":"L","population":0,"countryCode":"US","name":"South Cumberland Recreation Area","fclName":"parks,area, ...","adminCodes1":{"ISO3166_2":"TN"},"countryName":"United States","fcodeName":"park","adminName1":"Tennessee","lat":"35.4584","fcode":"PRK"},{"adminCode1":"TN","lng":"-85.65414","geonameId":4605169,"toponymName":"Beersheba Springs","countryId":"6252001","fcl":"P","population":470,"countryCode":"US","name":"Beersheba Springs","fclName":"city, village,...","adminCodes1":{"ISO3166_2":"TN"},"countryName":"United States","fcodeName":"populated place","adminName1":"Tennessee","lat":"35.46674","fcode":"PPL"},{"adminCode1":"TN","lng":"-85.70414","geonameId":4614370,"toponymName":"Coalmont","countryId":"6252001","fcl":"P","population":821,"countryCode":"US","name":"Coalmont","fclName":"city, village,...","adminCodes1":{"ISO3166_2":"TN"},"countryName":"United States","fcodeName":"populated place","adminName1":"Tennessee","lat":"35.33758","fcode":"PPL"},{"adminCode1":"TN","lng":"-85.61803","geonameId":4626739,"toponymName":"Gruetli-Laager","countryId":"6252001","fcl":"P","population":1776,"countryCode":"US","name":"Gruetli-Laager","fclName":"city, village,...","adminCodes1":{"ISO3166_2":"TN"},"countryName":"United States","fcodeName":"populated place","adminName1":"Tennessee","lat":"35.3723","fcode":"PPL"},{"adminCode1":"TN","lng":"-85.72303","geonameId":4602483,"toponymName":"Altamont","countryId":"6252001","fcl":"P","population":1027,"countryCode":"US","name":"Altamont","fclName":"city, village,...","adminCodes1":{"ISO3166_2":"TN"},"countryName":"United States","fcodeName":"seat of a second-order administrative division","adminName1":"Tennessee","lat":"35.42952","fcode":"PPLA2"},{"adminCode1":"IA","lng":"-92.93853","geonameId":4881170,"toponymName":"Wellsburg","countryId":"6252001","fcl":"P","population":707,"countryCode":"US","name":"Wellsburg","fclName":"city, village,...","adminCodes1":{"ISO3166_2":"IA"},"countryName":"United States","fcodeName":"populated place","adminName1":"Iowa","lat":"42.45915","fcode":"PPL"},{"adminCode1":"IA","lng":"-92.67381","geonameId":4868009,"toponymName":"Morrison","countryId":"6252001","fcl":"P","population":93,"countryCode":"US","name":"Morrison","fclName":"city, village,...","adminCodes1":{"ISO3166_2":"IA"},"countryName":"United States","fcodeName":"populated place","adminName1":"Iowa","lat":"42.34415","fcode":"PPL"},{"adminCode1":"IA","lng":"-92.80048","geonameId":4860853,"toponymName":"Holland","countryId":"6252001","fcl":"P","population":280,"countryCode":"US","name":"Holland","fclName":"city, village,...","adminCodes1":{"ISO3166_2":"IA"},"countryName":"United States","fcodeName":"populated place","adminName1":"Iowa","lat":"42.39887","fcode":"PPL"},{"adminCode1":"IA","lng":"-92.71186","geonameId":4877694,"toponymName":"Stout","countryId":"6252001","fcl":"P","population":223,"countryCode":"US","name":"Stout","fclName":"city, village,...","adminCodes1":{"ISO3166_2":"IA"},"countryName":"United States","fcodeName":"populated place","adminName1":"Iowa","lat":"42.52637","fcode":"PPL"},{"adminCode1":"IA","lng":"-92.82353","geonameId":4847904,"toponymName":"Beaman","countryId":"6252001","fcl":"P","population":192,"countryCode":"US","name":"Beaman","fclName":"city, village,...","adminCodes1":{"ISO3166_2":"IA"},"countryName":"United States","fcodeName":"populated place","adminName1":"Iowa","lat":"42.21971","fcode":"PPL"},{"adminCode1":"IL","lng":"-88.50146","geonameId":4914745,"toponymName":"Verona","countryId":"6252001","fcl":"P","population":212,"countryCode":"US","name":"Verona","fclName":"city, village,...","adminCodes1":{"ISO3166_2":"IL"},"countryName":"United States","fcodeName":"populated place","adminName1":"Illinois","lat":"41.21781","fcode":"PPL"},{"adminCode1":"IL","lng":"-88.25173","geonameId":4889835,"toponymName":"Diamond","countryId":"6252001","fcl":"P","population":2488,"countryCode":"US","name":"Diamond","fclName":"city, village,...","adminCodes1":{"ISO3166_2":"IL"},"countryName":"United States","fcodeName":"populated place","adminName1":"Illinois","lat":"41.28864","fcode":"PPL"},{"adminCode1":"IL","lng":"-88.43535","geonameId":4890360,"toponymName":"Dwight Airport","countryId":"6252001","fcl":"S","population":0,"countryCode":"US","name":"Dwight Airport","fclName":"spot, building, farm","adminCodes1":{"ISO3166_2":"IL"},"countryName":"United States","fcodeName":"airport","adminName1":"Illinois","lat":"41.13267","fcode":"AIRP"},{"adminCode1":"MO","lng":"-93.38688","geonameId":5055093,"toponymName":"Galt","countryId":"6252001","fcl":"P","population":250,"countryCode":"US","name":"Galt","fclName":"city, village,...","adminCodes1":{"ISO3166_2":"MO"},"countryName":"United States","fcodeName":"populated place","adminName1":"Missouri","lat":"40.12863","fcode":"PPL"},{"adminCode1":"MO","lng":"-93.4466","geonameId":5055870,"toponymName":"Laredo","countryId":"6252001","fcl":"P","population":196,"countryCode":"US","name":"Laredo","fclName":"city, village,...","adminCodes1":{"ISO3166_2":"MO"},"countryName":"United States","fcodeName":"populated place","adminName1":"Missouri","lat":"40.02557","fcode":"PPL"},{"adminCode1":"MO","lng":"-93.59439","geonameId":5057373,"toponymName":"Spickard","countryId":"6252001","fcl":"P","population":251,"countryCode":"US","name":"Spickard","fclName":"city, village,...","adminCodes1":{"ISO3166_2":"MO"},"countryName":"United States","fcodeName":"populated place","adminName1":"Missouri","lat":"40.2439","fcode":"PPL"},{"adminCode1":"MO","lng":"-93.61661","geonameId":5057562,"toponymName":"Trenton","countryId":"6252001","fcl":"P","population":5896,"countryCode":"US","name":"Trenton","fclName":"city, village,...","adminCodes1":{"ISO3166_2":"MO"},"countryName":"United States","fcodeName":"seat of a second-order administrative division","adminName1":"Missouri","lat":"40.0789","fcode":"PPLA2"},{"adminCode1":"IL","lng":"-88.27673","geonameId":4912054,"toponymName":"South Wilmington","countryId":"6252001","fcl":"P","population":661,"countryCode":"US","name":"South Wilmington","fclName":"city, village,...","adminCodes1":{"ISO3166_2":"IL"},"countryName":"United States","fcodeName":"populated place","adminName1":"Illinois","lat":"41.17281","fcode":"PPL"},{"adminCode1":"IL","lng":"-88.3084","geonameId":4894098,"toponymName":"Goose Lake Prairie State Park","countryId":"6252001","fcl":"L","population":0,"countryCode":"US","name":"Goose Lake Prairie State Park","fclName":"parks,area, ...","adminCodes1":{"ISO3166_2":"IL"},"countryName":"United States","fcodeName":"park","adminName1":"Illinois","lat":"41.36475","fcode":"PRK"},{"adminCode1":"IL","lng":"-88.3359","geonameId":4895511,"toponymName":"Heidecke State Fish and Wildlife Area","countryId":"6252001","fcl":"L","population":0,"countryCode":"US","name":"Heidecke State Fish and Wildlife Area","fclName":"parks,area, ...","adminCodes1":{"ISO3166_2":"IL"},"countryName":"United States","fcodeName":"park","adminName1":"Illinois","lat":"41.3667","fcode":"PRK"},{"adminCode1":"IL","lng":"-88.2584","geonameId":4898199,"toponymName":"Kankakee River","countryId":"6252001","fcl":"H","population":0,"countryCode":"US","name":"Kankakee River","fclName":"stream, lake, ...","adminCodes1":{"ISO3166_2":"IL"},"countryName":"United States","fcodeName":"stream","adminName1":"Illinois","lat":"41.3917","fcode":"STM"},{"adminCode1":"IL","lng":"-88.56951","geonameId":4898609,"toponymName":"Kinsman","countryId":"6252001","fcl":"P","population":98,"countryCode":"US","name":"Kinsman","fclName":"city, village,...","adminCodes1":{"ISO3166_2":"IL"},"countryName":"United States","fcodeName":"populated place","adminName1":"Illinois","lat":"41.18976","fcode":"PPL"},{"adminCode1":"IL","lng":"-88.26478","geonameId":4885403,"toponymName":"Braceville","countryId":"6252001","fcl":"P","population":769,"countryCode":"US","name":"Braceville","fclName":"city, village,...","adminCodes1":{"ISO3166_2":"IL"},"countryName":"United States","fcodeName":"populated place","adminName1":"Illinois","lat":"41.22698","fcode":"PPL"},{"adminCode1":"IL","lng":"-88.41785","geonameId":4916601,"toponymName":"William Stratton State Access Area","countryId":"6252001","fcl":"L","population":0,"countryCode":"US","name":"William Stratton State Access Area","fclName":"parks,area, ...","adminCodes1":{"ISO3166_2":"IL"},"countryName":"United States","fcodeName":"park","adminName1":"Illinois","lat":"41.35531","fcode":"PRK"},{"adminCode1":"IL","lng":"-88.41951","geonameId":4901525,"toponymName":"Mazon","countryId":"6252001","fcl":"P","population":989,"countryCode":"US","name":"Mazon","fclName":"city, village,...","adminCodes1":{"ISO3166_2":"IL"},"countryName":"United States","fcodeName":"populated place","adminName1":"Illinois","lat":"41.24142","fcode":"PPL"},{"adminCode1":"IL","lng":"-88.27089","geonameId":4901531,"toponymName":"Mazonia State Fish and Wildlife Area","countryId":"6252001","fcl":"L","population":0,"countryCode":"US","name":"Mazonia State Fish and Wildlife Area","fclName":"parks,area, ...","adminCodes1":{"ISO3166_2":"IL"},"countryName":"United States","fcodeName":"park","adminName1":"Illinois","lat":"41.19753","fcode":"PRK"},{"adminCode1":"TN","lng":"-85.66303","geonameId":4093214,"toponymName":"Tennessee Valley Divide","countryId":"6252001","fcl":"T","population":0,"countryCode":"US","name":"Tennessee Valley Divide","fclName":"mountain,hill,rock,... ","adminCodes1":{"ISO3166_2":"TN"},"countryName":"United States","fcodeName":"ridge(s)","adminName1":"Tennessee","lat":"35.36063","fcode":"RDGE"},{"adminCode1":"IA","lng":"-92.57408","geonameId":4857755,"toponymName":"Fredsville","countryId":"6252001","fcl":"P","population":0,"countryCode":"US","name":"Fredsville","fclName":"city, village,...","adminCodes1":{"ISO3166_2":"IA"},"countryName":"United States","fcodeName":"populated place","adminName1":"Iowa","lat":"42.48415","fcode":"PPL"},{"adminCode1":"IA","lng":"-92.74881","geonameId":4882359,"toponymName":"Wolfe Family Preserve","countryId":"6252001","fcl":"L","population":0,"countryCode":"US","name":"Wolfe Family Preserve","fclName":"parks,area, ...","adminCodes1":{"ISO3166_2":"IA"},"countryName":"United States","fcodeName":"park","adminName1":"Iowa","lat":"42.35971","fcode":"PRK"},{"adminCode1":"IA","lng":"-92.55214","geonameId":4882656,"toponymName":"Zaneta","countryId":"6252001","fcl":"P","population":0,"countryCode":"US","name":"Zaneta","fclName":"city, village,...","adminCodes1":{"ISO3166_2":"IA"},"countryName":"United States","fcodeName":"populated place","adminName1":"Iowa","lat":"42.3936","fcode":"PPL"},{"adminCode1":"IA","lng":"-92.94409","geonameId":4862276,"toponymName":"Ivester","countryId":"6252001","fcl":"P","population":0,"countryCode":"US","name":"Ivester","fclName":"city, village,...","adminCodes1":{"ISO3166_2":"IA"},"countryName":"United States","fcodeName":"populated place","adminName1":"Iowa","lat":"42.33971","fcode":"PPL"},{"adminCode1":"IA","lng":"-92.71048","geonameId":4876094,"toponymName":"Shearin Park","countryId":"6252001","fcl":"L","population":0,"countryCode":"US","name":"Shearin Park","fclName":"parks,area, ...","adminCodes1":{"ISO3166_2":"IA"},"countryName":"United States","fcodeName":"park","adminName1":"Iowa","lat":"42.35276","fcode":"PRK"},{"adminCode1":"IA","lng":"-92.73186","geonameId":4876501,"toponymName":"Sinclair","countryId":"6252001","fcl":"P","population":0,"countryCode":"US","name":"Sinclair","fclName":"city, village,...","adminCodes1":{"ISO3166_2":"IA"},"countryName":"United States","fcodeName":"populated place","adminName1":"Iowa","lat":"42.49998","fcode":"PPL"},{"adminCode1":"IL","lng":"-88.43062","geonameId":4894076,"toponymName":"Goold Park","countryId":"6252001","fcl":"L","population":0,"countryCode":"US","name":"Goold Park","fclName":"parks,area, ...","adminCodes1":{"ISO3166_2":"IL"},"countryName":"United States","fcodeName":"park","adminName1":"Illinois","lat":"41.36364","fcode":"PRK"},{"adminCode1":"IL","lng":"-88.43118","geonameId":4905527,"toponymName":"Paytonville","countryId":"6252001","fcl":"P","population":0,"countryCode":"US","name":"Paytonville","fclName":"city, village,...","adminCodes1":{"ISO3166_2":"IL"},"countryName":"United States","fcodeName":"populated place","adminName1":"Illinois","lat":"41.3367","fcode":"PPL"},{"adminCode1":"IL","lng":"-88.49451","geonameId":4915784,"toponymName":"Wauponsee","countryId":"6252001","fcl":"P","population":0,"countryCode":"US","name":"Wauponsee","fclName":"city, village,...","adminCodes1":{"ISO3166_2":"IL"},"countryName":"United States","fcodeName":"populated place","adminName1":"Illinois","lat":"41.27448","fcode":"PPL"},{"adminCode1":"IL","lng":"-88.28117","geonameId":4901530,"toponymName":"Mazonia","countryId":"6252001","fcl":"P","population":0,"countryCode":"US","name":"Mazonia","fclName":"city, village,...","adminCodes1":{"ISO3166_2":"IL"},"countryName":"United States","fcodeName":"populated place","adminName1":"Illinois","lat":"41.2092","fcode":"PPL"},{"adminCode1":"IL","lng":"-88.47229","geonameId":4903393,"toponymName":"Nelson Airport","countryId":"6252001","fcl":"S","population":0,"countryCode":"US","name":"Nelson Airport","fclName":"spot, building, farm","adminCodes1":{"ISO3166_2":"IL"},"countryName":"United States","fcodeName":"airport","adminName1":"Illinois","lat":"41.41809","fcode":"AIRP"},{"adminCode1":"IL","lng":"-88.34437","geonameId":4903429,"toponymName":"Negro Slough","countryId":"6252001","fcl":"H","population":0,"countryCode":"US","name":"Negro Slough","fclName":"stream, lake, ...","adminCodes1":{"ISO3166_2":"IL"},"countryName":"United States","fcodeName":"lake","adminName1":"Illinois","lat":"41.38398","fcode":"LK"},{"adminCode1":"MO","lng":"-93.42105","geonameId":4374707,"toponymName":"Alpha","countryId":"6252001","fcl":"P","population":0,"countryCode":"US","name":"Alpha","fclName":"city, village,...","adminCodes1":{"ISO3166_2":"MO"},"countryName":"United States","fcodeName":"populated place","adminName1":"Missouri","lat":"39.9853","fcode":"PPL"},{"adminCode1":"MO","lng":"-93.73883","geonameId":5054226,"toponymName":"Brimson","countryId":"6252001","fcl":"P","population":62,"countryCode":"US","name":"Brimson","fclName":"city, village,...","adminCodes1":{"ISO3166_2":"MO"},"countryName":"United States","fcodeName":"populated place","adminName1":"Missouri","lat":"40.14362","fcode":"PPL"},{"adminCode1":"MO","lng":"-93.67133","geonameId":5054347,"toponymName":"Buttsville","countryId":"6252001","fcl":"P","population":0,"countryCode":"US","name":"Buttsville","fclName":"city, village,...","adminCodes1":{"ISO3166_2":"MO"},"countryName":"United States","fcodeName":"populated place","adminName1":"Missouri","lat":"40.21279","fcode":"PPL"},{"adminCode1":"MO","lng":"-93.48244","geonameId":5054775,"toponymName":"Dunlap","countryId":"6252001","fcl":"P","population":0,"countryCode":"US","name":"Dunlap","fclName":"city, village,...","adminCodes1":{"ISO3166_2":"MO"},"countryName":"United States","fcodeName":"populated place","adminName1":"Missouri","lat":"40.10835","fcode":"PPL"},{"adminCode1":"MO","lng":"-93.69383","geonameId":5054853,"toponymName":"Edinburg","countryId":"6252001","fcl":"P","population":92,"countryCode":"US","name":"Edinburg","fclName":"city, village,...","adminCodes1":{"ISO3166_2":"MO"},"countryName":"United States","fcodeName":"populated place","adminName1":"Missouri","lat":"40.0814","fcode":"PPL"},{"adminCode1":"MO","lng":"-93.36827","geonameId":5055962,"toponymName":"Lindley","countryId":"6252001","fcl":"P","population":0,"countryCode":"US","name":"Lindley","fclName":"city, village,...","adminCodes1":{"ISO3166_2":"MO"},"countryName":"United States","fcodeName":"populated place","adminName1":"Missouri","lat":"40.08196","fcode":"PPL"},{"adminCode1":"MO","lng":"-93.66078","geonameId":5057270,"toponymName":"Shott","countryId":"6252001","fcl":"P","population":0,"countryCode":"US","name":"Shott","fclName":"city, village,...","adminCodes1":{"ISO3166_2":"MO"},"countryName":"United States","fcodeName":"populated place","adminName1":"Missouri","lat":"40.16223","fcode":"PPL"},{"adminCode1":"MO","lng":"-93.60828","geonameId":5057534,"toponymName":"Tindall","countryId":"6252001","fcl":"P","population":76,"countryCode":"US","name":"Tindall","fclName":"city, village,...","adminCodes1":{"ISO3166_2":"MO"},"countryName":"United States","fcodeName":"populated place","adminName1":"Missouri","lat":"40.16112","fcode":"PPL"},{"adminCode1":"IA","lng":"-92.7744","geonameId":7163324,"toponymName":"City of Grundy Center","countryId":"6252001","fcl":"A","population":2706,"countryCode":"US","name":"City of Grundy Center","fclName":"country, state, region,...","adminCodes1":{"ISO3166_2":"IA"},"countryName":"United States","fcodeName":"administrative division","adminName1":"Iowa","lat":"42.36376","fcode":"ADMD"},{"adminCode1":"TN","lng":"-85.75025","geonameId":4626747,"toponymName":"Grundy Forest State Natural Area","countryId":"6252001","fcl":"L","population":0,"countryCode":"US","name":"Grundy Forest State Natural Area","fclName":"parks,area, ...","adminCodes1":{"ISO3166_2":"TN"},"countryName":"United States","fcodeName":"park","adminName1":"Tennessee","lat":"35.25036","fcode":"PRK"},{"adminCode1":"IL","lng":"-88.4209","geonameId":4894830,"toponymName":"Grundy County Fairground","countryId":"6252001","fcl":"L","population":0,"countryCode":"US","name":"Grundy County Fairground","fclName":"parks,area, ...","adminCodes1":{"ISO3166_2":"IL"},"countryName":"United States","fcodeName":"park","adminName1":"Illinois","lat":"41.40975","fcode":"PRK"},{"adminCode1":"IL","lng":"-88.30006","geonameId":4886594,"toponymName":"Carbon Hill","countryId":"6252001","fcl":"P","population":347,"countryCode":"US","name":"Carbon Hill","fclName":"city, village,...","adminCodes1":{"ISO3166_2":"IL"},"countryName":"United States","fcodeName":"populated place","adminName1":"Illinois","lat":"41.29698","fcode":"PPL"},{"adminCode1":"IL","lng":"-88.34645","geonameId":4901452,"toponymName":"Matteson RLA Airport","countryId":"6252001","fcl":"S","population":0,"countryCode":"US","name":"Matteson RLA Airport","fclName":"spot, building, farm","adminCodes1":{"ISO3166_2":"IL"},"countryName":"United States","fcodeName":"airport","adminName1":"Illinois","lat":"41.23948","fcode":"AIRP"},{"adminCode1":"IL","lng":"-88.57813","geonameId":4903710,"toponymName":"Nettle Creek","countryId":"6252001","fcl":"P","population":0,"countryCode":"US","name":"Nettle Creek","fclName":"city, village,...","adminCodes1":{"ISO3166_2":"IL"},"countryName":"United States","fcodeName":"populated place","adminName1":"Illinois","lat":"41.44253","fcode":"PPL"},{"adminCode1":"IL","lng":"-88.26395","geonameId":4890473,"toponymName":"East Brooklyn","countryId":"6252001","fcl":"P","population":104,"countryCode":"US","name":"East Brooklyn","fclName":"city, village,...","adminCodes1":{"ISO3166_2":"IL"},"countryName":"United States","fcodeName":"populated place","adminName1":"Illinois","lat":"41.17337","fcode":"PPL"},{"adminCode1":"IA","lng":"-92.82219","geonameId":7163239,"toponymName":"City of Beaman","countryId":"6252001","fcl":"A","population":191,"countryCode":"US","name":"City of Beaman","fclName":"country, state, region,...","adminCodes1":{"ISO3166_2":"IA"},"countryName":"United States","fcodeName":"administrative division","adminName1":"Iowa","lat":"42.22022","fcode":"ADMD"},{"adminCode1":"IA","lng":"-92.79882","geonameId":7163393,"toponymName":"City of Holland","countryId":"6252001","fcl":"A","population":282,"countryCode":"US","name":"City of Holland","fclName":"country, state, region,...","adminCodes1":{"ISO3166_2":"IA"},"countryName":"United States","fcodeName":"administrative division","adminName1":"Iowa","lat":"42.39996","fcode":"ADMD"},{"adminCode1":"IA","lng":"-92.67315","geonameId":7163921,"toponymName":"City of Morrison","countryId":"6252001","fcl":"A","population":94,"countryCode":"US","name":"City of Morrison","fclName":"country, state, region,...","adminCodes1":{"ISO3166_2":"IA"},"countryName":"United States","fcodeName":"administrative division","adminName1":"Iowa","lat":"42.34303","fcode":"ADMD"},{"adminCode1":"IL","lng":"-88.29989","geonameId":7165314,"toponymName":"Village of Carbon Hill","countryId":"6252001","fcl":"A","population":345,"countryCode":"US","name":"Village of Carbon Hill","fclName":"country, state, region,...","adminCodes1":{"ISO3166_2":"IL"},"countryName":"United States","fcodeName":"administrative division","adminName1":"Illinois","lat":"41.29697","fcode":"ADMD"},{"adminCode1":"IL","lng":"-88.2642","geonameId":7165896,"toponymName":"Village of Braceville","countryId":"6252001","fcl":"A","population":793,"countryCode":"US","name":"Village of Braceville","fclName":"country, state, region,...","adminCodes1":{"ISO3166_2":"IL"},"countryName":"United States","fcodeName":"administrative division","adminName1":"Illinois","lat":"41.223","fcode":"ADMD"},{"adminCode1":"IL","lng":"-88.56994","geonameId":7166085,"toponymName":"Village of Kinsman","countryId":"6252001","fcl":"A","population":99,"countryCode":"US","name":"Village of Kinsman","fclName":"country, state, region,...","adminCodes1":{"ISO3166_2":"IL"},"countryName":"United States","fcodeName":"administrative division","adminName1":"Illinois","lat":"41.19028","fcode":"ADMD"},{"adminCode1":"IL","lng":"-88.27911","geonameId":7166299,"toponymName":"Village of Coal City","countryId":"6252001","fcl":"A","population":5587,"countryCode":"US","name":"Village of Coal City","fclName":"country, state, region,...","adminCodes1":{"ISO3166_2":"IL"},"countryName":"United States","fcodeName":"administrative division","adminName1":"Illinois","lat":"41.2779","fcode":"ADMD"},{"adminCode1":"IL","lng":"-88.25064","geonameId":7166426,"toponymName":"Village of Diamond","countryId":"6252001","fcl":"A","population":2527,"countryCode":"US","name":"Village of Diamond","fclName":"country, state, region,...","adminCodes1":{"ISO3166_2":"IL"},"countryName":"United States","fcodeName":"administrative division","adminName1":"Illinois","lat":"41.28516","fcode":"ADMD"},{"adminCode1":"IL","lng":"-88.26603","geonameId":7166471,"toponymName":"Village of East Brooklyn","countryId":"6252001","fcl":"A","population":106,"countryCode":"US","name":"Village of East Brooklyn","fclName":"country, state, region,...","adminCodes1":{"ISO3166_2":"IL"},"countryName":"United States","fcodeName":"administrative division","adminName1":"Illinois","lat":"41.17277","fcode":"ADMD"},{"adminCode1":"IL","lng":"-88.31468","geonameId":7166630,"toponymName":"Village of Gardner","countryId":"6252001","fcl":"A","population":1463,"countryCode":"US","name":"Village of Gardner","fclName":"country, state, region,...","adminCodes1":{"ISO3166_2":"IL"},"countryName":"United States","fcodeName":"administrative division","adminName1":"Illinois","lat":"41.19305","fcode":"ADMD"},{"adminCode1":"TN","lng":"-85.62471","geonameId":7201998,"toponymName":"Commissioner District 2","countryId":"6252001","fcl":"A","population":0,"countryCode":"US","name":"Commissioner District 2","fclName":"country, state, region,...","adminCodes1":{"ISO3166_2":"TN"},"countryName":"United States","fcodeName":"administrative division","adminName1":"Tennessee","lat":"35.35049","fcode":"ADMD"},{"adminCode1":"TN","lng":"-85.77451","geonameId":7202222,"toponymName":"Commissioner District 3","countryId":"6252001","fcl":"A","population":0,"countryCode":"US","name":"Commissioner District 3","fclName":"country, state, region,...","adminCodes1":{"ISO3166_2":"TN"},"countryName":"United States","fcodeName":"administrative division","adminName1":"Tennessee","lat":"35.26091","fcode":"ADMD"},{"adminCode1":"TN","lng":"-85.74283","geonameId":7202310,"toponymName":"Commissioner District 1","countryId":"6252001","fcl":"A","population":0,"countryCode":"US","name":"Commissioner District 1","fclName":"country, state, region,...","adminCodes1":{"ISO3166_2":"TN"},"countryName":"United States","fcodeName":"administrative division","adminName1":"Tennessee","lat":"35.41978","fcode":"ADMD"},{"adminCode1":"IL","lng":"-88.42338","geonameId":7166949,"toponymName":"Village of Mazon","countryId":"6252001","fcl":"A","population":1015,"countryCode":"US","name":"Village of Mazon","fclName":"country, state, region,...","adminCodes1":{"ISO3166_2":"IL"},"countryName":"United States","fcodeName":"administrative division","adminName1":"Illinois","lat":"41.24173","fcode":"ADMD"},{"adminCode1":"IL","lng":"-88.27907","geonameId":7167038,"toponymName":"Village of Minooka","countryId":"6252001","fcl":"A","population":10924,"countryCode":"US","name":"Village of Minooka","fclName":"country, state, region,...","adminCodes1":{"ISO3166_2":"IL"},"countryName":"United States","fcodeName":"administrative division","adminName1":"Illinois","lat":"41.4507","fcode":"ADMD"},{"adminCode1":"IL","lng":"-88.5824","geonameId":7167408,"toponymName":"Village of Seneca","countryId":"6252001","fcl":"A","population":2371,"countryCode":"US","name":"Village of Seneca","fclName":"country, state, region,...","adminCodes1":{"ISO3166_2":"IL"},"countryName":"United States","fcodeName":"administrative division","adminName1":"Illinois","lat":"41.30878","fcode":"ADMD"},{"adminCode1":"IL","lng":"-88.28133","geonameId":7167481,"toponymName":"Village of South Wilmington","countryId":"6252001","fcl":"A","population":681,"countryCode":"US","name":"Village of South Wilmington","fclName":"country, state, region,...","adminCodes1":{"ISO3166_2":"IL"},"countryName":"United States","fcodeName":"administrative division","adminName1":"Illinois","lat":"41.17441","fcode":"ADMD"},{"adminCode1":"IL","lng":"-88.5049","geonameId":7167668,"toponymName":"Village of Verona","countryId":"6252001","fcl":"A","population":215,"countryCode":"US","name":"Village of Verona","fclName":"country, state, region,...","adminCodes1":{"ISO3166_2":"IL"},"countryName":"United States","fcodeName":"administrative division","adminName1":"Illinois","lat":"41.21568","fcode":"ADMD"},{"adminCode1":"TN","lng":"-85.71146","geonameId":7169774,"toponymName":"City of Coalmont","countryId":"6252001","fcl":"A","population":841,"countryCode":"US","name":"City of Coalmont","fclName":"country, state, region,...","adminCodes1":{"ISO3166_2":"TN"},"countryName":"United States","fcodeName":"administrative division","adminName1":"Tennessee","lat":"35.34465","fcode":"ADMD"},{"adminCode1":"TN","lng":"-85.74343","geonameId":7170518,"toponymName":"Town of Altamont","countryId":"6252001","fcl":"A","population":1045,"countryCode":"US","name":"Town of Altamont","fclName":"country, state, region,...","adminCodes1":{"ISO3166_2":"TN"},"countryName":"United States","fcodeName":"administrative division","adminName1":"Tennessee","lat":"35.43266","fcode":"ADMD"},{"adminCode1":"TN","lng":"-85.66924","geonameId":7170599,"toponymName":"Town of Beersheba Springs","countryId":"6252001","fcl":"A","population":477,"countryCode":"US","name":"Town of Beersheba Springs","fclName":"country, state, region,...","adminCodes1":{"ISO3166_2":"TN"},"countryName":"United States","fcodeName":"administrative division","adminName1":"Tennessee","lat":"35.45884","fcode":"ADMD"},{"adminCode1":"TN","lng":"-85.87275","geonameId":7171418,"toponymName":"Town of Monteagle","countryId":"6252001","fcl":"A","population":1192,"countryCode":"US","name":"Town of Monteagle","fclName":"country, state, region,...","adminCodes1":{"ISO3166_2":"TN"},"countryName":"United States","fcodeName":"administrative division","adminName1":"Tennessee","lat":"35.22892","fcode":"ADMD"},{"adminCode1":"TN","lng":"-85.75174","geonameId":7171974,"toponymName":"Town of Tracy City","countryId":"6252001","fcl":"A","population":1481,"countryCode":"US","name":"Town of Tracy City","fclName":"country, state, region,...","adminCodes1":{"ISO3166_2":"TN"},"countryName":"United States","fcodeName":"administrative division","adminName1":"Tennessee","lat":"35.262","fcode":"ADMD"},{"adminCode1":"TN","lng":"-85.56558","geonameId":7172288,"toponymName":"Town of Palmer","countryId":"6252001","fcl":"A","population":672,"countryCode":"US","name":"Town of Palmer","fclName":"country, state, region,...","adminCodes1":{"ISO3166_2":"TN"},"countryName":"United States","fcodeName":"administrative division","adminName1":"Tennessee","lat":"35.35749","fcode":"ADMD"},{"adminCode1":"IA","lng":"-92.87449","geonameId":7316707,"toponymName":"City of Conrad","countryId":"6252001","fcl":"A","population":1108,"countryCode":"US","name":"City of Conrad","fclName":"country, state, region,...","adminCodes1":{"ISO3166_2":"IA"},"countryName":"United States","fcodeName":"administrative division","adminName1":"Iowa","lat":"42.22351","fcode":"ADMD"},{"adminCode1":"IA","lng":"-92.62558","geonameId":7316898,"toponymName":"City of Dike","countryId":"6252001","fcl":"A","population":1209,"countryCode":"US","name":"City of Dike","fclName":"country, state, region,...","adminCodes1":{"ISO3166_2":"IA"},"countryName":"United States","fcodeName":"administrative division","adminName1":"Iowa","lat":"42.46413","fcode":"ADMD"},{"adminCode1":"IL","lng":"-88.43165","geonameId":7317104,"toponymName":"City of Morris","countryId":"6252001","fcl":"A","population":13636,"countryCode":"US","name":"City of Morris","fclName":"country, state, region,...","adminCodes1":{"ISO3166_2":"IL"},"countryName":"United States","fcodeName":"administrative division","adminName1":"Illinois","lat":"41.37461","fcode":"ADMD"}]}
