{"totalResultsCount":7,"geonames":[{"adminCode1":"AL","lng":"-86.19637","geonameId":4071384,"toponymName":"Lake Guntersville State Park","countryId":"6252001","fcl":"L","population":0,"countryCode":"US","name":"Lake Guntersville State Park","fclName":"parks,area, ...","adminCodes1":{"ISO3166_2":"AL"},"countryName":"United States","fcodeName":"park","adminName1":"Alabama","lat":"34.40287","fcode":"PRK"},{"adminCode1":"AL","lng":"-86.39221","geonameId":4065656,"toponymName":"Guntersville Lake","countryId":"6252001","fcl":"H","population":0,"countryCode":"US","name":"Guntersville Lake","fclName":"stream, lake, ...","adminCodes1":{"ISO3166_2":"AL"},"countryName":"United States","fcodeName":"reservoir(s)","adminName1":"Alabama","lat":"34.42315","fcode":"RSV"},{"adminCode1":"AL","lng":"-86.3131","geonameId":6529573,"toponymName":"Hampton Inn Lake Guntersville","countryId":"6252001","fcl":"S","population":0,"countryCode":"US","name":"Hampton Inn Lake Guntersville","fclName":"spot, building, farm","adminCodes1":{"ISO3166_2":"AL"},"countryName":"United States","fcodeName":"hotel","adminName1":"Alabama","lat":"34.3229","fcode":"HTL"},{"adminCode1":"AL","lng":"-86.11539","geonameId":4626907,"toponymName":"Guntersville Lake","countryId":"6252001","fcl":"H","population":0,"countryCode":"US","name":"Guntersville Lake","fclName":"stream, lake, ...","adminCodes1":{"ISO3166_2":"AL"},"countryName":"United States","fcodeName":"reservoir(s)","adminName1":"Alabama","lat":"34.54442","fcode":"RSV"},{"adminCode1":"AL","lng":"-86.27443","geonameId":4065657,"toponymName":"Guntersville Lake Yacht Club","countryId":"6252001","fcl":"S","population":0,"countryCode":"US","name":"Guntersville Lake Yacht Club","fclName":"spot, building, farm","adminCodes1":{"ISO3166_2":"AL"},"countryName":"United States","fcodeName":"","adminName1":"Alabama","lat":"34.38509"},{"adminCode1":"AL","lng":"-86.31429","geonameId":9856414,"toponymName":"Best Western Plus Lake Guntersville Hotel","countryId":"6252001","fcl":"S","population":0,"countryCode":"US","name":"Best Western Plus Lake Guntersville Hotel","fclName":"spot, building, farm","adminCodes1":{"ISO3166_2":"AL"},"countryName":"United States","fcodeName":"hotel","adminName1":"Alabama","lat":"34.33961","fcode":"HTL"},{"adminCode1":"AL","lng":"-86.31295","geonameId":10238123,"toponymName":"Super 8 Motel - Guntersville / Lake","countryId":"6252001","fcl":"S","population":0,"countryCode":"US","name":"Super 8 Motel - Guntersville / Lake","fclName":"spot, building, farm","adminCodes1":{"ISO3166_2":"AL"},"countryName":"United States","fcodeName":"hotel","adminName1":"Alabama","lat":"34.32197","fcode":"HTL"}]}
