{"totalResultsCount":537,"geonames":[{"adminCode1":"AK","lng":"-135.44533","geonameId":5846901,"toponymName":"Haines","countryId":"6252001","fcl":"P","population":1713,"countryCode":"US","name":"Haines","fclName":"city, village,...","adminCodes1":{"ISO3166_2":"AK"},"countryName":"United States","fcodeName":"populated place","adminName1":"Alaska","lat":"59.23595","fcode":"PPL"},{"adminCode1":"AK","lng":"-135.52361","geonameId":5846899,"toponymName":"Haines Airport","countryId":"6252001","fcl":"S","population":0,"countryCode":"US","name":"Haines Airport","fclName":"spot, building, farm","adminCodes1":{"ISO3166_2":"AK"},"countryName":"United States","fcodeName":"airport","adminName1":"Alaska","lat":"59.24444","fcode":"AIRP"},{"adminCode1":"AK","lng":"-135.50056","geonameId":5846893,"toponymName":"Haines Borough","countryId":"6252001","fcl":"A","population":2117,"countryCode":"US","name":"Haines","fclName":"country, state, region,...","adminCodes1":{"ISO3166_2":"AK"},"countryName":"United States","fcodeName":"second-order administrative division","adminName1":"Alaska","lat":"59.25056","fcode":"ADM2"},{"adminCode1":"AK","lng":"-135.44836","geonameId":5846136,"toponymName":"Excursion Inlet Seaplane Base","countryId":"6252001","fcl":"S","population":0,"countryCode":"US","name":"Excursion Inlet SPB","fclName":"spot, building, farm","adminCodes1":{"ISO3166_2":"AK"},"countryName":"United States","fcodeName":"airport","adminName1":"Alaska","lat":"58.41879","fcode":"AIRP"},{"adminCode1":"AK","lng":"-135.59643","geonameId":5845336,"toponymName":"Chilkoot Lake","countryId":"6252001","fcl":"H","population":0,"countryCode":"US","name":"Chilkoot Lake","fclName":"stream, lake, ...","adminCodes1":{"ISO3166_2":"AK"},"countryName":"United States","fcodeName":"lake","adminName1":"Alaska","lat":"59.35342","fcode":"LK"},{"adminCode1":"AK","lng":"-135.52424","geonameId":5846064,"toponymName":"Endicott River Wilderness","countryId":"6252001","fcl":"L","population":0,"countryCode":"US","name":"Endicott River Wilderness","fclName":"parks,area, ...","adminCodes1":{"ISO3166_2":"AK"},"countryName":"United States","fcodeName":"reserve","adminName1":"Alaska","lat":"58.7724","fcode":"RES"},{"adminCode1":"AK","lng":"-136.02367","geonameId":5555839,"toponymName":"Mosquito Lake","countryId":"6252001","fcl":"H","population":0,"countryCode":"US","name":"Mosquito Lake","fclName":"stream, lake, ...","adminCodes1":{"ISO3166_2":"AK"},"countryName":"United States","fcodeName":"lake","adminName1":"Alaska","lat":"59.46104","fcode":"LK"},{"adminCode1":"AK","lng":"-135.45778","geonameId":5556590,"toponymName":"Pyramid Island","countryId":"6252001","fcl":"T","population":0,"countryCode":"US","name":"Pyramid Island","fclName":"mountain,hill,rock,... ","adminCodes1":{"ISO3166_2":"AK"},"countryName":"United States","fcodeName":"island","adminName1":"Alaska","lat":"59.19694","fcode":"ISL"},{"adminCode1":"FL","lng":"-81.62009","geonameId":4157827,"toponymName":"Haines City","countryId":"6252001","fcl":"P","population":22807,"countryCode":"US","name":"Haines City","fclName":"city, village,...","adminCodes1":{"ISO3166_2":"FL"},"countryName":"United States","fcodeName":"populated place","adminName1":"Florida","lat":"28.1145","fcode":"PPL"},{"adminCode1":"AK","lng":"-135.89758","geonameId":5845328,"toponymName":"Chilkat Lake","countryId":"6252001","fcl":"H","population":0,"countryCode":"US","name":"Chilkat Lake","fclName":"stream, lake, ...","adminCodes1":{"ISO3166_2":"AK"},"countryName":"United States","fcodeName":"lake","adminName1":"Alaska","lat":"59.33193","fcode":"LK"},{"adminCode1":"AK","lng":"-135.48222","geonameId":5845331,"toponymName":"Chilkat Range","countryId":"6252001","fcl":"T","population":0,"countryCode":"US","name":"Chilkat Range","fclName":"mountain,hill,rock,... ","adminCodes1":{"ISO3166_2":"AK"},"countryName":"United States","fcodeName":"mountains","adminName1":"Alaska","lat":"58.65167","fcode":"MTS"},{"adminCode1":"AK","lng":"-135.42667","geonameId":5846117,"toponymName":"Excursion Inlet","countryId":"6252001","fcl":"P","population":11,"countryCode":"US","name":"Excursion Inlet","fclName":"city, village,...","adminCodes1":{"ISO3166_2":"AK"},"countryName":"United States","fcodeName":"populated place","adminName1":"Alaska","lat":"58.41889","fcode":"PPL"},{"adminCode1":"AK","lng":"-135.52083","geonameId":5846555,"toponymName":"Gantegastaki (historical)","countryId":"6252001","fcl":"P","population":0,"countryCode":"US","name":"Gantegastaki (historical)","fclName":"city, village,...","adminCodes1":{"ISO3166_2":"AK"},"countryName":"United States","fcodeName":"abandoned populated place","adminName1":"Alaska","lat":"59.25","fcode":"PPLQ"},{"adminCode1":"AK","lng":"-135.4849","geonameId":5554298,"toponymName":"Kaskulu Point","countryId":"6252001","fcl":"T","population":0,"countryCode":"US","name":"Kaskulu Point","fclName":"mountain,hill,rock,... ","adminCodes1":{"ISO3166_2":"AK"},"countryName":"United States","fcodeName":"cape","adminName1":"Alaska","lat":"59.23044","fcode":"CAPE"},{"adminCode1":"AK","lng":"-135.37306","geonameId":5845327,"toponymName":"Chilkat Peninsula","countryId":"6252001","fcl":"T","population":0,"countryCode":"US","name":"Chilkat Peninsula","fclName":"mountain,hill,rock,... ","adminCodes1":{"ISO3166_2":"AK"},"countryName":"United States","fcodeName":"cape","adminName1":"Alaska","lat":"59.18778","fcode":"CAPE"},{"adminCode1":"AK","lng":"-135.47194","geonameId":5844380,"toponymName":"Anchorage Point","countryId":"6252001","fcl":"T","population":0,"countryCode":"US","name":"Anchorage Point","fclName":"mountain,hill,rock,... ","adminCodes1":{"ISO3166_2":"AK"},"countryName":"United States","fcodeName":"cape","adminName1":"Alaska","lat":"59.17556","fcode":"CAPE"},{"adminCode1":"AK","lng":"-134.38194","geonameId":5844892,"toponymName":"Mount London","countryId":"6252001","fcl":"T","population":0,"countryCode":"US","name":"Mount London","fclName":"mountain,hill,rock,... ","adminCodes1":{"ISO3166_2":"AK"},"countryName":"United States","fcodeName":"mountain","adminName1":"Alaska","lat":"59.03889","fcode":"MT"},{"adminCode1":"AK","lng":"-136.48993","geonameId":5844906,"toponymName":"Mount Harris","countryId":"6252001","fcl":"T","population":0,"countryCode":"US","name":"Mount Harris","fclName":"mountain,hill,rock,... ","adminCodes1":{"ISO3166_2":"AK"},"countryName":"United States","fcodeName":"mountain","adminName1":"Alaska","lat":"59.25972","fcode":"MT"},{"adminCode1":"AK","lng":"-134.31333","geonameId":5844947,"toponymName":"Mount Nesselrode","countryId":"6252001","fcl":"T","population":0,"countryCode":"US","name":"Mount Nesselrode","fclName":"mountain,hill,rock,... ","adminCodes1":{"ISO3166_2":"AK"},"countryName":"United States","fcodeName":"mountain","adminName1":"Alaska","lat":"58.9625","fcode":"MT"},{"adminCode1":"AK","lng":"-135.26816","geonameId":5845323,"toponymName":"Chilkat Islands","countryId":"6252001","fcl":"T","population":0,"countryCode":"US","name":"Chilkat Islands","fclName":"mountain,hill,rock,... ","adminCodes1":{"ISO3166_2":"AK"},"countryName":"United States","fcodeName":"island","adminName1":"Alaska","lat":"59.04021","fcode":"ISL"},{"adminCode1":"AK","lng":"-135.39806","geonameId":5845330,"toponymName":"Chilkat State Park","countryId":"6252001","fcl":"L","population":0,"countryCode":"US","name":"Chilkat State Park","fclName":"parks,area, ...","adminCodes1":{"ISO3166_2":"AK"},"countryName":"United States","fcodeName":"park","adminName1":"Alaska","lat":"59.21111","fcode":"PRK"},{"adminCode1":"AK","lng":"-135.07528","geonameId":5845523,"toponymName":"Couverden Island","countryId":"6252001","fcl":"T","population":0,"countryCode":"US","name":"Couverden Island","fclName":"mountain,hill,rock,... ","adminCodes1":{"ISO3166_2":"AK"},"countryName":"United States","fcodeName":"island","adminName1":"Alaska","lat":"58.20028","fcode":"ISL"},{"adminCode1":"AK","lng":"-136.025","geonameId":5845527,"toponymName":"Covenant Life","countryId":"6252001","fcl":"P","population":86,"countryCode":"US","name":"Covenant Life","fclName":"city, village,...","adminCodes1":{"ISO3166_2":"AK"},"countryName":"United States","fcodeName":"populated place","adminName1":"Alaska","lat":"59.41722","fcode":"PPL"},{"adminCode1":"AK","lng":"-135.32006","geonameId":5845621,"toponymName":"Dalasuga Island","countryId":"6252001","fcl":"T","population":0,"countryCode":"US","name":"Dalasuga Island","fclName":"mountain,hill,rock,... ","adminCodes1":{"ISO3166_2":"AK"},"countryName":"United States","fcodeName":"island","adminName1":"Alaska","lat":"59.08902","fcode":"ISL"},{"adminCode1":"AK","lng":"-135.449","geonameId":5845728,"toponymName":"Deshu Isthmus","countryId":"6252001","fcl":"T","population":0,"countryCode":"US","name":"Deshu Isthmus","fclName":"mountain,hill,rock,... ","adminCodes1":{"ISO3166_2":"AK"},"countryName":"United States","fcodeName":"isthmus","adminName1":"Alaska","lat":"59.22545","fcode":"ISTH"},{"adminCode1":"AK","lng":"-135.67854","geonameId":5846061,"toponymName":"Endicott Lake","countryId":"6252001","fcl":"H","population":0,"countryCode":"US","name":"Endicott Lake","fclName":"stream, lake, ...","adminCodes1":{"ISO3166_2":"AK"},"countryName":"United States","fcodeName":"lake","adminName1":"Alaska","lat":"58.82568","fcode":"LK"},{"adminCode1":"AK","lng":"-135.16972","geonameId":5846700,"toponymName":"Mount Golub","countryId":"6252001","fcl":"T","population":0,"countryCode":"US","name":"Mount Golub","fclName":"mountain,hill,rock,... ","adminCodes1":{"ISO3166_2":"AK"},"countryName":"United States","fcodeName":"mountain","adminName1":"Alaska","lat":"58.46417","fcode":"MT"},{"adminCode1":"AK","lng":"-135.48278","geonameId":5846815,"toponymName":"Green Point","countryId":"6252001","fcl":"T","population":0,"countryCode":"US","name":"Green Point","fclName":"mountain,hill,rock,... ","adminCodes1":{"ISO3166_2":"AK"},"countryName":"United States","fcodeName":"cape","adminName1":"Alaska","lat":"59.18667","fcode":"CAPE"},{"adminCode1":"AK","lng":"-135.83333","geonameId":5554220,"toponymName":"Kalwatta (historical)","countryId":"6252001","fcl":"P","population":0,"countryCode":"US","name":"Kalwatta (historical)","fclName":"city, village,...","adminCodes1":{"ISO3166_2":"AK"},"countryName":"United States","fcodeName":"abandoned populated place","adminName1":"Alaska","lat":"59.37083","fcode":"PPLQ"},{"adminCode1":"AK","lng":"-135.37354","geonameId":5554382,"toponymName":"Kelgaya Point","countryId":"6252001","fcl":"T","population":0,"countryCode":"US","name":"Kelgaya Point","fclName":"mountain,hill,rock,... ","adminCodes1":{"ISO3166_2":"AK"},"countryName":"United States","fcodeName":"cape","adminName1":"Alaska","lat":"59.21483","fcode":"CAPE"},{"adminCode1":"AK","lng":"-136.03333","geonameId":5554402,"toponymName":"Kelsall River","countryId":"6252001","fcl":"H","population":0,"countryCode":"US","name":"Kelsall River","fclName":"stream, lake, ...","adminCodes1":{"ISO3166_2":"AK"},"countryName":"United States","fcodeName":"stream","adminName1":"Alaska","lat":"59.53139","fcode":"STM"},{"adminCode1":"AK","lng":"-135.395","geonameId":5554658,"toponymName":"Kochu Island","countryId":"6252001","fcl":"T","population":0,"countryCode":"US","name":"Kochu Island","fclName":"mountain,hill,rock,... ","adminCodes1":{"ISO3166_2":"AK"},"countryName":"United States","fcodeName":"island","adminName1":"Alaska","lat":"59.14667","fcode":"ISL"},{"adminCode1":"AK","lng":"-135.56556","geonameId":5555466,"toponymName":"Lutak","countryId":"6252001","fcl":"P","population":49,"countryCode":"US","name":"Lutak","fclName":"city, village,...","adminCodes1":{"ISO3166_2":"AK"},"countryName":"United States","fcodeName":"populated place","adminName1":"Alaska","lat":"59.34111","fcode":"PPL"},{"adminCode1":"AK","lng":"-135.37583","geonameId":5555866,"toponymName":"Mud Bay","countryId":"6252001","fcl":"P","population":212,"countryCode":"US","name":"Mud Bay","fclName":"city, village,...","adminCodes1":{"ISO3166_2":"AK"},"countryName":"United States","fcodeName":"populated place","adminName1":"Alaska","lat":"59.15972","fcode":"PPL"},{"adminCode1":"AK","lng":"-135.51806","geonameId":5556730,"toponymName":"Mount Ripinski","countryId":"6252001","fcl":"T","population":0,"countryCode":"US","name":"Mount Ripinski","fclName":"mountain,hill,rock,... ","adminCodes1":{"ISO3166_2":"AK"},"countryName":"United States","fcodeName":"mountain","adminName1":"Alaska","lat":"59.26528","fcode":"MT"},{"adminCode1":"AK","lng":"-135.33763","geonameId":5556855,"toponymName":"Rustabach Lake","countryId":"6252001","fcl":"H","population":0,"countryCode":"US","name":"Rustabach Lake","fclName":"stream, lake, ...","adminCodes1":{"ISO3166_2":"AK"},"countryName":"United States","fcodeName":"lake","adminName1":"Alaska","lat":"59.13138","fcode":"LK"},{"adminCode1":"AK","lng":"-136.35389","geonameId":5557128,"toponymName":"Mount Seltat","countryId":"6252001","fcl":"T","population":0,"countryCode":"US","name":"Mount Seltat","fclName":"mountain,hill,rock,... ","adminCodes1":{"ISO3166_2":"AK"},"countryName":"United States","fcodeName":"mountain","adminName1":"Alaska","lat":"59.60028","fcode":"MT"},{"adminCode1":"AK","lng":"-135.30813","geonameId":5557152,"toponymName":"Seduction Point","countryId":"6252001","fcl":"T","population":0,"countryCode":"US","name":"Seduction Point","fclName":"mountain,hill,rock,... ","adminCodes1":{"ISO3166_2":"AK"},"countryName":"United States","fcodeName":"cape","adminName1":"Alaska","lat":"59.0825","fcode":"CAPE"},{"adminCode1":"AK","lng":"-135.12222","geonameId":5557279,"toponymName":"Sinclair Mountain","countryId":"6252001","fcl":"T","population":0,"countryCode":"US","name":"Sinclair Mountain","fclName":"mountain,hill,rock,... ","adminCodes1":{"ISO3166_2":"AK"},"countryName":"United States","fcodeName":"mountain","adminName1":"Alaska","lat":"59.09639","fcode":"MT"},{"adminCode1":"AK","lng":"-135.32694","geonameId":5557685,"toponymName":"Sullivan Island","countryId":"6252001","fcl":"T","population":0,"countryCode":"US","name":"Sullivan Island","fclName":"mountain,hill,rock,... ","adminCodes1":{"ISO3166_2":"AK"},"countryName":"United States","fcodeName":"island","adminName1":"Alaska","lat":"58.9725","fcode":"ISL"},{"adminCode1":"AK","lng":"-135.79278","geonameId":5557822,"toponymName":"Takshanuk Mountains","countryId":"6252001","fcl":"T","population":0,"countryCode":"US","name":"Takshanuk Mountains","fclName":"mountain,hill,rock,... ","adminCodes1":{"ISO3166_2":"AK"},"countryName":"United States","fcodeName":"ridge(s)","adminName1":"Alaska","lat":"59.39583","fcode":"RDGE"},{"adminCode1":"AK","lng":"-136.10528","geonameId":5557841,"toponymName":"Takhinsha Mountains","countryId":"6252001","fcl":"T","population":0,"countryCode":"US","name":"Takhinsha Mountains","fclName":"mountain,hill,rock,... ","adminCodes1":{"ISO3166_2":"AK"},"countryName":"United States","fcodeName":"ridge(s)","adminName1":"Alaska","lat":"59.21639","fcode":"RDGE"},{"adminCode1":"AK","lng":"-135.62944","geonameId":5558109,"toponymName":"Tukgahgo Mountain","countryId":"6252001","fcl":"T","population":0,"countryCode":"US","name":"Tukgahgo Mountain","fclName":"mountain,hill,rock,... ","adminCodes1":{"ISO3166_2":"AK"},"countryName":"United States","fcodeName":"mountain","adminName1":"Alaska","lat":"59.30028","fcode":"MT"},{"adminCode1":"MI","lng":"-85.59031","geonameId":5012196,"toponymName":"Three Rivers Municipal Dr. Haines Airport","countryId":"6252001","fcl":"S","population":0,"countryCode":"US","name":"Three Rivers Municipal Dr. Haines Airport","fclName":"spot, building, farm","adminCodes1":{"ISO3166_2":"MI"},"countryName":"United States","fcodeName":"airport","adminName1":"Michigan","lat":"41.95704","fcode":"AIRP"},{"adminCode1":"AK","lng":"-135.44044","geonameId":5556485,"toponymName":"Port Chilkoot","countryId":"6252001","fcl":"P","population":0,"countryCode":"US","name":"Port Chilkoot","fclName":"city, village,...","adminCodes1":{"ISO3166_2":"AK"},"countryName":"United States","fcodeName":"populated place","adminName1":"Alaska","lat":"59.22782","fcode":"PPL"},{"adminCode1":"AK","lng":"-135.27667","geonameId":5844423,"toponymName":"Anyaka Island","countryId":"6252001","fcl":"T","population":0,"countryCode":"US","name":"Anyaka Island","fclName":"mountain,hill,rock,... ","adminCodes1":{"ISO3166_2":"AK"},"countryName":"United States","fcodeName":"island","adminName1":"Alaska","lat":"59.05306","fcode":"ISL"},{"adminCode1":"AK","lng":"-136.47836","geonameId":5844886,"toponymName":"Mount Henry Clay","countryId":"6252001","fcl":"T","population":0,"countryCode":"US","name":"Mount Henry Clay","fclName":"mountain,hill,rock,... ","adminCodes1":{"ISO3166_2":"AK"},"countryName":"United States","fcodeName":"mountain","adminName1":"Alaska","lat":"59.37702","fcode":"MT"},{"adminCode1":"AK","lng":"-134.56538","geonameId":5844887,"toponymName":"Mount Hislop","countryId":"6252001","fcl":"T","population":0,"countryCode":"US","name":"Mount Hislop","fclName":"mountain,hill,rock,... ","adminCodes1":{"ISO3166_2":"AK"},"countryName":"United States","fcodeName":"mountain","adminName1":"Alaska","lat":"59.13119","fcode":"MT"},{"adminCode1":"AK","lng":"-136.47823","geonameId":5844894,"toponymName":"Mount McDonell","countryId":"6252001","fcl":"T","population":0,"countryCode":"US","name":"Mount McDonell","fclName":"mountain,hill,rock,... ","adminCodes1":{"ISO3166_2":"AK"},"countryName":"United States","fcodeName":"mountain","adminName1":"Alaska","lat":"59.46607","fcode":"MT"},{"adminCode1":"AK","lng":"-134.67867","geonameId":5844896,"toponymName":"Mount Pullen","countryId":"6252001","fcl":"T","population":0,"countryCode":"US","name":"Mount Pullen","fclName":"mountain,hill,rock,... ","adminCodes1":{"ISO3166_2":"AK"},"countryName":"United States","fcodeName":"mountain","adminName1":"Alaska","lat":"59.19255","fcode":"MT"},{"adminCode1":"AK","lng":"-135.26778","geonameId":5845319,"toponymName":"Chilkat Islands State Marine Park","countryId":"6252001","fcl":"L","population":0,"countryCode":"US","name":"Chilkat Islands State Marine Park","fclName":"parks,area, ...","adminCodes1":{"ISO3166_2":"AK"},"countryName":"United States","fcodeName":"park","adminName1":"Alaska","lat":"59.05139","fcode":"PRK"},{"adminCode1":"AK","lng":"-135.55333","geonameId":5845326,"toponymName":"Chilkoot (historical)","countryId":"6252001","fcl":"P","population":0,"countryCode":"US","name":"Chilkoot (historical)","fclName":"city, village,...","adminCodes1":{"ISO3166_2":"AK"},"countryName":"United States","fcodeName":"abandoned populated place","adminName1":"Alaska","lat":"59.33306","fcode":"PPLQ"},{"adminCode1":"AK","lng":"-135.65845","geonameId":5845481,"toponymName":"Connolly Lake","countryId":"6252001","fcl":"H","population":0,"countryCode":"US","name":"Connolly Lake","fclName":"stream, lake, ...","adminCodes1":{"ISO3166_2":"AK"},"countryName":"United States","fcodeName":"lake","adminName1":"Alaska","lat":"59.42712","fcode":"LK"},{"adminCode1":"AK","lng":"-135.60333","geonameId":5845794,"toponymName":"Dok Point","countryId":"6252001","fcl":"T","population":0,"countryCode":"US","name":"Dok Point","fclName":"mountain,hill,rock,... ","adminCodes1":{"ISO3166_2":"AK"},"countryName":"United States","fcodeName":"cape","adminName1":"Alaska","lat":"59.26583","fcode":"CAPE"},{"adminCode1":"AK","lng":"-135.69944","geonameId":5846050,"toponymName":"Mount Emmerich","countryId":"6252001","fcl":"T","population":0,"countryCode":"US","name":"Mount Emmerich","fclName":"mountain,hill,rock,... ","adminCodes1":{"ISO3166_2":"AK"},"countryName":"United States","fcodeName":"mountain","adminName1":"Alaska","lat":"59.19167","fcode":"MT"},{"adminCode1":"AK","lng":"-135.38222","geonameId":5846682,"toponymName":"Glacier Point","countryId":"6252001","fcl":"T","population":0,"countryCode":"US","name":"Glacier Point","fclName":"mountain,hill,rock,... ","adminCodes1":{"ISO3166_2":"AK"},"countryName":"United States","fcodeName":"cape","adminName1":"Alaska","lat":"59.1025","fcode":"CAPE"},{"adminCode1":"AK","lng":"-135.44861","geonameId":5846820,"toponymName":"HES 208","countryId":"6252001","fcl":"A","population":0,"countryCode":"US","name":"HES 208","fclName":"country, state, region,...","adminCodes1":{"ISO3166_2":"AK"},"countryName":"United States","fcodeName":"administrative division","adminName1":"Alaska","lat":"59.24278","fcode":"ADMD"},{"adminCode1":"AK","lng":"-135.46028","geonameId":5846852,"toponymName":"HES 207","countryId":"6252001","fcl":"A","population":0,"countryCode":"US","name":"HES 207","fclName":"country, state, region,...","adminCodes1":{"ISO3166_2":"AK"},"countryName":"United States","fcodeName":"administrative division","adminName1":"Alaska","lat":"59.24306","fcode":"ADMD"},{"adminCode1":"AK","lng":"-135.47306","geonameId":5846868,"toponymName":"HES 206","countryId":"6252001","fcl":"A","population":0,"countryCode":"US","name":"HES 206","fclName":"country, state, region,...","adminCodes1":{"ISO3166_2":"AK"},"countryName":"United States","fcodeName":"administrative division","adminName1":"Alaska","lat":"59.24444","fcode":"ADMD"},{"adminCode1":"AK","lng":"-135.45972","geonameId":5846876,"toponymName":"HES 205","countryId":"6252001","fcl":"A","population":0,"countryCode":"US","name":"HES 205","fclName":"country, state, region,...","adminCodes1":{"ISO3166_2":"AK"},"countryName":"United States","fcodeName":"administrative division","adminName1":"Alaska","lat":"59.23861","fcode":"ADMD"},{"adminCode1":"AK","lng":"-135.47222","geonameId":5846880,"toponymName":"HES 1255","countryId":"6252001","fcl":"A","population":0,"countryCode":"US","name":"HES 1255","fclName":"country, state, region,...","adminCodes1":{"ISO3166_2":"AK"},"countryName":"United States","fcodeName":"administrative division","adminName1":"Alaska","lat":"59.23333","fcode":"ADMD"},{"adminCode1":"AK","lng":"-135.45694","geonameId":5846887,"toponymName":"HES 735","countryId":"6252001","fcl":"A","population":0,"countryCode":"US","name":"HES 735","fclName":"country, state, region,...","adminCodes1":{"ISO3166_2":"AK"},"countryName":"United States","fcodeName":"administrative division","adminName1":"Alaska","lat":"59.23333","fcode":"ADMD"},{"adminCode1":"AK","lng":"-135.45444","geonameId":5846888,"toponymName":"HES 2716","countryId":"6252001","fcl":"A","population":0,"countryCode":"US","name":"HES 2716","fclName":"country, state, region,...","adminCodes1":{"ISO3166_2":"AK"},"countryName":"United States","fcodeName":"administrative division","adminName1":"Alaska","lat":"59.22528","fcode":"ADMD"},{"adminCode1":"AK","lng":"-135.44306","geonameId":5846889,"toponymName":"HES 690","countryId":"6252001","fcl":"A","population":0,"countryCode":"US","name":"HES 690","fclName":"country, state, region,...","adminCodes1":{"ISO3166_2":"AK"},"countryName":"United States","fcodeName":"administrative division","adminName1":"Alaska","lat":"59.24167","fcode":"ADMD"},{"adminCode1":"AK","lng":"-135.46861","geonameId":5846891,"toponymName":"HES 785","countryId":"6252001","fcl":"A","population":0,"countryCode":"US","name":"HES 785","fclName":"country, state, region,...","adminCodes1":{"ISO3166_2":"AK"},"countryName":"United States","fcodeName":"administrative division","adminName1":"Alaska","lat":"59.23417","fcode":"ADMD"},{"adminCode1":"AK","lng":"-135.47389","geonameId":5846909,"toponymName":"HES 977","countryId":"6252001","fcl":"A","population":0,"countryCode":"US","name":"HES 977","fclName":"country, state, region,...","adminCodes1":{"ISO3166_2":"AK"},"countryName":"United States","fcodeName":"administrative division","adminName1":"Alaska","lat":"59.22917","fcode":"ADMD"},{"adminCode1":"AK","lng":"-136.14809","geonameId":5847081,"toponymName":"Herman Lake","countryId":"6252001","fcl":"H","population":0,"countryCode":"US","name":"Herman Lake","fclName":"stream, lake, ...","adminCodes1":{"ISO3166_2":"AK"},"countryName":"United States","fcodeName":"lake","adminName1":"Alaska","lat":"59.41089","fcode":"LK"},{"adminCode1":"AK","lng":"-135.37833","geonameId":5553575,"toponymName":"HES 1242","countryId":"6252001","fcl":"A","population":0,"countryCode":"US","name":"HES 1242","fclName":"country, state, region,...","adminCodes1":{"ISO3166_2":"AK"},"countryName":"United States","fcodeName":"administrative division","adminName1":"Alaska","lat":"59.1625","fcode":"ADMD"},{"adminCode1":"AK","lng":"-135.69333","geonameId":5553577,"toponymName":"Mount Kashagnak","countryId":"6252001","fcl":"T","population":0,"countryCode":"US","name":"Mount Kashagnak","fclName":"mountain,hill,rock,... ","adminCodes1":{"ISO3166_2":"AK"},"countryName":"United States","fcodeName":"mountain","adminName1":"Alaska","lat":"59.3775","fcode":"MT"},{"adminCode1":"AK","lng":"-135.83583","geonameId":5553832,"toponymName":"Iron Mountain","countryId":"6252001","fcl":"T","population":0,"countryCode":"US","name":"Iron Mountain","fclName":"mountain,hill,rock,... ","adminCodes1":{"ISO3166_2":"AK"},"countryName":"United States","fcodeName":"mountain","adminName1":"Alaska","lat":"59.42528","fcode":"MT"},{"adminCode1":"AK","lng":"-135.25028","geonameId":5554314,"toponymName":"Kataguni Island","countryId":"6252001","fcl":"T","population":0,"countryCode":"US","name":"Kataguni Island","fclName":"mountain,hill,rock,... ","adminCodes1":{"ISO3166_2":"AK"},"countryName":"United States","fcodeName":"island","adminName1":"Alaska","lat":"59.015","fcode":"ISL"},{"adminCode1":"AK","lng":"-135.93","geonameId":5554586,"toponymName":"Klehini River","countryId":"6252001","fcl":"H","population":0,"countryCode":"US","name":"Klehini River","fclName":"stream, lake, ...","adminCodes1":{"ISO3166_2":"AK"},"countryName":"United States","fcodeName":"stream","adminName1":"Alaska","lat":"59.41167","fcode":"STM"},{"adminCode1":"AK","lng":"-135.86806","geonameId":5554634,"toponymName":"Klukwan Indian Reservation (historical)","countryId":"6252001","fcl":"A","population":0,"countryCode":"US","name":"Klukwan Indian Reservation (historical)","fclName":"country, state, region,...","adminCodes1":{"ISO3166_2":"AK"},"countryName":"United States","fcodeName":"administrative division","adminName1":"Alaska","lat":"59.39722","fcode":"ADMD"},{"adminCode1":"AK","lng":"-135.37806","geonameId":5554956,"toponymName":"Lehunua Island","countryId":"6252001","fcl":"T","population":0,"countryCode":"US","name":"Lehunua Island","fclName":"mountain,hill,rock,... ","adminCodes1":{"ISO3166_2":"AK"},"countryName":"United States","fcodeName":"island","adminName1":"Alaska","lat":"59.145","fcode":"ISL"},{"adminCode1":"AK","lng":"-135.38333","geonameId":5554958,"toponymName":"Lehunua Point","countryId":"6252001","fcl":"T","population":0,"countryCode":"US","name":"Lehunua Point","fclName":"mountain,hill,rock,... ","adminCodes1":{"ISO3166_2":"AK"},"countryName":"United States","fcodeName":"cape","adminName1":"Alaska","lat":"59.15","fcode":"CAPE"},{"adminCode1":"AK","lng":"-135.39436","geonameId":5555062,"toponymName":"Lily Lake","countryId":"6252001","fcl":"H","population":0,"countryCode":"US","name":"Lily Lake","fclName":"stream, lake, ...","adminCodes1":{"ISO3166_2":"AK"},"countryName":"United States","fcodeName":"lake","adminName1":"Alaska","lat":"59.20327","fcode":"LK"},{"adminCode1":"AK","lng":"-135.20333","geonameId":5555454,"toponymName":"Lynn Brothers","countryId":"6252001","fcl":"T","population":0,"countryCode":"US","name":"Lynn Brothers","fclName":"mountain,hill,rock,... ","adminCodes1":{"ISO3166_2":"AK"},"countryName":"United States","fcodeName":"island","adminName1":"Alaska","lat":"58.60778","fcode":"ISL"},{"adminCode1":"AK","lng":"-135.12056","geonameId":5555458,"toponymName":"Lynn Sisters","countryId":"6252001","fcl":"T","population":0,"countryCode":"US","name":"Lynn Sisters","fclName":"mountain,hill,rock,... ","adminCodes1":{"ISO3166_2":"AK"},"countryName":"United States","fcodeName":"island","adminName1":"Alaska","lat":"58.49361","fcode":"ISL"},{"adminCode1":"AK","lng":"-135.31631","geonameId":5556248,"toponymName":"Paradise Lake","countryId":"6252001","fcl":"H","population":0,"countryCode":"US","name":"Paradise Lake","fclName":"stream, lake, ...","adminCodes1":{"ISO3166_2":"AK"},"countryName":"United States","fcodeName":"lake","adminName1":"Alaska","lat":"59.25058","fcode":"LK"},{"adminCode1":"AK","lng":"-135.05188","geonameId":5556764,"toponymName":"Rocky Island","countryId":"6252001","fcl":"T","population":0,"countryCode":"US","name":"Rocky Island","fclName":"mountain,hill,rock,... ","adminCodes1":{"ISO3166_2":"AK"},"countryName":"United States","fcodeName":"island","adminName1":"Alaska","lat":"58.17738","fcode":"ISL"},{"adminCode1":"AK","lng":"-135.86028","geonameId":5556865,"toponymName":"SUR 786","countryId":"6252001","fcl":"A","population":0,"countryCode":"US","name":"SUR 786","fclName":"country, state, region,...","adminCodes1":{"ISO3166_2":"AK"},"countryName":"United States","fcodeName":"administrative division","adminName1":"Alaska","lat":"59.35639","fcode":"ADMD"},{"adminCode1":"AK","lng":"-135.92333","geonameId":5556866,"toponymName":"SUR 948","countryId":"6252001","fcl":"A","population":0,"countryCode":"US","name":"SUR 948","fclName":"country, state, region,...","adminCodes1":{"ISO3166_2":"AK"},"countryName":"United States","fcodeName":"administrative division","adminName1":"Alaska","lat":"59.4125","fcode":"ADMD"},{"adminCode1":"AK","lng":"-135.91917","geonameId":5556867,"toponymName":"SUR 991","countryId":"6252001","fcl":"A","population":0,"countryCode":"US","name":"SUR 991","fclName":"country, state, region,...","adminCodes1":{"ISO3166_2":"AK"},"countryName":"United States","fcodeName":"administrative division","adminName1":"Alaska","lat":"59.40833","fcode":"ADMD"},{"adminCode1":"AK","lng":"-134.9588","geonameId":5557402,"toponymName":"Snow Top","countryId":"6252001","fcl":"T","population":0,"countryCode":"US","name":"Snow Top","fclName":"mountain,hill,rock,... ","adminCodes1":{"ISO3166_2":"AK"},"countryName":"United States","fcodeName":"mountain","adminName1":"Alaska","lat":"59.28141","fcode":"MT"},{"adminCode1":"AK","lng":"-136.30549","geonameId":5557742,"toponymName":"Surgeon Mountain","countryId":"6252001","fcl":"T","population":0,"countryCode":"US","name":"Surgeon Mountain","fclName":"mountain,hill,rock,... ","adminCodes1":{"ISO3166_2":"AK"},"countryName":"United States","fcodeName":"mountain","adminName1":"Alaska","lat":"59.46504","fcode":"MT"},{"adminCode1":"AK","lng":"-135.27492","geonameId":5557844,"toponymName":"Talsani Island","countryId":"6252001","fcl":"T","population":0,"countryCode":"US","name":"Talsani Island","fclName":"mountain,hill,rock,... ","adminCodes1":{"ISO3166_2":"AK"},"countryName":"United States","fcodeName":"island","adminName1":"Alaska","lat":"59.0765","fcode":"ISL"},{"adminCode1":"AK","lng":"-135.19459","geonameId":5557873,"toponymName":"Teardrop Lake","countryId":"6252001","fcl":"H","population":0,"countryCode":"US","name":"Teardrop Lake","fclName":"stream, lake, ...","adminCodes1":{"ISO3166_2":"AK"},"countryName":"United States","fcodeName":"lake","adminName1":"Alaska","lat":"58.35608","fcode":"LK"},{"adminCode1":"AK","lng":"-136.14536","geonameId":5558313,"toponymName":"Walker Lake","countryId":"6252001","fcl":"H","population":0,"countryCode":"US","name":"Walker Lake","fclName":"stream, lake, ...","adminCodes1":{"ISO3166_2":"AK"},"countryName":"United States","fcodeName":"lake","adminName1":"Alaska","lat":"59.39529","fcode":"LK"},{"adminCode1":"AK","lng":"-135.13725","geonameId":5558443,"toponymName":"Point Whidbey","countryId":"6252001","fcl":"T","population":0,"countryCode":"US","name":"Point Whidbey","fclName":"mountain,hill,rock,... ","adminCodes1":{"ISO3166_2":"AK"},"countryName":"United States","fcodeName":"cape","adminName1":"Alaska","lat":"58.57661","fcode":"CAPE"},{"adminCode1":"AK","lng":"-135.53167","geonameId":5558651,"toponymName":"Yindastuki Indian Reservation (historical)","countryId":"6252001","fcl":"A","population":0,"countryCode":"US","name":"Yindastuki Indian Reservation (historical)","fclName":"country, state, region,...","adminCodes1":{"ISO3166_2":"AK"},"countryName":"United States","fcodeName":"administrative division","adminName1":"Alaska","lat":"59.25056","fcode":"ADMD"},{"adminCode1":"AK","lng":"-135.525","geonameId":5558653,"toponymName":"Yindastuki","countryId":"6252001","fcl":"L","population":0,"countryCode":"US","name":"Yindastuki","fclName":"parks,area, ...","adminCodes1":{"ISO3166_2":"AK"},"countryName":"United States","fcodeName":"area","adminName1":"Alaska","lat":"59.24917","fcode":"AREA"},{"adminCode1":"AK","lng":"-135.63111","geonameId":5558667,"toponymName":"Zimovia Point","countryId":"6252001","fcl":"T","population":0,"countryCode":"US","name":"Zimovia Point","fclName":"mountain,hill,rock,... ","adminCodes1":{"ISO3166_2":"AK"},"countryName":"United States","fcodeName":"cape","adminName1":"Alaska","lat":"59.26667","fcode":"CAPE"},{"adminCode1":"AK","lng":"-135.56361","geonameId":8124921,"toponymName":"Chilkoot Lake State Recreation Area","countryId":"6252001","fcl":"L","population":0,"countryCode":"US","name":"Chilkoot Lake State Recreation Area","fclName":"parks,area, ...","adminCodes1":{"ISO3166_2":"AK"},"countryName":"United States","fcodeName":"park","adminName1":"Alaska","lat":"59.33583","fcode":"PRK"},{"adminCode1":"AK","lng":"-135.18611","geonameId":8125127,"toponymName":"Saint James Bay State Marine Park","countryId":"6252001","fcl":"L","population":0,"countryCode":"US","name":"Saint James Bay State Marine Park","fclName":"parks,area, ...","adminCodes1":{"ISO3166_2":"AK"},"countryName":"United States","fcodeName":"park","adminName1":"Alaska","lat":"58.60417","fcode":"PRK"},{"adminCode1":"AK","lng":"-136.23714","geonameId":11549167,"toponymName":"Porcupine (historical)","countryId":"6252001","fcl":"P","population":0,"countryCode":"US","name":"Porcupine (historical)","fclName":"city, village,...","adminCodes1":{"ISO3166_2":"AK"},"countryName":"United States","fcodeName":"historical populated place","adminName1":"Alaska","lat":"59.4223","fcode":"PPLH"},{"adminCode1":"AK","lng":"-135.43986","geonameId":5846907,"toponymName":"Haines Seaplane Base","countryId":"6252001","fcl":"H","population":0,"countryCode":"US","name":"Haines Seaplane Base","fclName":"stream, lake, ...","adminCodes1":{"ISO3166_2":"AK"},"countryName":"United States","fcodeName":"seaplane landing area","adminName1":"Alaska","lat":"59.23513","fcode":"AIRS"},{"adminCode1":"OR","lng":"-117.93883","geonameId":5729884,"toponymName":"Haines","countryId":"6252001","fcl":"P","population":418,"countryCode":"US","name":"Haines","fclName":"city, village,...","adminCodes1":{"ISO3166_2":"OR"},"countryName":"United States","fcodeName":"populated place","adminName1":"Oregon","lat":"44.91153","fcode":"PPL"},{"adminCode1":"RI","lng":"-71.33977","geonameId":5222513,"toponymName":"Haines Memorial State Park","countryId":"6252001","fcl":"L","population":0,"countryCode":"US","name":"Haines Memorial State Park","fclName":"parks,area, ...","adminCodes1":{"ISO3166_2":"RI"},"countryName":"United States","fcodeName":"park","adminName1":"Rhode Island","lat":"41.7526","fcode":"PRK"},{"adminCode1":"IL","lng":"-88.90645","geonameId":4242136,"toponymName":"Kell","countryId":"6252001","fcl":"P","population":215,"countryCode":"US","name":"Kell","fclName":"city, village,...","adminCodes1":{"ISO3166_2":"IL"},"countryName":"United States","fcodeName":"populated place","adminName1":"Illinois","lat":"38.49116","fcode":"PPL"},{"adminCode1":"AK","lng":"-136.36282","geonameId":5556419,"toponymName":"Pleasant Camp","countryId":"6252001","fcl":"S","population":0,"countryCode":"US","name":"Dalton Trail Camp","fclName":"spot, building, farm","adminCodes1":{"ISO3166_2":"AK"},"countryName":"United States","fcodeName":"camp(s)","adminName1":"Alaska","lat":"59.45008","fcode":"CMP"}]}
