{"totalResultsCount":69,"geonames":[{"adminCode1":"127","lng":"-66.05103","geonameId":7268463,"toponymName":"Hato Rey Central Barrio","countryId":"4566966","fcl":"A","population":0,"countryCode":"PR","name":"Hato Rey Central Barrio","fclName":"country, state, region,...","adminCodes1":{},"countryName":"Puerto Rico","fcodeName":"second-order administrative division","adminName1":"San Juan","lat":"18.42173","fcode":"ADM2"},{"adminCode1":"127","lng":"-66.0779","geonameId":7268464,"toponymName":"Hato Rey Norte Barrio","countryId":"4566966","fcl":"A","population":0,"countryCode":"PR","name":"Hato Rey Norte Barrio","fclName":"country, state, region,...","adminCodes1":{},"countryName":"Puerto Rico","fcodeName":"second-order administrative division","adminName1":"San Juan","lat":"18.42763","fcode":"ADM2"},{"adminCode1":"127","lng":"-66.0586","geonameId":7268465,"toponymName":"Hato Rey Sur Barrio","countryId":"4566966","fcl":"A","population":0,"countryCode":"PR","name":"Hato Rey Sur Barrio","fclName":"country, state, region,...","adminCodes1":{},"countryName":"Puerto Rico","fcodeName":"second-order administrative division","adminName1":"San Juan","lat":"18.4048","fcode":"ADM2"},{"adminCode1":"127","lng":"-66.06044","geonameId":4564243,"toponymName":"El Vedado","countryId":"4566966","fcl":"P","population":0,"countryCode":"PR","name":"El Vedado","fclName":"city, village,...","adminCodes1":{},"countryName":"Puerto Rico","fcodeName":"populated place","adminName1":"San Juan","lat":"18.418","fcode":"PPL"},{"adminCode1":"127","lng":"-66.06405","geonameId":4564253,"toponymName":"Eleanor Roosevelt","countryId":"4566966","fcl":"P","population":0,"countryCode":"PR","name":"Eleanor Roosevelt","fclName":"city, village,...","adminCodes1":{},"countryName":"Puerto Rico","fcodeName":"populated place","adminName1":"San Juan","lat":"18.41634","fcode":"PPL"},{"adminCode1":"127","lng":"-66.05294","geonameId":4564989,"toponymName":"Floral Park","countryId":"4566966","fcl":"P","population":0,"countryCode":"PR","name":"Floral Park","fclName":"city, village,...","adminCodes1":{},"countryName":"Puerto Rico","fcodeName":"populated place","adminName1":"San Juan","lat":"18.418","fcode":"PPL"},{"adminCode1":"127","lng":"-66.06128","geonameId":4565454,"toponymName":"Hyde Park","countryId":"4566966","fcl":"P","population":0,"countryCode":"PR","name":"Hyde Park","fclName":"city, village,...","adminCodes1":{},"countryName":"Puerto Rico","fcodeName":"populated place","adminName1":"San Juan","lat":"18.40745","fcode":"PPL"},{"adminCode1":"127","lng":"-66.05267","geonameId":4566195,"toponymName":"Martín Peña","countryId":"4566966","fcl":"P","population":0,"countryCode":"PR","name":"Martín Peña","fclName":"city, village,...","adminCodes1":{},"countryName":"Puerto Rico","fcodeName":"populated place","adminName1":"San Juan","lat":"18.42717","fcode":"PPL"},{"adminCode1":"127","lng":"-66.04794","geonameId":4567558,"toponymName":"Quintana","countryId":"4566966","fcl":"P","population":0,"countryCode":"PR","name":"Quintana","fclName":"city, village,...","adminCodes1":{},"countryName":"Puerto Rico","fcodeName":"populated place","adminName1":"San Juan","lat":"18.41467","fcode":"PPL"},{"adminCode1":"127","lng":"-66.05628","geonameId":4568234,"toponymName":"Santa Rita","countryId":"4566966","fcl":"P","population":0,"countryCode":"PR","name":"Santa Rita","fclName":"city, village,...","adminCodes1":{},"countryName":"Puerto Rico","fcodeName":"populated place","adminName1":"San Juan","lat":"18.40245","fcode":"PPL"},{"adminCode1":"127","lng":"-66.07517","geonameId":4563893,"toponymName":"Coliseo Roberto Clemente","countryId":"4566966","fcl":"S","population":0,"countryCode":"PR","name":"Coliseo Roberto Clemente","fclName":"spot, building, farm","adminCodes1":{},"countryName":"Puerto Rico","fcodeName":"building(s)","adminName1":"San Juan","lat":"18.41578","fcode":"BLDG"},{"adminCode1":"127","lng":"-66.07239","geonameId":4564886,"toponymName":"Estadio Municipal Hiram Bithorn","countryId":"4566966","fcl":"S","population":0,"countryCode":"PR","name":"Estadio Municipal Hiram Bithorn","fclName":"spot, building, farm","adminCodes1":{},"countryName":"Puerto Rico","fcodeName":"","adminName1":"San Juan","lat":"18.41606"},{"adminCode1":"127","lng":"-66.05655","geonameId":4565570,"toponymName":"Interamerican University","countryId":"4566966","fcl":"S","population":0,"countryCode":"PR","name":"Interamerican University","fclName":"spot, building, farm","adminCodes1":{},"countryName":"Puerto Rico","fcodeName":"school","adminName1":"San Juan","lat":"18.42106","fcode":"SCH"},{"adminCode1":"127","lng":"-66.07378","geonameId":4566868,"toponymName":"Plaza las Americas Mall Shopping Center","countryId":"4566966","fcl":"S","population":0,"countryCode":"PR","name":"Plaza las Americas Mall Shopping Center","fclName":"spot, building, farm","adminCodes1":{},"countryName":"Puerto Rico","fcodeName":"mall","adminName1":"San Juan","lat":"18.42217","fcode":"MALL"},{"adminCode1":"127","lng":"-66.06134","geonameId":11102113,"toponymName":"José Miguel Agrelot Coliseum","countryId":"4566966","fcl":"S","population":0,"countryCode":"PR","name":"José Miguel Agrelot Coliseum","fclName":"spot, building, farm","adminCodes1":{},"countryName":"Puerto Rico","fcodeName":"stadium","adminName1":"San Juan","lat":"18.42815","fcode":"STDM"},{"adminCode1":"127","lng":"-66.06155","geonameId":4565453,"toponymName":"Huyke","countryId":"4566966","fcl":"P","population":0,"countryCode":"PR","name":"Huyke","fclName":"city, village,...","adminCodes1":{},"countryName":"Puerto Rico","fcodeName":"populated place","adminName1":"San Juan","lat":"18.42189","fcode":"PPL"},{"adminCode1":"127","lng":"-66.06239","geonameId":4562735,"toponymName":"Baldrich","countryId":"4566966","fcl":"P","population":0,"countryCode":"PR","name":"Baldrich","fclName":"city, village,...","adminCodes1":{},"countryName":"Puerto Rico","fcodeName":"populated place","adminName1":"San Juan","lat":"18.41134","fcode":"PPL"},{"adminCode1":"127","lng":"-66.06391","geonameId":7276386,"toponymName":"San Juan Zona Urbana","countryId":"4566966","fcl":"P","population":0,"countryCode":"PR","name":"San Juan Zona Urbana","fclName":"city, village,...","adminCodes1":{},"countryName":"Puerto Rico","fcodeName":"populated place","adminName1":"San Juan","lat":"18.40652","fcode":"PPL"},{"adminCode1":"127","lng":"-66.04767","geonameId":4564090,"toponymName":"Davita y Llenza","countryId":"4566966","fcl":"P","population":0,"countryCode":"PR","name":"Davita y Llenza","fclName":"city, village,...","adminCodes1":{},"countryName":"Puerto Rico","fcodeName":"populated place","adminName1":"San Juan","lat":"18.41828","fcode":"PPL"},{"adminCode1":"127","lng":"-66.05378","geonameId":4565360,"toponymName":"Hector A Piñero","countryId":"4566966","fcl":"P","population":0,"countryCode":"PR","name":"Hector A Piñero","fclName":"city, village,...","adminCodes1":{},"countryName":"Puerto Rico","fcodeName":"populated place","adminName1":"San Juan","lat":"18.42356","fcode":"PPL"},{"adminCode1":"127","lng":"-66.0635","geonameId":4566194,"toponymName":"Martin Martell","countryId":"4566966","fcl":"P","population":0,"countryCode":"PR","name":"Martin Martell","fclName":"city, village,...","adminCodes1":{},"countryName":"Puerto Rico","fcodeName":"populated place","adminName1":"San Juan","lat":"18.42745","fcode":"PPL"},{"adminCode1":"127","lng":"-66.07933","geonameId":4566413,"toponymName":"Nemesio Canales","countryId":"4566966","fcl":"P","population":0,"countryCode":"PR","name":"Nemesio Canales","fclName":"city, village,...","adminCodes1":{},"countryName":"Puerto Rico","fcodeName":"populated place","adminName1":"San Juan","lat":"18.42078","fcode":"PPL"},{"adminCode1":"127","lng":"-66.0535","geonameId":4566699,"toponymName":"Pérez Morris","countryId":"4566966","fcl":"P","population":0,"countryCode":"PR","name":"Pérez Morris","fclName":"city, village,...","adminCodes1":{},"countryName":"Puerto Rico","fcodeName":"populated place","adminName1":"San Juan","lat":"18.41522","fcode":"PPL"},{"adminCode1":"127","lng":"-66.06711","geonameId":4568133,"toponymName":"San Juan Chateau","countryId":"4566966","fcl":"P","population":0,"countryCode":"PR","name":"San Juan Chateau","fclName":"city, village,...","adminCodes1":{},"countryName":"Puerto Rico","fcodeName":"populated place","adminName1":"San Juan","lat":"18.43022","fcode":"PPL"},{"adminCode1":"127","lng":"-66.06155","geonameId":4568189,"toponymName":"Santa Ana","countryId":"4566966","fcl":"P","population":0,"countryCode":"PR","name":"Santa Ana","fclName":"city, village,...","adminCodes1":{},"countryName":"Puerto Rico","fcodeName":"populated place","adminName1":"San Juan","lat":"18.40134","fcode":"PPL"},{"adminCode1":"127","lng":"-66.06517","geonameId":4568484,"toponymName":"University Gardens","countryId":"4566966","fcl":"P","population":0,"countryCode":"PR","name":"University Gardens","fclName":"city, village,...","adminCodes1":{},"countryName":"Puerto Rico","fcodeName":"populated place","adminName1":"San Juan","lat":"18.40578","fcode":"PPL"},{"adminCode1":"127","lng":"-66.06822","geonameId":4563973,"toponymName":"Conservatorio de Musica","countryId":"4566966","fcl":"S","population":0,"countryCode":"PR","name":"Conservatorio de Musica","fclName":"spot, building, farm","adminCodes1":{},"countryName":"Puerto Rico","fcodeName":"school","adminName1":"San Juan","lat":"18.42078","fcode":"SCH"},{"adminCode1":"127","lng":"-66.05683","geonameId":4565354,"toponymName":"Hato Rey Post Office","countryId":"4566966","fcl":"S","population":0,"countryCode":"PR","name":"Hato Rey Post Office","fclName":"spot, building, farm","adminCodes1":{},"countryName":"Puerto Rico","fcodeName":"post office","adminName1":"San Juan","lat":"18.42661","fcode":"PO"},{"adminCode1":"127","lng":"-66.0867","geonameId":6510129,"toponymName":"Hotel Milano","countryId":"4566966","fcl":"S","population":0,"countryCode":"PR","name":"Hotel Milano","fclName":"spot, building, farm","adminCodes1":{},"countryName":"Puerto Rico","fcodeName":"hotel","adminName1":"San Juan","lat":"18.439","fcode":"HTL"},{"adminCode1":"127","lng":"-66.04683","geonameId":4563828,"toponymName":"Colegio Lourdes","countryId":"4566966","fcl":"S","population":0,"countryCode":"PR","name":"Colegio Lourdes","fclName":"spot, building, farm","adminCodes1":{},"countryName":"Puerto Rico","fcodeName":"school","adminName1":"San Juan","lat":"18.41245","fcode":"SCH"},{"adminCode1":"127","lng":"-66.06267","geonameId":4564613,"toponymName":"Escuela Osuna","countryId":"4566966","fcl":"S","population":0,"countryCode":"PR","name":"Escuela Osuna","fclName":"spot, building, farm","adminCodes1":{},"countryName":"Puerto Rico","fcodeName":"school","adminName1":"San Juan","lat":"18.41245","fcode":"SCH"},{"adminCode1":"127","lng":"-66.05405","geonameId":4562856,"toponymName":"Bellos Oficios","countryId":"4566966","fcl":"S","population":0,"countryCode":"PR","name":"Bellos Oficios","fclName":"spot, building, farm","adminCodes1":{},"countryName":"Puerto Rico","fcodeName":"building(s)","adminName1":"San Juan","lat":"18.40217","fcode":"BLDG"},{"adminCode1":"127","lng":"-66.0867","geonameId":6509851,"toponymName":"El Portal Hotel","countryId":"4566966","fcl":"S","population":0,"countryCode":"PR","name":"El Portal Hotel","fclName":"spot, building, farm","adminCodes1":{},"countryName":"Puerto Rico","fcodeName":"hotel","adminName1":"San Juan","lat":"18.439","fcode":"HTL"},{"adminCode1":"127","lng":"-66.0867","geonameId":6506184,"toponymName":"Esj Towers","countryId":"4566966","fcl":"S","population":0,"countryCode":"PR","name":"Esj Towers","fclName":"spot, building, farm","adminCodes1":{},"countryName":"Puerto Rico","fcodeName":"hotel","adminName1":"San Juan","lat":"18.439","fcode":"HTL"},{"adminCode1":"127","lng":"-66.0867","geonameId":6506599,"toponymName":"Hj Htl Carolina San Juan Pr","countryId":"4566966","fcl":"S","population":0,"countryCode":"PR","name":"Hj Htl Carolina San Juan Pr","fclName":"spot, building, farm","adminCodes1":{},"countryName":"Puerto Rico","fcodeName":"hotel","adminName1":"San Juan","lat":"18.439","fcode":"HTL"},{"adminCode1":"127","lng":"-66.05641","geonameId":7271259,"toponymName":"Domenech Station San Juan Metro","countryId":"4566966","fcl":"S","population":0,"countryCode":"PR","name":"Domenech Station San Juan Metro","fclName":"spot, building, farm","adminCodes1":{},"countryName":"Puerto Rico","fcodeName":"","adminName1":"San Juan","lat":"18.41559"},{"adminCode1":"127","lng":"-66.05542","geonameId":7271265,"toponymName":"Pinero Station San Juan Metro","countryId":"4566966","fcl":"S","population":0,"countryCode":"PR","name":"Pinero Station San Juan Metro","fclName":"spot, building, farm","adminCodes1":{},"countryName":"Puerto Rico","fcodeName":"","adminName1":"San Juan","lat":"18.41091"},{"adminCode1":"127","lng":"-66.05891","geonameId":7271267,"toponymName":"Roosevelt Station San Juan Metro","countryId":"4566966","fcl":"S","population":0,"countryCode":"PR","name":"Roosevelt Station San Juan Metro","fclName":"spot, building, farm","adminCodes1":{},"countryName":"Puerto Rico","fcodeName":"","adminName1":"San Juan","lat":"18.42325"},{"adminCode1":"127","lng":"-66.08495","geonameId":7277271,"toponymName":"Puerto Nuevo Water Treatment Plant","countryId":"4566966","fcl":"S","population":0,"countryCode":"PR","name":"Puerto Nuevo Water Treatment Plant","fclName":"spot, building, farm","adminCodes1":{},"countryName":"Puerto Rico","fcodeName":"","adminName1":"San Juan","lat":"18.42976"},{"adminCode1":"127","lng":"-66.07427","geonameId":7269330,"toponymName":"Cardiovascular Center of Puerto Rico and the Caribbean","countryId":"4566966","fcl":"S","population":0,"countryCode":"PR","name":"Cardiovascular Center of Puerto Rico and the Caribbean","fclName":"spot, building, farm","adminCodes1":{},"countryName":"Puerto Rico","fcodeName":"hospital","adminName1":"San Juan","lat":"18.42106","fcode":"HSP"},{"adminCode1":"127","lng":"-66.04954","geonameId":7269369,"toponymName":"Barrio Obrero Station Post Office","countryId":"4566966","fcl":"S","population":0,"countryCode":"PR","name":"Barrio Obrero Station Post Office","fclName":"spot, building, farm","adminCodes1":{},"countryName":"Puerto Rico","fcodeName":"post office","adminName1":"San Juan","lat":"18.42872","fcode":"PO"},{"adminCode1":"127","lng":"-66.06621","geonameId":7269380,"toponymName":"Commonwealth High School","countryId":"4566966","fcl":"S","population":0,"countryCode":"PR","name":"Commonwealth High School","fclName":"spot, building, farm","adminCodes1":{},"countryName":"Puerto Rico","fcodeName":"school","adminName1":"San Juan","lat":"18.41913","fcode":"SCH"},{"adminCode1":"127","lng":"-66.0867","geonameId":6512040,"toponymName":"El Canario By The Lagoon","countryId":"4566966","fcl":"S","population":0,"countryCode":"PR","name":"El Canario By The Lagoon","fclName":"spot, building, farm","adminCodes1":{},"countryName":"Puerto Rico","fcodeName":"hotel","adminName1":"San Juan","lat":"18.439","fcode":"HTL"},{"adminCode1":"127","lng":"-66.0867","geonameId":6512175,"toponymName":"Ceiba Country Inn","countryId":"4566966","fcl":"S","population":0,"countryCode":"PR","name":"Ceiba Country Inn","fclName":"spot, building, farm","adminCodes1":{},"countryName":"Puerto Rico","fcodeName":"hotel","adminName1":"San Juan","lat":"18.439","fcode":"HTL"},{"adminCode1":"127","lng":"-66.0867","geonameId":6512346,"toponymName":"Ritz-Carlton San Juan Casino","countryId":"4566966","fcl":"S","population":0,"countryCode":"PR","name":"Ritz-Carlton San Juan Casino","fclName":"spot, building, farm","adminCodes1":{},"countryName":"Puerto Rico","fcodeName":"hotel","adminName1":"San Juan","lat":"18.439","fcode":"HTL"},{"adminCode1":"127","lng":"-66.0867","geonameId":6512363,"toponymName":"El Canario Inn","countryId":"4566966","fcl":"S","population":0,"countryCode":"PR","name":"El Canario Inn","fclName":"spot, building, farm","adminCodes1":{},"countryName":"Puerto Rico","fcodeName":"hotel","adminName1":"San Juan","lat":"18.439","fcode":"HTL"},{"adminCode1":"127","lng":"-66.0867","geonameId":6516871,"toponymName":"Coqui Inn","countryId":"4566966","fcl":"S","population":0,"countryCode":"PR","name":"Coqui Inn","fclName":"spot, building, farm","adminCodes1":{},"countryName":"Puerto Rico","fcodeName":"hotel","adminName1":"San Juan","lat":"18.439","fcode":"HTL"},{"adminCode1":"127","lng":"-66.0867","geonameId":6531667,"toponymName":"Ihp Hotel Consulado","countryId":"4566966","fcl":"S","population":0,"countryCode":"PR","name":"Ihp Hotel Consulado","fclName":"spot, building, farm","adminCodes1":{},"countryName":"Puerto Rico","fcodeName":"hotel","adminName1":"San Juan","lat":"18.439","fcode":"HTL"},{"adminCode1":"127","lng":"-66.0867","geonameId":6531731,"toponymName":"Parador El Buen Cafe","countryId":"4566966","fcl":"S","population":0,"countryCode":"PR","name":"Parador El Buen Cafe","fclName":"spot, building, farm","adminCodes1":{},"countryName":"Puerto Rico","fcodeName":"hotel","adminName1":"San Juan","lat":"18.439","fcode":"HTL"},{"adminCode1":"127","lng":"-66.0867","geonameId":6531767,"toponymName":"Coral Princess Inn","countryId":"4566966","fcl":"S","population":0,"countryCode":"PR","name":"Coral Princess Inn","fclName":"spot, building, farm","adminCodes1":{},"countryName":"Puerto Rico","fcodeName":"hotel","adminName1":"San Juan","lat":"18.439","fcode":"HTL"},{"adminCode1":"127","lng":"-66.0867","geonameId":6527699,"toponymName":"Bw San Juan Airport Casino","countryId":"4566966","fcl":"S","population":0,"countryCode":"PR","name":"Bw San Juan Airport Casino","fclName":"spot, building, farm","adminCodes1":{},"countryName":"Puerto Rico","fcodeName":"hotel","adminName1":"San Juan","lat":"18.439","fcode":"HTL"},{"adminCode1":"127","lng":"-66.0867","geonameId":6527700,"toponymName":"Acacia Seaside Inn Boutique","countryId":"4566966","fcl":"S","population":0,"countryCode":"PR","name":"Acacia Seaside Inn Boutique","fclName":"spot, building, farm","adminCodes1":{},"countryName":"Puerto Rico","fcodeName":"hotel","adminName1":"San Juan","lat":"18.439","fcode":"HTL"},{"adminCode1":"127","lng":"-66.0867","geonameId":6527955,"toponymName":"Coral By The Sea Hotel","countryId":"4566966","fcl":"S","population":0,"countryCode":"PR","name":"Coral By The Sea Hotel","fclName":"spot, building, farm","adminCodes1":{},"countryName":"Puerto Rico","fcodeName":"hotel","adminName1":"San Juan","lat":"18.439","fcode":"HTL"},{"adminCode1":"127","lng":"-66.05544","geonameId":4568896,"toponymName":"WVOZ-FM (Carolina)","countryId":"4566966","fcl":"S","population":0,"countryCode":"PR","name":"WVOZ-FM (Carolina)","fclName":"spot, building, farm","adminCodes1":{},"countryName":"Puerto Rico","fcodeName":"tower","adminName1":"San Juan","lat":"18.40078","fcode":"TOWR"},{"adminCode1":"127","lng":"-66.066","geonameId":4563830,"toponymName":"Colegio Nuestra Señora La Merced","countryId":"4566966","fcl":"S","population":0,"countryCode":"PR","name":"Colegio Nuestra Señora La Merced","fclName":"spot, building, farm","adminCodes1":{},"countryName":"Puerto Rico","fcodeName":"school","adminName1":"San Juan","lat":"18.41273","fcode":"SCH"},{"adminCode1":"127","lng":"-66.07239","geonameId":4563890,"toponymName":"Coliseo Pedrin Zorilla","countryId":"4566966","fcl":"S","population":0,"countryCode":"PR","name":"Coliseo Pedrin Zorilla","fclName":"spot, building, farm","adminCodes1":{},"countryName":"Puerto Rico","fcodeName":"building(s)","adminName1":"San Juan","lat":"18.41439","fcode":"BLDG"},{"adminCode1":"127","lng":"-66.06822","geonameId":4563974,"toponymName":"Conservatory of Music of Puerto Rico Library","countryId":"4566966","fcl":"S","population":0,"countryCode":"PR","name":"Conservatory of Music of Puerto Rico Library","fclName":"spot, building, farm","adminCodes1":{},"countryName":"Puerto Rico","fcodeName":"library","adminName1":"San Juan","lat":"18.42078","fcode":"LIBR"},{"adminCode1":"127","lng":"-66.05905","geonameId":4564104,"toponymName":"Departamento de Turisma","countryId":"4566966","fcl":"S","population":0,"countryCode":"PR","name":"Departamento de Turisma","fclName":"spot, building, farm","adminCodes1":{},"countryName":"Puerto Rico","fcodeName":"building(s)","adminName1":"San Juan","lat":"18.4255","fcode":"BLDG"},{"adminCode1":"127","lng":"-66.05405","geonameId":4564120,"toponymName":"Division de Impresos","countryId":"4566966","fcl":"S","population":0,"countryCode":"PR","name":"Division de Impresos","fclName":"spot, building, farm","adminCodes1":{},"countryName":"Puerto Rico","fcodeName":"building(s)","adminName1":"San Juan","lat":"18.40217","fcode":"BLDG"},{"adminCode1":"127","lng":"-66.05239","geonameId":4564141,"toponymName":"Dormitorio de Varones","countryId":"4566966","fcl":"S","population":0,"countryCode":"PR","name":"Dormitorio de Varones","fclName":"spot, building, farm","adminCodes1":{},"countryName":"Puerto Rico","fcodeName":"building(s)","adminName1":"San Juan","lat":"18.40217","fcode":"BLDG"},{"adminCode1":"127","lng":"-66.051","geonameId":4564377,"toponymName":"Escuela Ciudad Nueva","countryId":"4566966","fcl":"S","population":0,"countryCode":"PR","name":"Escuela Ciudad Nueva","fclName":"spot, building, farm","adminCodes1":{},"countryName":"Puerto Rico","fcodeName":"school","adminName1":"San Juan","lat":"18.423","fcode":"SCH"},{"adminCode1":"127","lng":"-66.06878","geonameId":4565431,"toponymName":"Hospital del Maestro","countryId":"4566966","fcl":"S","population":0,"countryCode":"PR","name":"Hospital del Maestro","fclName":"spot, building, farm","adminCodes1":{},"countryName":"Puerto Rico","fcodeName":"hospital","adminName1":"San Juan","lat":"18.41189","fcode":"HSP"},{"adminCode1":"127","lng":"-66.07711","geonameId":4565562,"toponymName":"Insular Government Number Two Heliport","countryId":"4566966","fcl":"S","population":0,"countryCode":"PR","name":"Insular Government Number Two Heliport","fclName":"spot, building, farm","adminCodes1":{},"countryName":"Puerto Rico","fcodeName":"heliport","adminName1":"San Juan","lat":"18.41523","fcode":"AIRH"},{"adminCode1":"127","lng":"-66.05655","geonameId":4565569,"toponymName":"Inter-American University of Puerto Rico School of Law","countryId":"4566966","fcl":"S","population":0,"countryCode":"PR","name":"Inter-American University of Puerto Rico School of Law","fclName":"spot, building, farm","adminCodes1":{},"countryName":"Puerto Rico","fcodeName":"building(s)","adminName1":"San Juan","lat":"18.42106","fcode":"BLDG"},{"adminCode1":"127","lng":"-66.05655","geonameId":4566245,"toponymName":"Metropolitan Campus Library","countryId":"4566966","fcl":"S","population":0,"countryCode":"PR","name":"Metropolitan Campus Library","fclName":"spot, building, farm","adminCodes1":{},"countryName":"Puerto Rico","fcodeName":"library","adminName1":"San Juan","lat":"18.42106","fcode":"LIBR"},{"adminCode1":"127","lng":"-66.05239","geonameId":4566437,"toponymName":"Oficina de Admisiones","countryId":"4566966","fcl":"S","population":0,"countryCode":"PR","name":"Oficina de Admisiones","fclName":"spot, building, farm","adminCodes1":{},"countryName":"Puerto Rico","fcodeName":"building(s)","adminName1":"San Juan","lat":"18.40439","fcode":"BLDG"},{"adminCode1":"127","lng":"-66.05572","geonameId":4568136,"toponymName":"San Juan Judicial Center","countryId":"4566966","fcl":"S","population":0,"countryCode":"PR","name":"San Juan Judicial Center","fclName":"spot, building, farm","adminCodes1":{},"countryName":"Puerto Rico","fcodeName":"building(s)","adminName1":"San Juan","lat":"18.413","fcode":"BLDG"},{"adminCode1":"127","lng":"-66.05822","geonameId":4562757,"toponymName":"Banco Popular Center Heliport","countryId":"4566966","fcl":"S","population":0,"countryCode":"PR","name":"Banco Popular Center Heliport","fclName":"spot, building, farm","adminCodes1":{},"countryName":"Puerto Rico","fcodeName":"heliport","adminName1":"San Juan","lat":"18.42522","fcode":"AIRH"},{"adminCode1":"127","lng":"-66.06957","geonameId":11152629,"toponymName":"Edificio Fundación Ángel Ramos","countryId":"4566966","fcl":"S","population":0,"countryCode":"PR","name":"Edificio Fundación Ángel Ramos","fclName":"spot, building, farm","adminCodes1":{},"countryName":"Puerto Rico","fcodeName":"building(s)","adminName1":"San Juan","lat":"18.42241","fcode":"BLDG"}]}
