{"totalResultsCount":242,"geonames":[{"adminCode1":"MA","lng":"-71.07728","geonameId":4939085,"toponymName":"Haverhill","countryId":"6252001","fcl":"P","population":62765,"countryCode":"US","name":"Haverhill","fclName":"city, village,...","adminCodes1":{"ISO3166_2":"MA"},"countryName":"United States","fcodeName":"populated place","adminName1":"Massachusetts","lat":"42.7762","fcode":"PPL"},{"adminCode1":"NH","lng":"-72.06398","geonameId":5087270,"toponymName":"Haverhill","countryId":"6252001","fcl":"P","population":4532,"countryCode":"US","name":"Haverhill","fclName":"city, village,...","adminCodes1":{"ISO3166_2":"NH"},"countryName":"United States","fcodeName":"populated place","adminName1":"New Hampshire","lat":"44.03451","fcode":"PPL"},{"adminCode1":"OH","lng":"-82.83211","geonameId":4513917,"toponymName":"Haverhill","countryId":"6252001","fcl":"P","population":0,"countryCode":"US","name":"Haverhill","fclName":"city, village,...","adminCodes1":{"ISO3166_2":"OH"},"countryName":"United States","fcodeName":"populated place","adminName1":"Ohio","lat":"38.5848","fcode":"PPL"},{"adminCode1":"IA","lng":"-92.96075","geonameId":4860058,"toponymName":"Haverhill","countryId":"6252001","fcl":"P","population":175,"countryCode":"US","name":"Haverhill","fclName":"city, village,...","adminCodes1":{"ISO3166_2":"IA"},"countryName":"United States","fcodeName":"populated place","adminName1":"Iowa","lat":"41.94499","fcode":"PPL"},{"adminCode1":"MN","lng":"-92.37366","geonameId":5029553,"toponymName":"Township of Haverhill","countryId":"6252001","fcl":"A","population":0,"countryCode":"US","name":"Haverhill Township","fclName":"country, state, region,...","adminCodes1":{"ISO3166_2":"MN"},"countryName":"United States","fcodeName":"third-order administrative division","adminName1":"Minnesota","lat":"44.06662","fcode":"ADM3"},{"adminCode1":"FL","lng":"-80.12004","geonameId":4158239,"toponymName":"Haverhill","countryId":"6252001","fcl":"P","population":2025,"countryCode":"US","name":"Haverhill","fclName":"city, village,...","adminCodes1":{"ISO3166_2":"FL"},"countryName":"United States","fcodeName":"populated place","adminName1":"Florida","lat":"26.69118","fcode":"PPL"},{"adminCode1":"NH","lng":"-72.03731","geonameId":5094941,"toponymName":"Woodsville","countryId":"6252001","fcl":"P","population":1126,"countryCode":"US","name":"Woodsville","fclName":"city, village,...","adminCodes1":{"ISO3166_2":"NH"},"countryName":"United States","fcodeName":"populated place","adminName1":"New Hampshire","lat":"44.15229","fcode":"PPL"},{"adminCode1":"MA","lng":"-71.07589","geonameId":4931149,"toponymName":"Bradford","countryId":"6252001","fcl":"P","population":0,"countryCode":"US","name":"Bradford","fclName":"city, village,...","adminCodes1":{"ISO3166_2":"MA"},"countryName":"United States","fcodeName":"populated place","adminName1":"Massachusetts","lat":"42.76953","fcode":"PPL"},{"adminCode1":"MA","lng":"-71.08708","geonameId":4939098,"toponymName":"City of Haverhill","countryId":"6252001","fcl":"A","population":60879,"countryCode":"US","name":"City of Haverhill","fclName":"country, state, region,...","adminCodes1":{"ISO3166_2":"MA"},"countryName":"United States","fcodeName":"third-order administrative division","adminName1":"Massachusetts","lat":"42.78382","fcode":"ADM3"},{"adminCode1":"MA","lng":"-71.03283","geonameId":4939086,"toponymName":"Haverhill - Riverside Airport","countryId":"6252001","fcl":"S","population":0,"countryCode":"US","name":"Haverhill - Riverside Airport","fclName":"spot, building, farm","adminCodes1":{"ISO3166_2":"MA"},"countryName":"United States","fcodeName":"airport","adminName1":"Massachusetts","lat":"42.76954","fcode":"AIRP"},{"adminCode1":"MA","lng":"-71.00228","geonameId":4948947,"toponymName":"Rocks Village","countryId":"6252001","fcl":"P","population":0,"countryCode":"US","name":"Rocks Village","fclName":"city, village,...","adminCodes1":{"ISO3166_2":"MA"},"countryName":"United States","fcodeName":"populated place","adminName1":"Massachusetts","lat":"42.80981","fcode":"PPL"},{"adminCode1":"NH","lng":"-72.02648","geonameId":5090375,"toponymName":"North Haverhill","countryId":"6252001","fcl":"P","population":0,"countryCode":"US","name":"North Haverhill","fclName":"city, village,...","adminCodes1":{"ISO3166_2":"NH"},"countryName":"United States","fcodeName":"seat of a second-order administrative division","adminName1":"New Hampshire","lat":"44.09034","fcode":"PPLA2"},{"adminCode1":"FL","lng":"-80.12184","geonameId":7171055,"toponymName":"Town of Haverhill","countryId":"6252001","fcl":"A","population":1873,"countryCode":"US","name":"Town of Haverhill","fclName":"country, state, region,...","adminCodes1":{"ISO3166_2":"FL"},"countryName":"United States","fcodeName":"third-order administrative division","adminName1":"Florida","lat":"26.69096","fcode":"ADM3"},{"adminCode1":"NH","lng":"-71.99513","geonameId":5087274,"toponymName":"Town of Haverhill","countryId":"6252001","fcl":"A","population":4650,"countryCode":"US","name":"Town of Haverhill","fclName":"country, state, region,...","adminCodes1":{"ISO3166_2":"NH"},"countryName":"United States","fcodeName":"third-order administrative division","adminName1":"New Hampshire","lat":"44.07484","fcode":"ADM3"},{"adminCode1":"IA","lng":"-92.96074","geonameId":7163363,"toponymName":"City of Haverhill","countryId":"6252001","fcl":"A","population":173,"countryCode":"US","name":"City of Haverhill","fclName":"country, state, region,...","adminCodes1":{"ISO3166_2":"IA"},"countryName":"United States","fcodeName":"administrative division","adminName1":"Iowa","lat":"41.94412","fcode":"ADMD"},{"adminCode1":"KS","lng":"-96.86698","geonameId":4272739,"toponymName":"Haverhill Oil Field","countryId":"6252001","fcl":"L","population":0,"countryCode":"US","name":"Haverhill Oil Field","fclName":"parks,area, ...","adminCodes1":{"ISO3166_2":"KS"},"countryName":"United States","fcodeName":"oilfield","adminName1":"Kansas","lat":"37.67502","fcode":"OILF"},{"adminCode1":"FL","lng":"-81.22456","geonameId":4158241,"toponymName":"Haverhill Lake","countryId":"6252001","fcl":"H","population":0,"countryCode":"US","name":"Haverhill Lake","fclName":"stream, lake, ...","adminCodes1":{"ISO3166_2":"FL"},"countryName":"United States","fcodeName":"lake","adminName1":"Florida","lat":"28.90261","fcode":"LK"},{"adminCode1":"FL","lng":"-80.12672","geonameId":11668498,"toponymName":"Haverhill Park","countryId":"6252001","fcl":"L","population":0,"countryCode":"US","name":"Haverhill Park","fclName":"parks,area, ...","adminCodes1":{"ISO3166_2":"FL"},"countryName":"United States","fcodeName":"park","adminName1":"Florida","lat":"26.69037","fcode":"PRK"},{"adminCode1":"NH","lng":"-72.00785","geonameId":5085313,"toponymName":"Dean Memorial Airport","countryId":"6252001","fcl":"S","population":0,"countryCode":"US","name":"Dean Memorial Airport","fclName":"spot, building, farm","adminCodes1":{"ISO3166_2":"NH"},"countryName":"United States","fcodeName":"airport","adminName1":"New Hampshire","lat":"44.08057","fcode":"AIRP"},{"adminCode1":"NH","lng":"-72.00814","geonameId":5091090,"toponymName":"Pike","countryId":"6252001","fcl":"P","population":0,"countryCode":"US","name":"Pike","fclName":"city, village,...","adminCodes1":{"ISO3166_2":"NH"},"countryName":"United States","fcodeName":"populated place","adminName1":"New Hampshire","lat":"44.0309","fcode":"PPL"},{"adminCode1":"MA","lng":"-71.00922","geonameId":4941299,"toponymName":"Kimball Hill","countryId":"6252001","fcl":"T","population":0,"countryCode":"US","name":"Kimball Hill","fclName":"mountain,hill,rock,... ","adminCodes1":{"ISO3166_2":"MA"},"countryName":"United States","fcodeName":"mountain","adminName1":"Massachusetts","lat":"42.80398","fcode":"MT"},{"adminCode1":"MA","lng":"-71.107","geonameId":4939091,"toponymName":"Haverhill High School","countryId":"6252001","fcl":"S","population":0,"countryCode":"US","name":"Haverhill High School","fclName":"spot, building, farm","adminCodes1":{"ISO3166_2":"MA"},"countryName":"United States","fcodeName":"school","adminName1":"Massachusetts","lat":"42.78731","fcode":"SCH"},{"adminCode1":"MA","lng":"-71.13645","geonameId":4955011,"toponymName":"West Meadow Hill","countryId":"6252001","fcl":"T","population":0,"countryCode":"US","name":"West Meadow Hill","fclName":"mountain,hill,rock,... ","adminCodes1":{"ISO3166_2":"MA"},"countryName":"United States","fcodeName":"mountain","adminName1":"Massachusetts","lat":"42.78065","fcode":"MT"},{"adminCode1":"MA","lng":"-71.05811","geonameId":4929496,"toponymName":"Ayers Hill","countryId":"6252001","fcl":"T","population":0,"countryCode":"US","name":"Ayers Hill","fclName":"mountain,hill,rock,... ","adminCodes1":{"ISO3166_2":"MA"},"countryName":"United States","fcodeName":"mountain","adminName1":"Massachusetts","lat":"42.80731","fcode":"MT"},{"adminCode1":"NH","lng":"-71.9812","geonameId":5094172,"toponymName":"WYKR-FM (Haverhill)","countryId":"6252001","fcl":"S","population":0,"countryCode":"US","name":"WYKR-FM (Haverhill)","fclName":"spot, building, farm","adminCodes1":{"ISO3166_2":"NH"},"countryName":"United States","fcodeName":"tower","adminName1":"New Hampshire","lat":"44.11368","fcode":"TOWR"},{"adminCode1":"NH","lng":"-71.95537","geonameId":5089940,"toponymName":"Mountain Lakes","countryId":"6252001","fcl":"P","population":488,"countryCode":"US","name":"Mountain Lakes","fclName":"city, village,...","adminCodes1":{"ISO3166_2":"NH"},"countryName":"United States","fcodeName":"populated place","adminName1":"New Hampshire","lat":"44.12145","fcode":"PPL"},{"adminCode1":"KS","lng":"-96.87981","geonameId":4272740,"toponymName":"Butler County / Haverhill Special Education School","countryId":"6252001","fcl":"S","population":0,"countryCode":"US","name":"Butler County / Haverhill Special Education School","fclName":"spot, building, farm","adminCodes1":{"ISO3166_2":"KS"},"countryName":"United States","fcodeName":"school","adminName1":"Kansas","lat":"37.69243","fcode":"SCH"},{"adminCode1":"MN","lng":"-92.34","geonameId":6353611,"toponymName":"Rochester Air Force Station (historical)","countryId":"6252001","fcl":"S","population":0,"countryCode":"US","name":"Rochester Air Force Station (historical)","fclName":"spot, building, farm","adminCodes1":{"ISO3166_2":"MN"},"countryName":"United States","fcodeName":"military installation","adminName1":"Minnesota","lat":"44.06972","fcode":"INSM"},{"adminCode1":"MA","lng":"-71.13982","geonameId":4937869,"toponymName":"Goddard Airport","countryId":"6252001","fcl":"S","population":0,"countryCode":"US","name":"Goddard Airport","fclName":"spot, building, farm","adminCodes1":{"ISO3166_2":"MA"},"countryName":"United States","fcodeName":"airport","adminName1":"Massachusetts","lat":"42.80984","fcode":"AIRP"},{"adminCode1":"MA","lng":"-71.04672","geonameId":4945874,"toponymName":"Northern Essex Community College","countryId":"6252001","fcl":"S","population":0,"countryCode":"US","name":"Northern Essex Community College","fclName":"spot, building, farm","adminCodes1":{"ISO3166_2":"MA"},"countryName":"United States","fcodeName":"school","adminName1":"Massachusetts","lat":"42.79592","fcode":"SCH"},{"adminCode1":"MA","lng":"-71.05895","geonameId":4931159,"toponymName":"Bradford Ski Area","countryId":"6252001","fcl":"S","population":0,"countryCode":"US","name":"Bradford Ski Area","fclName":"spot, building, farm","adminCodes1":{"ISO3166_2":"MA"},"countryName":"United States","fcodeName":"","adminName1":"Massachusetts","lat":"42.7437"},{"adminCode1":"MA","lng":"-71.07922","geonameId":4931162,"toponymName":"Bradford College","countryId":"6252001","fcl":"S","population":0,"countryCode":"US","name":"Bradford College","fclName":"spot, building, farm","adminCodes1":{"ISO3166_2":"MA"},"countryName":"United States","fcodeName":"school","adminName1":"Massachusetts","lat":"42.7612","fcode":"SCH"},{"adminCode1":"KS","lng":"-96.88309","geonameId":4272738,"toponymName":"Haverhill","countryId":"6252001","fcl":"P","population":0,"countryCode":"US","name":"Haverhill","fclName":"city, village,...","adminCodes1":{"ISO3166_2":"KS"},"countryName":"United States","fcodeName":"populated place","adminName1":"Kansas","lat":"37.68557","fcode":"PPL"},{"adminCode1":"NH","lng":"-72.0362","geonameId":5083083,"toponymName":"Bath-Haverhill Bridge","countryId":"6252001","fcl":"S","population":0,"countryCode":"US","name":"Bath-Haverhill Bridge","fclName":"spot, building, farm","adminCodes1":{"ISO3166_2":"NH"},"countryName":"United States","fcodeName":"bridge","adminName1":"New Hampshire","lat":"44.15451","fcode":"BDG"},{"adminCode1":"MA","lng":"-71.0495","geonameId":4948749,"toponymName":"Riverside","countryId":"6252001","fcl":"P","population":0,"countryCode":"US","name":"Riverside","fclName":"city, village,...","adminCodes1":{"ISO3166_2":"MA"},"countryName":"United States","fcodeName":"populated place","adminName1":"Massachusetts","lat":"42.76398","fcode":"PPL"},{"adminCode1":"MA","lng":"-71.11117","geonameId":4949067,"toponymName":"Rosemont","countryId":"6252001","fcl":"P","population":0,"countryCode":"US","name":"Rosemont","fclName":"city, village,...","adminCodes1":{"ISO3166_2":"MA"},"countryName":"United States","fcodeName":"populated place","adminName1":"Massachusetts","lat":"42.8037","fcode":"PPL"},{"adminCode1":"MA","lng":"-71.15228","geonameId":4950431,"toponymName":"Scotland Hill","countryId":"6252001","fcl":"T","population":0,"countryCode":"US","name":"Scotland Hill","fclName":"mountain,hill,rock,... ","adminCodes1":{"ISO3166_2":"MA"},"countryName":"United States","fcodeName":"mountain","adminName1":"Massachusetts","lat":"42.77648","fcode":"MT"},{"adminCode1":"MA","lng":"-71.09978","geonameId":4950954,"toponymName":"Silver Hill","countryId":"6252001","fcl":"T","population":0,"countryCode":"US","name":"Silver Hill","fclName":"mountain,hill,rock,... ","adminCodes1":{"ISO3166_2":"MA"},"countryName":"United States","fcodeName":"mountain","adminName1":"Massachusetts","lat":"42.77287","fcode":"MT"},{"adminCode1":"MA","lng":"-71.10367","geonameId":4954448,"toponymName":"Ward Hill","countryId":"6252001","fcl":"P","population":0,"countryCode":"US","name":"Ward Hill","fclName":"city, village,...","adminCodes1":{"ISO3166_2":"MA"},"countryName":"United States","fcodeName":"populated place","adminName1":"Massachusetts","lat":"42.75676","fcode":"PPL"},{"adminCode1":"MA","lng":"-71.10978","geonameId":4954449,"toponymName":"Ward Hill","countryId":"6252001","fcl":"T","population":0,"countryCode":"US","name":"Ward Hill","fclName":"mountain,hill,rock,... ","adminCodes1":{"ISO3166_2":"MA"},"countryName":"United States","fcodeName":"mountain","adminName1":"Massachusetts","lat":"42.75676","fcode":"MT"},{"adminCode1":"MA","lng":"-71.1395","geonameId":4955043,"toponymName":"West Parish","countryId":"6252001","fcl":"P","population":0,"countryCode":"US","name":"West Parish","fclName":"city, village,...","adminCodes1":{"ISO3166_2":"MA"},"countryName":"United States","fcodeName":"populated place","adminName1":"Massachusetts","lat":"42.78759","fcode":"PPL"},{"adminCode1":"MA","lng":"-71.07617","geonameId":4939456,"toponymName":"Highlands","countryId":"6252001","fcl":"P","population":0,"countryCode":"US","name":"Highlands","fclName":"city, village,...","adminCodes1":{"ISO3166_2":"MA"},"countryName":"United States","fcodeName":"populated place","adminName1":"Massachusetts","lat":"42.78148","fcode":"PPL"},{"adminCode1":"MA","lng":"-71.08172","geonameId":4939464,"toponymName":"Highlandville","countryId":"6252001","fcl":"P","population":0,"countryCode":"US","name":"Highlandville","fclName":"city, village,...","adminCodes1":{"ISO3166_2":"MA"},"countryName":"United States","fcodeName":"populated place","adminName1":"Massachusetts","lat":"42.79398","fcode":"PPL"},{"adminCode1":"MA","lng":"-71.03645","geonameId":4940882,"toponymName":"Job Hill","countryId":"6252001","fcl":"T","population":0,"countryCode":"US","name":"Job Hill","fclName":"mountain,hill,rock,... ","adminCodes1":{"ISO3166_2":"MA"},"countryName":"United States","fcodeName":"mountain","adminName1":"Massachusetts","lat":"42.80231","fcode":"MT"},{"adminCode1":"MA","lng":"-71.05895","geonameId":4934619,"toponymName":"Dead Hill","countryId":"6252001","fcl":"T","population":0,"countryCode":"US","name":"Dead Hill","fclName":"mountain,hill,rock,... ","adminCodes1":{"ISO3166_2":"MA"},"countryName":"United States","fcodeName":"mountain","adminName1":"Massachusetts","lat":"42.74148","fcode":"MT"},{"adminCode1":"MA","lng":"-71.05561","geonameId":4937889,"toponymName":"Golden Hill","countryId":"6252001","fcl":"T","population":0,"countryCode":"US","name":"Golden Hill","fclName":"mountain,hill,rock,... ","adminCodes1":{"ISO3166_2":"MA"},"countryName":"United States","fcodeName":"mountain","adminName1":"Massachusetts","lat":"42.77426","fcode":"MT"},{"adminCode1":"MA","lng":"-71.09895","geonameId":4942906,"toponymName":"Maiden Hill","countryId":"6252001","fcl":"T","population":0,"countryCode":"US","name":"Maiden Hill","fclName":"mountain,hill,rock,... ","adminCodes1":{"ISO3166_2":"MA"},"countryName":"United States","fcodeName":"mountain","adminName1":"Massachusetts","lat":"42.73815","fcode":"MT"},{"adminCode1":"MA","lng":"-71.13617","geonameId":4946771,"toponymName":"Parsonage Hill","countryId":"6252001","fcl":"T","population":0,"countryCode":"US","name":"Parsonage Hill","fclName":"mountain,hill,rock,... ","adminCodes1":{"ISO3166_2":"MA"},"countryName":"United States","fcodeName":"mountain","adminName1":"Massachusetts","lat":"42.81537","fcode":"MT"},{"adminCode1":"MA","lng":"-71.142","geonameId":4930198,"toponymName":"Beebe Hill","countryId":"6252001","fcl":"T","population":0,"countryCode":"US","name":"Beebe Hill","fclName":"mountain,hill,rock,... ","adminCodes1":{"ISO3166_2":"MA"},"countryName":"United States","fcodeName":"mountain","adminName1":"Massachusetts","lat":"42.80259","fcode":"MT"},{"adminCode1":"MA","lng":"-71.09422","geonameId":4931819,"toponymName":"Bush Hill","countryId":"6252001","fcl":"T","population":0,"countryCode":"US","name":"Bush Hill","fclName":"mountain,hill,rock,... ","adminCodes1":{"ISO3166_2":"MA"},"countryName":"United States","fcodeName":"mountain","adminName1":"Massachusetts","lat":"42.7487","fcode":"MT"},{"adminCode1":"MA","lng":"-71.05422","geonameId":4933942,"toponymName":"Corliss Hill","countryId":"6252001","fcl":"T","population":0,"countryCode":"US","name":"Corliss Hill","fclName":"mountain,hill,rock,... ","adminCodes1":{"ISO3166_2":"MA"},"countryName":"United States","fcodeName":"mountain","adminName1":"Massachusetts","lat":"42.8212","fcode":"MT"},{"adminCode1":"MA","lng":"-71.16895","geonameId":4929498,"toponymName":"Ayers Village","countryId":"6252001","fcl":"P","population":0,"countryCode":"US","name":"Ayers Village","fclName":"city, village,...","adminCodes1":{"ISO3166_2":"MA"},"countryName":"United States","fcodeName":"populated place","adminName1":"Massachusetts","lat":"42.78703","fcode":"PPL"},{"adminCode1":"NH","lng":"-72.07481","geonameId":5083220,"toponymName":"Bedell Covered Bridge","countryId":"6252001","fcl":"S","population":0,"countryCode":"US","name":"Bedell Covered Bridge","fclName":"spot, building, farm","adminCodes1":{"ISO3166_2":"NH"},"countryName":"United States","fcodeName":"bridge","adminName1":"New Hampshire","lat":"44.04534","fcode":"BDG"},{"adminCode1":"NH","lng":"-72.036","geonameId":5094944,"toponymName":"Woodsville High School","countryId":"6252001","fcl":"S","population":0,"countryCode":"US","name":"Woodsville High School","fclName":"spot, building, farm","adminCodes1":{"ISO3166_2":"NH"},"countryName":"United States","fcodeName":"school","adminName1":"New Hampshire","lat":"44.14502","fcode":"SCH"},{"adminCode1":"NH","lng":"-72.03759","geonameId":5094947,"toponymName":"Woodsville Opera Building","countryId":"6252001","fcl":"S","population":0,"countryCode":"US","name":"Woodsville Opera Building","fclName":"spot, building, farm","adminCodes1":{"ISO3166_2":"NH"},"countryName":"United States","fcodeName":"building(s)","adminName1":"New Hampshire","lat":"44.15367","fcode":"BLDG"},{"adminCode1":"FL","lng":"-80.1212","geonameId":7193403,"toponymName":"Haverhill Mobile Home Park","countryId":"6252001","fcl":"P","population":0,"countryCode":"US","name":"Haverhill Mobile Home Park","fclName":"city, village,...","adminCodes1":{"ISO3166_2":"FL"},"countryName":"United States","fcodeName":"populated place","adminName1":"Florida","lat":"26.6858","fcode":"PPL"},{"adminCode1":"NH","lng":"-71.9712","geonameId":5085704,"toponymName":"East Haverhill","countryId":"6252001","fcl":"P","population":0,"countryCode":"US","name":"East Haverhill","fclName":"city, village,...","adminCodes1":{"ISO3166_2":"NH"},"countryName":"United States","fcodeName":"populated place","adminName1":"New Hampshire","lat":"44.02673","fcode":"PPL"},{"adminCode1":"NH","lng":"-71.98564","geonameId":5084382,"toponymName":"Center Haverhill","countryId":"6252001","fcl":"P","population":0,"countryCode":"US","name":"Center Haverhill","fclName":"city, village,...","adminCodes1":{"ISO3166_2":"NH"},"countryName":"United States","fcodeName":"populated place","adminName1":"New Hampshire","lat":"44.07701","fcode":"PPL"},{"adminCode1":"MN","lng":"-92.36934","geonameId":5029551,"toponymName":"Haverhill Cemetery","countryId":"6252001","fcl":"S","population":0,"countryCode":"US","name":"Haverhill Cemetery","fclName":"spot, building, farm","adminCodes1":{"ISO3166_2":"MN"},"countryName":"United States","fcodeName":"cemetery","adminName1":"Minnesota","lat":"44.05719","fcode":"CMTY"},{"adminCode1":"MA","lng":"-71.012","geonameId":4935400,"toponymName":"East Haverhill Post Office (historical)","countryId":"6252001","fcl":"S","population":0,"countryCode":"US","name":"East Haverhill Post Office (historical)","fclName":"spot, building, farm","adminCodes1":{"ISO3166_2":"MA"},"countryName":"United States","fcodeName":"post office","adminName1":"Massachusetts","lat":"42.81203","fcode":"PO"},{"adminCode1":"MA","lng":"-71.02395","geonameId":4955591,"toponymName":"Whittier Regional High School","countryId":"6252001","fcl":"S","population":0,"countryCode":"US","name":"Whittier Regional High School","fclName":"spot, building, farm","adminCodes1":{"ISO3166_2":"MA"},"countryName":"United States","fcodeName":"school","adminName1":"Massachusetts","lat":"42.80981","fcode":"SCH"},{"adminCode1":"NH","lng":"-71.25612","geonameId":5084184,"toponymName":"Canobie Lake","countryId":"6252001","fcl":"H","population":0,"countryCode":"US","name":"Canobie Lake","fclName":"stream, lake, ...","adminCodes1":{"ISO3166_2":"NH"},"countryName":"United States","fcodeName":"reservoir(s)","adminName1":"New Hampshire","lat":"42.79617","fcode":"RSV"},{"adminCode1":"MA","lng":"-71.06422","geonameId":4938608,"toponymName":"Hale Hospital","countryId":"6252001","fcl":"S","population":0,"countryCode":"US","name":"Hale Hospital","fclName":"spot, building, farm","adminCodes1":{"ISO3166_2":"MA"},"countryName":"United States","fcodeName":"hospital","adminName1":"Massachusetts","lat":"42.77648","fcode":"HSP"},{"adminCode1":"NH","lng":"-71.95787","geonameId":5088409,"toponymName":"Knights Hill","countryId":"6252001","fcl":"T","population":0,"countryCode":"US","name":"Knights Hill","fclName":"mountain,hill,rock,... ","adminCodes1":{"ISO3166_2":"NH"},"countryName":"United States","fcodeName":"mountain","adminName1":"New Hampshire","lat":"44.06423","fcode":"MT"},{"adminCode1":"NH","lng":"-71.94092","geonameId":5088758,"toponymName":"Little Black Mountain","countryId":"6252001","fcl":"T","population":0,"countryCode":"US","name":"Little Black Mountain","fclName":"mountain,hill,rock,... ","adminCodes1":{"ISO3166_2":"NH"},"countryName":"United States","fcodeName":"mountain","adminName1":"New Hampshire","lat":"44.07923","fcode":"MT"},{"adminCode1":"NH","lng":"-71.9562","geonameId":5089068,"toponymName":"Lower Mountain Lake Dam","countryId":"6252001","fcl":"S","population":0,"countryCode":"US","name":"Lower Mountain Lake Dam","fclName":"spot, building, farm","adminCodes1":{"ISO3166_2":"NH"},"countryName":"United States","fcodeName":"dam","adminName1":"New Hampshire","lat":"44.1184","fcode":"DAM"},{"adminCode1":"NH","lng":"-72.00787","geonameId":5094211,"toponymName":"Walker Oliverian Stream Dam","countryId":"6252001","fcl":"S","population":0,"countryCode":"US","name":"Walker Oliverian Stream Dam","fclName":"spot, building, farm","adminCodes1":{"ISO3166_2":"NH"},"countryName":"United States","fcodeName":"dam","adminName1":"New Hampshire","lat":"44.03173","fcode":"DAM"},{"adminCode1":"NH","lng":"-72.03287","geonameId":5094945,"toponymName":"Woodsville Hydroelectric Dam","countryId":"6252001","fcl":"S","population":0,"countryCode":"US","name":"Woodsville Hydroelectric Dam","fclName":"spot, building, farm","adminCodes1":{"ISO3166_2":"NH"},"countryName":"United States","fcodeName":"dam","adminName1":"New Hampshire","lat":"44.15006","fcode":"DAM"},{"adminCode1":"MA","lng":"-71.05256","geonameId":4940406,"toponymName":"Interchange Forty","countryId":"6252001","fcl":"R","population":0,"countryCode":"US","name":"Interchange Forty","fclName":"road, railroad ","adminCodes1":{"ISO3166_2":"MA"},"countryName":"United States","fcodeName":"road junction","adminName1":"Massachusetts","lat":"42.80259","fcode":"RDJCT"},{"adminCode1":"MA","lng":"-71.11534","geonameId":4940503,"toponymName":"Interchange Thirty Eight","countryId":"6252001","fcl":"R","population":0,"countryCode":"US","name":"Interchange Thirty Eight","fclName":"road, railroad ","adminCodes1":{"ISO3166_2":"MA"},"countryName":"United States","fcodeName":"road junction","adminName1":"Massachusetts","lat":"42.78342","fcode":"RDJCT"},{"adminCode1":"MA","lng":"-71.09339","geonameId":4940510,"toponymName":"Interchange Thirty Nine","countryId":"6252001","fcl":"R","population":0,"countryCode":"US","name":"Interchange Thirty Nine","fclName":"road, railroad ","adminCodes1":{"ISO3166_2":"MA"},"countryName":"United States","fcodeName":"road junction","adminName1":"Massachusetts","lat":"42.80065","fcode":"RDJCT"},{"adminCode1":"MA","lng":"-71.11895","geonameId":4940514,"toponymName":"Interchange Thirty Seven","countryId":"6252001","fcl":"R","population":0,"countryCode":"US","name":"Interchange Thirty Seven","fclName":"road, railroad ","adminCodes1":{"ISO3166_2":"MA"},"countryName":"United States","fcodeName":"road junction","adminName1":"Massachusetts","lat":"42.77481","fcode":"RDJCT"},{"adminCode1":"MA","lng":"-71.12228","geonameId":4940516,"toponymName":"Interchange Thirty Six","countryId":"6252001","fcl":"R","population":0,"countryCode":"US","name":"Interchange Thirty Six","fclName":"road, railroad ","adminCodes1":{"ISO3166_2":"MA"},"countryName":"United States","fcodeName":"road junction","adminName1":"Massachusetts","lat":"42.76176","fcode":"RDJCT"},{"adminCode1":"MN","lng":"-92.38879","geonameId":5026875,"toponymName":"Fitch Cemetery","countryId":"6252001","fcl":"S","population":0,"countryCode":"US","name":"Fitch Cemetery","fclName":"spot, building, farm","adminCodes1":{"ISO3166_2":"MN"},"countryName":"United States","fcodeName":"cemetery","adminName1":"Minnesota","lat":"44.10747","fcode":"CMTY"},{"adminCode1":"MA","lng":"-71.04494","geonameId":7142957,"toponymName":"Merrimack Valley Holy Family Hospital","countryId":"6252001","fcl":"S","population":0,"countryCode":"US","name":"Merrimack Valley Holy Family Hospital","fclName":"spot, building, farm","adminCodes1":{"ISO3166_2":"MA"},"countryName":"United States","fcodeName":"hospital","adminName1":"Massachusetts","lat":"42.76526","fcode":"HSP"},{"adminCode1":"MA","lng":"-71.08895","geonameId":4948311,"toponymName":"R L Wood School","countryId":"6252001","fcl":"S","population":0,"countryCode":"US","name":"R L Wood School","fclName":"spot, building, farm","adminCodes1":{"ISO3166_2":"MA"},"countryName":"United States","fcodeName":"school","adminName1":"Massachusetts","lat":"42.76453","fcode":"SCH"},{"adminCode1":"MA","lng":"-71.07533","geonameId":4949335,"toponymName":"Sacred Hearts Elementary School","countryId":"6252001","fcl":"S","population":0,"countryCode":"US","name":"Sacred Hearts Elementary School","fclName":"spot, building, farm","adminCodes1":{"ISO3166_2":"MA"},"countryName":"United States","fcodeName":"school","adminName1":"Massachusetts","lat":"42.76953","fcode":"SCH"},{"adminCode1":"MA","lng":"-71.09172","geonameId":4949651,"toponymName":"Saint Joseph Elementary School","countryId":"6252001","fcl":"S","population":0,"countryCode":"US","name":"Saint Joseph Elementary School","fclName":"spot, building, farm","adminCodes1":{"ISO3166_2":"MA"},"countryName":"United States","fcodeName":"school","adminName1":"Massachusetts","lat":"42.77898","fcode":"SCH"},{"adminCode1":"MA","lng":"-71.12006","geonameId":4949903,"toponymName":"Saint Patricks Cemetery","countryId":"6252001","fcl":"S","population":0,"countryCode":"US","name":"Saint Patricks Cemetery","fclName":"spot, building, farm","adminCodes1":{"ISO3166_2":"MA"},"countryName":"United States","fcodeName":"cemetery","adminName1":"Massachusetts","lat":"42.79592","fcode":"CMTY"},{"adminCode1":"MA","lng":"-71.05867","geonameId":4939247,"toponymName":"Helen R Donaghue School","countryId":"6252001","fcl":"S","population":0,"countryCode":"US","name":"Helen R Donaghue School","fclName":"spot, building, farm","adminCodes1":{"ISO3166_2":"MA"},"countryName":"United States","fcodeName":"school","adminName1":"Massachusetts","lat":"42.77204","fcode":"SCH"},{"adminCode1":"MA","lng":"-71.07839","geonameId":4940943,"toponymName":"John G Whittier School","countryId":"6252001","fcl":"S","population":0,"countryCode":"US","name":"John G Whittier School","fclName":"spot, building, farm","adminCodes1":{"ISO3166_2":"MA"},"countryName":"United States","fcodeName":"school","adminName1":"Massachusetts","lat":"42.79731","fcode":"SCH"},{"adminCode1":"MA","lng":"-71.06145","geonameId":4934901,"toponymName":"Doctor Paul Nettle School","countryId":"6252001","fcl":"S","population":0,"countryCode":"US","name":"Doctor Paul Nettle School","fclName":"spot, building, farm","adminCodes1":{"ISO3166_2":"MA"},"countryName":"United States","fcodeName":"school","adminName1":"Massachusetts","lat":"42.77426","fcode":"SCH"},{"adminCode1":"MA","lng":"-71.08061","geonameId":4938025,"toponymName":"Grace Church","countryId":"6252001","fcl":"S","population":0,"countryCode":"US","name":"Grace Church","fclName":"spot, building, farm","adminCodes1":{"ISO3166_2":"MA"},"countryName":"United States","fcodeName":"church","adminName1":"Massachusetts","lat":"42.78759","fcode":"CH"},{"adminCode1":"MA","lng":"-71.07561","geonameId":4931763,"toponymName":"Burnham Elementary School","countryId":"6252001","fcl":"S","population":0,"countryCode":"US","name":"Burnham Elementary School","fclName":"spot, building, farm","adminCodes1":{"ISO3166_2":"MA"},"countryName":"United States","fcodeName":"school","adminName1":"Massachusetts","lat":"42.78426","fcode":"SCH"},{"adminCode1":"MA","lng":"-71.10784","geonameId":4931928,"toponymName":"Caleb Dustin Hunking School","countryId":"6252001","fcl":"S","population":0,"countryCode":"US","name":"Caleb Dustin Hunking School","fclName":"spot, building, farm","adminCodes1":{"ISO3166_2":"MA"},"countryName":"United States","fcodeName":"school","adminName1":"Massachusetts","lat":"42.78787","fcode":"SCH"},{"adminCode1":"NH","lng":"-72.06203","geonameId":5083554,"toponymName":"Bliss Tavern (historical)","countryId":"6252001","fcl":"S","population":0,"countryCode":"US","name":"Bliss Tavern (historical)","fclName":"spot, building, farm","adminCodes1":{"ISO3166_2":"NH"},"countryName":"United States","fcodeName":"building(s)","adminName1":"New Hampshire","lat":"44.03395","fcode":"BLDG"},{"adminCode1":"NH","lng":"-71.99509","geonameId":5083789,"toponymName":"Brier Hill School (historical)","countryId":"6252001","fcl":"S","population":0,"countryCode":"US","name":"Brier Hill School (historical)","fclName":"spot, building, farm","adminCodes1":{"ISO3166_2":"NH"},"countryName":"United States","fcodeName":"school","adminName1":"New Hampshire","lat":"44.11368","fcode":"SCH"},{"adminCode1":"NH","lng":"-71.95787","geonameId":5090633,"toponymName":"Olsen Dam","countryId":"6252001","fcl":"S","population":0,"countryCode":"US","name":"Olsen Dam","fclName":"spot, building, farm","adminCodes1":{"ISO3166_2":"NH"},"countryName":"United States","fcodeName":"dam","adminName1":"New Hampshire","lat":"44.12173","fcode":"DAM"},{"adminCode1":"NH","lng":"-72.03592","geonameId":5092177,"toponymName":"Saint Luke Episcopal Church","countryId":"6252001","fcl":"S","population":0,"countryCode":"US","name":"Saint Luke Episcopal Church","fclName":"spot, building, farm","adminCodes1":{"ISO3166_2":"NH"},"countryName":"United States","fcodeName":"church","adminName1":"New Hampshire","lat":"44.15034","fcode":"CH"},{"adminCode1":"NH","lng":"-72.04251","geonameId":9685900,"toponymName":"Grafton County Sheriff's Office","countryId":"6252001","fcl":"S","population":0,"countryCode":"US","name":"Grafton County Sheriff's Office","fclName":"spot, building, farm","adminCodes1":{"ISO3166_2":"NH"},"countryName":"United States","fcodeName":"building(s)","adminName1":"New Hampshire","lat":"44.11308","fcode":"BLDG"},{"adminCode1":"MA","lng":"-71.0864","geonameId":7270065,"toponymName":"Haverhill Station","countryId":"6252001","fcl":"S","population":0,"countryCode":"US","name":"Haverhill Station","fclName":"spot, building, farm","adminCodes1":{"ISO3166_2":"MA"},"countryName":"United States","fcodeName":"","adminName1":"Massachusetts","lat":"42.7745"},{"adminCode1":"MA","lng":"-71.09978","geonameId":4954070,"toponymName":"WHAV-AM (Haverhill)","countryId":"6252001","fcl":"S","population":0,"countryCode":"US","name":"WHAV-AM (Haverhill)","fclName":"spot, building, farm","adminCodes1":{"ISO3166_2":"MA"},"countryName":"United States","fcodeName":"tower","adminName1":"Massachusetts","lat":"42.77287","fcode":"TOWR"},{"adminCode1":"MA","lng":"-71.09978","geonameId":4954111,"toponymName":"WLYT-FM (Haverhill)","countryId":"6252001","fcl":"S","population":0,"countryCode":"US","name":"WLYT-FM (Haverhill)","fclName":"spot, building, farm","adminCodes1":{"ISO3166_2":"MA"},"countryName":"United States","fcodeName":"tower","adminName1":"Massachusetts","lat":"42.77315","fcode":"TOWR"},{"adminCode1":"MA","lng":"-71.09589","geonameId":4939087,"toponymName":"Haverhill City Cemetery","countryId":"6252001","fcl":"S","population":0,"countryCode":"US","name":"Haverhill City Cemetery","fclName":"spot, building, farm","adminCodes1":{"ISO3166_2":"MA"},"countryName":"United States","fcodeName":"cemetery","adminName1":"Massachusetts","lat":"42.79009","fcode":"CMTY"},{"adminCode1":"MA","lng":"-71.07839","geonameId":4939088,"toponymName":"Haverhill City Hall","countryId":"6252001","fcl":"S","population":0,"countryCode":"US","name":"Haverhill City Hall","fclName":"spot, building, farm","adminCodes1":{"ISO3166_2":"MA"},"countryName":"United States","fcodeName":"building(s)","adminName1":"Massachusetts","lat":"42.77565","fcode":"BLDG"},{"adminCode1":"MA","lng":"-71.07561","geonameId":4939089,"toponymName":"Haverhill Community Church","countryId":"6252001","fcl":"S","population":0,"countryCode":"US","name":"Haverhill Community Church","fclName":"spot, building, farm","adminCodes1":{"ISO3166_2":"MA"},"countryName":"United States","fcodeName":"church","adminName1":"Massachusetts","lat":"42.7787","fcode":"CH"},{"adminCode1":"MA","lng":"-71.07867","geonameId":4939090,"toponymName":"Haverhill Country Club","countryId":"6252001","fcl":"S","population":0,"countryCode":"US","name":"Haverhill Country Club","fclName":"spot, building, farm","adminCodes1":{"ISO3166_2":"MA"},"countryName":"United States","fcodeName":"resort","adminName1":"Massachusetts","lat":"42.80842","fcode":"RSRT"},{"adminCode1":"MA","lng":"-71.08256","geonameId":4939094,"toponymName":"Haverhill Post Office","countryId":"6252001","fcl":"S","population":0,"countryCode":"US","name":"Haverhill Post Office","fclName":"spot, building, farm","adminCodes1":{"ISO3166_2":"MA"},"countryName":"United States","fcodeName":"post office","adminName1":"Massachusetts","lat":"42.77398","fcode":"PO"},{"adminCode1":"MA","lng":"-71.07728","geonameId":4939095,"toponymName":"Haverhill Public Library","countryId":"6252001","fcl":"S","population":0,"countryCode":"US","name":"Haverhill Public Library","fclName":"spot, building, farm","adminCodes1":{"ISO3166_2":"MA"},"countryName":"United States","fcodeName":"library","adminName1":"Massachusetts","lat":"42.77703","fcode":"LIBR"},{"adminCode1":"MA","lng":"-71.04506","geonameId":4939096,"toponymName":"Haverhill Stadium","countryId":"6252001","fcl":"S","population":0,"countryCode":"US","name":"Haverhill Stadium","fclName":"spot, building, farm","adminCodes1":{"ISO3166_2":"MA"},"countryName":"United States","fcodeName":"stadium","adminName1":"Massachusetts","lat":"42.76176","fcode":"STDM"}]}
