{"totalResultsCount":19,"geonames":[{"adminCode1":"NV","lng":"-115.707","geonameId":5705021,"toponymName":"Huntington Valley","countryId":"6252001","fcl":"T","population":0,"countryCode":"US","name":"Huntington Valley","fclName":"mountain,hill,rock,... ","adminCodes1":{"ISO3166_2":"NV"},"countryName":"United States","fcodeName":"valley","adminName1":"Nevada","lat":"40.41743","fcode":"VAL"},{"adminCode1":"CA","lng":"-122.41219","geonameId":5358737,"toponymName":"Huntington Park","countryId":"6252001","fcl":"L","population":0,"countryCode":"US","name":"Huntington Park","fclName":"parks,area, ...","adminCodes1":{"ISO3166_2":"CA"},"countryName":"United States","fcodeName":"park","adminName1":"California","lat":"37.79215","fcode":"PRK"},{"adminCode1":"NH","lng":"-71.27646","geonameId":5087784,"toponymName":"Huntington Ravine","countryId":"6252001","fcl":"T","population":0,"countryCode":"US","name":"Huntington Ravine","fclName":"mountain,hill,rock,... ","adminCodes1":{"ISO3166_2":"NH"},"countryName":"United States","fcodeName":"valley","adminName1":"New Hampshire","lat":"44.26562","fcode":"VAL"},{"adminCode1":"UT","lng":"-111.23906","geonameId":5548971,"toponymName":"Upper Huntington Canyon","countryId":"6252001","fcl":"T","population":0,"countryCode":"US","name":"Upper Huntington Canyon","fclName":"mountain,hill,rock,... ","adminCodes1":{"ISO3166_2":"UT"},"countryName":"United States","fcodeName":"valley","adminName1":"Utah","lat":"39.6508","fcode":"VAL"},{"adminCode1":"NY","lng":"-73.32901","geonameId":5142275,"toponymName":"Vernon Valley","countryId":"6252001","fcl":"P","population":0,"countryCode":"US","name":"Vernon Valley","fclName":"city, village,...","adminCodes1":{"ISO3166_2":"NY"},"countryName":"United States","fcodeName":"populated place","adminName1":"New York","lat":"40.89954","fcode":"PPL"},{"adminCode1":"UT","lng":"-111.02989","geonameId":5540814,"toponymName":"Huntington Canyon","countryId":"6252001","fcl":"T","population":0,"countryCode":"US","name":"Huntington Canyon","fclName":"mountain,hill,rock,... ","adminCodes1":{"ISO3166_2":"UT"},"countryName":"United States","fcodeName":"valley","adminName1":"Utah","lat":"39.44163","fcode":"VAL"},{"adminCode1":"OH","lng":"-83.00407","geonameId":4513695,"toponymName":"Happy Valley Church","countryId":"6252001","fcl":"S","population":0,"countryCode":"US","name":"Happy Valley Church","fclName":"spot, building, farm","adminCodes1":{"ISO3166_2":"OH"},"countryName":"United States","fcodeName":"church","adminName1":"Ohio","lat":"39.27618","fcode":"CH"},{"adminCode1":"UT","lng":"-112.00272","geonameId":5776209,"toponymName":"Huntington Place","countryId":"6252001","fcl":"P","population":0,"countryCode":"US","name":"Huntington Place","fclName":"city, village,...","adminCodes1":{"ISO3166_2":"UT"},"countryName":"United States","fcodeName":"section of populated place","adminName1":"Utah","lat":"40.68772","fcode":"PPLX"},{"adminCode1":"MA","lng":"-72.9001","geonameId":4947436,"toponymName":"Pioneer Valley Assembly Church","countryId":"6252001","fcl":"S","population":0,"countryCode":"US","name":"Pioneer Valley Assembly Church","fclName":"spot, building, farm","adminCodes1":{"ISO3166_2":"MA"},"countryName":"United States","fcodeName":"church","adminName1":"Massachusetts","lat":"42.23953","fcode":"CH"},{"adminCode1":"PA","lng":"-76.22919","geonameId":8482692,"toponymName":"Huntington Valley Volunteer Fire Company and Ambulance Association","countryId":"6252001","fcl":"S","population":0,"countryCode":"US","name":"Huntington Valley Volunteer Fire Company and Ambulance Association","fclName":"spot, building, farm","adminCodes1":{"ISO3166_2":"PA"},"countryName":"United States","fcodeName":"building(s)","adminName1":"Pennsylvania","lat":"41.18911","fcode":"BLDG"},{"adminCode1":"CA","lng":"-117.9558","geonameId":6480266,"toponymName":"Courtyard by Marriott Huntington Beach Fountain Valley","countryId":"6252001","fcl":"S","population":0,"countryCode":"US","name":"Courtyard by Marriott Huntington Beach Fountain Valley","fclName":"spot, building, farm","adminCodes1":{"ISO3166_2":"CA"},"countryName":"United States","fcodeName":"hotel","adminName1":"California","lat":"33.7088","fcode":"HTL"},{"adminCode1":"CA","lng":"-117.9561","geonameId":6480520,"toponymName":"Residence Inn by Marriott Huntington Beach-Fountain Valley","countryId":"6252001","fcl":"S","population":0,"countryCode":"US","name":"Residence Inn by Marriott Huntington Beach-Fountain Valley","fclName":"spot, building, farm","adminCodes1":{"ISO3166_2":"CA"},"countryName":"United States","fcodeName":"hotel","adminName1":"California","lat":"33.7088","fcode":"HTL"},{"adminCode1":"CA","lng":"-122.474","geonameId":5358718,"toponymName":"Huntington Falls","countryId":"6252001","fcl":"H","population":0,"countryCode":"US","name":"Huntington Falls","fclName":"stream, lake, ...","adminCodes1":{"ISO3166_2":"CA"},"countryName":"United States","fcodeName":"waterfall(s)","adminName1":"California","lat":"37.7689","fcode":"FLLS"},{"adminCode1":"CA","lng":"-122.41205","geonameId":9851988,"toponymName":"Huntington Nob Hill","countryId":"6252001","fcl":"S","population":0,"countryCode":"US","name":"Huntington Nob Hill","fclName":"spot, building, farm","adminCodes1":{"ISO3166_2":"CA"},"countryName":"United States","fcodeName":"hotel","adminName1":"California","lat":"37.79137","fcode":"HTL"},{"adminCode1":"CA","lng":"-122.4123","geonameId":10244977,"toponymName":"The Scarlet Huntington","countryId":"6252001","fcl":"S","population":0,"countryCode":"US","name":"The Scarlet Huntington","fclName":"spot, building, farm","adminCodes1":{"ISO3166_2":"CA"},"countryName":"United States","fcodeName":"hotel","adminName1":"California","lat":"37.79146","fcode":"HTL"},{"adminCode1":"OH","lng":"-83.10852","geonameId":4521586,"toponymName":"Pleasant Valley Christian Union Church","countryId":"6252001","fcl":"S","population":0,"countryCode":"US","name":"Pleasant Valley Christian Union Church","fclName":"spot, building, farm","adminCodes1":{"ISO3166_2":"OH"},"countryName":"United States","fcodeName":"church","adminName1":"Ohio","lat":"39.2034","fcode":"CH"},{"adminCode1":"CA","lng":"-117.96949","geonameId":9862391,"toponymName":"Days Inn & Suites Fountain Valley Huntington Beach","countryId":"6252001","fcl":"S","population":0,"countryCode":"US","name":"Days Inn & Suites Fountain Valley Huntington Beach","fclName":"spot, building, farm","adminCodes1":{"ISO3166_2":"CA"},"countryName":"United States","fcodeName":"hotel","adminName1":"California","lat":"33.71722","fcode":"HTL"},{"adminCode1":"CA","lng":"-122.03385","geonameId":5358748,"toponymName":"Huntington Village Shopping Center","countryId":"6252001","fcl":"S","population":0,"countryCode":"US","name":"Huntington Village Shopping Center","fclName":"spot, building, farm","adminCodes1":{"ISO3166_2":"CA"},"countryName":"United States","fcodeName":"mall","adminName1":"California","lat":"37.31078","fcode":"MALL"},{"adminCode1":"NY","lng":"-73.37278","geonameId":6354101,"toponymName":"Peaceful Valley Farm (historical)","countryId":"6252001","fcl":"S","population":0,"countryCode":"US","name":"Peaceful Valley Farm (historical)","fclName":"spot, building, farm","adminCodes1":{"ISO3166_2":"NY"},"countryName":"United States","fcodeName":"abandoned farm","adminName1":"New York","lat":"40.79639","fcode":"FRMQ"}]}
