{"totalResultsCount":6,"geonames":[{"adminCode1":"MN","lng":"-93.47079","geonameId":5025219,"toponymName":"Eden Prairie","countryId":"6252001","fcl":"P","population":63496,"countryCode":"US","name":"Eden Prairie","fclName":"city, village,...","adminCodes1":{"ISO3166_2":"MN"},"countryName":"United States","fcodeName":"populated place","adminName1":"Minnesota","lat":"44.85469","fcode":"PPL"},{"adminCode1":"NC","lng":"-79.7667","geonameId":4464873,"toponymName":"Eden","countryId":"6252001","fcl":"P","population":15403,"countryCode":"US","name":"Eden","fclName":"city, village,...","adminCodes1":{"ISO3166_2":"NC"},"countryName":"United States","fcodeName":"populated place","adminName1":"North Carolina","lat":"36.48847","fcode":"PPL"},{"adminCode1":"ID","lng":"-114.21086","geonameId":5592219,"toponymName":"Eden","countryId":"6252001","fcl":"P","population":405,"countryCode":"US","name":"Eden","fclName":"city, village,...","adminCodes1":{"ISO3166_2":"ID"},"countryName":"United States","fcodeName":"populated place","adminName1":"Idaho","lat":"42.60575","fcode":"PPL"},{"adminCode1":"MI","lng":"-85.24889","geonameId":4996945,"toponymName":"Iden Cemetery","countryId":"6252001","fcl":"S","population":0,"countryCode":"US","name":"Iden Cemetery","fclName":"spot, building, farm","adminCodes1":{"ISO3166_2":"MI"},"countryName":"United States","fcodeName":"cemetery","adminName1":"Michigan","lat":"42.44615","fcode":"CMTY"},{"adminCode1":"IN","lng":"-85.55832","geonameId":4921763,"toponymName":"Iden Branch","countryId":"6252001","fcl":"H","population":0,"countryCode":"US","name":"Iden Branch","fclName":"stream, lake, ...","adminCodes1":{"ISO3166_2":"IN"},"countryName":"United States","fcodeName":"stream","adminName1":"Indiana","lat":"41.37338","fcode":"STM"},{"adminCode1":"WV","lng":"-78.22445","geonameId":4809647,"toponymName":"Iden Run","countryId":"6252001","fcl":"H","population":0,"countryCode":"US","name":"Iden Run","fclName":"stream, lake, ...","adminCodes1":{"ISO3166_2":"WV"},"countryName":"United States","fcodeName":"stream","adminName1":"West Virginia","lat":"39.50149","fcode":"STM"}]}
