{"totalResultsCount":42,"geonames":[{"adminCode1":"CA","lng":"-116.04001","geonameId":5359110,"toponymName":"In-Ko-Pah Gorge","countryId":"6252001","fcl":"T","population":0,"countryCode":"US","name":"In-Ko-Pah Gorge","fclName":"mountain,hill,rock,... ","adminCodes1":{"ISO3166_2":"CA"},"countryName":"United States","fcodeName":"valley","adminName1":"California","lat":"32.72367","fcode":"VAL"},{"adminCode1":"CA","lng":"-116.06473","geonameId":5368909,"toponymName":"Lower Borrego Valley","countryId":"6252001","fcl":"T","population":0,"countryCode":"US","name":"Lower Borrego Valley","fclName":"mountain,hill,rock,... ","adminCodes1":{"ISO3166_2":"CA"},"countryName":"United States","fcodeName":"valley","adminName1":"California","lat":"33.08477","fcode":"VAL"},{"adminCode1":"CA","lng":"-115.49276","geonameId":5391869,"toponymName":"San Diego State University - Imperial Valley Campus","countryId":"6252001","fcl":"S","population":0,"countryCode":"US","name":"San Diego State University - Imperial Valley Campus","fclName":"spot, building, farm","adminCodes1":{"ISO3166_2":"CA"},"countryName":"United States","fcodeName":"school","adminName1":"California","lat":"32.67231","fcode":"SCH"},{"adminCode1":"CA","lng":"-114.47161","geonameId":5347241,"toponymName":"Explorers Pass","countryId":"6252001","fcl":"T","population":0,"countryCode":"US","name":"Explorers Pass","fclName":"mountain,hill,rock,... ","adminCodes1":{"ISO3166_2":"CA"},"countryName":"United States","fcodeName":"valley","adminName1":"California","lat":"32.91726","fcode":"VAL"},{"adminCode1":"CA","lng":"-114.66246","geonameId":5326720,"toponymName":"Bear Canyon","countryId":"6252001","fcl":"T","population":0,"countryCode":"US","name":"Bear Canyon","fclName":"mountain,hill,rock,... ","adminCodes1":{"ISO3166_2":"CA"},"countryName":"United States","fcodeName":"valley","adminName1":"California","lat":"33.03087","fcode":"VAL"},{"adminCode1":"CA","lng":"-115.53583","geonameId":7428340,"toponymName":"Imperial Valley","countryId":"6252001","fcl":"S","population":0,"countryCode":"US","name":"Imperial Valley","fclName":"spot, building, farm","adminCodes1":{"ISO3166_2":"CA"},"countryName":"United States","fcodeName":"mall","adminName1":"California","lat":"32.79081","fcode":"MALL"},{"adminCode1":"CA","lng":"-115.50385","geonameId":5359100,"toponymName":"Imperial Valley College","countryId":"6252001","fcl":"S","population":0,"countryCode":"US","name":"Imperial Valley College","fclName":"spot, building, farm","adminCodes1":{"ISO3166_2":"CA"},"countryName":"United States","fcodeName":"school","adminName1":"California","lat":"32.8286","fcode":"SCH"},{"adminCode1":"UT","lng":"-110.0718","geonameId":5540878,"toponymName":"Imperial Valley","countryId":"6252001","fcl":"T","population":0,"countryCode":"US","name":"Imperial Valley","fclName":"mountain,hill,rock,... ","adminCodes1":{"ISO3166_2":"UT"},"countryName":"United States","fcodeName":"valley","adminName1":"Utah","lat":"38.0286","fcode":"VAL"},{"adminCode1":"CA","lng":"-114.9633","geonameId":5359098,"toponymName":"Imperial Valley","countryId":"6252001","fcl":"T","population":0,"countryCode":"US","name":"Imperial Valley","fclName":"mountain,hill,rock,... ","adminCodes1":{"ISO3166_2":"CA"},"countryName":"United States","fcodeName":"valley","adminName1":"California","lat":"32.73755","fcode":"VAL"},{"adminCode1":"CA","lng":"-114.75107","geonameId":5396681,"toponymName":"Smoketree Valley","countryId":"6252001","fcl":"T","population":0,"countryCode":"US","name":"Smoketree Valley","fclName":"mountain,hill,rock,... ","adminCodes1":{"ISO3166_2":"CA"},"countryName":"United States","fcodeName":"valley","adminName1":"California","lat":"33.2667","fcode":"VAL"},{"adminCode1":"CA","lng":"-116.05472","geonameId":5376018,"toponymName":"Myer Valley","countryId":"6252001","fcl":"T","population":0,"countryCode":"US","name":"Myer Valley","fclName":"mountain,hill,rock,... ","adminCodes1":{"ISO3166_2":"CA"},"countryName":"United States","fcodeName":"valley","adminName1":"California","lat":"32.68528","fcode":"VAL"},{"adminCode1":"CA","lng":"-116.03418","geonameId":5341694,"toponymName":"Davies Valley","countryId":"6252001","fcl":"T","population":0,"countryCode":"US","name":"Davies Valley","fclName":"mountain,hill,rock,... ","adminCodes1":{"ISO3166_2":"CA"},"countryName":"United States","fcodeName":"valley","adminName1":"California","lat":"32.70312","fcode":"VAL"},{"adminCode1":"CA","lng":"-114.77635","geonameId":5360197,"toponymName":"Jackson Gulch","countryId":"6252001","fcl":"T","population":0,"countryCode":"US","name":"Jackson Gulch","fclName":"mountain,hill,rock,... ","adminCodes1":{"ISO3166_2":"CA"},"countryName":"United States","fcodeName":"valley","adminName1":"California","lat":"32.8156","fcode":"VAL"},{"adminCode1":"CA","lng":"-115.99168","geonameId":5383231,"toponymName":"Pinto Canyon","countryId":"6252001","fcl":"T","population":0,"countryCode":"US","name":"Pinto Canyon","fclName":"mountain,hill,rock,... ","adminCodes1":{"ISO3166_2":"CA"},"countryName":"United States","fcodeName":"valley","adminName1":"California","lat":"32.62729","fcode":"VAL"},{"adminCode1":"CA","lng":"-116.08029","geonameId":5386661,"toponymName":"Red Rock Canyon","countryId":"6252001","fcl":"T","population":0,"countryCode":"US","name":"Red Rock Canyon","fclName":"mountain,hill,rock,... ","adminCodes1":{"ISO3166_2":"CA"},"countryName":"United States","fcodeName":"valley","adminName1":"California","lat":"32.90644","fcode":"VAL"},{"adminCode1":"CA","lng":"-115.24831","geonameId":5370883,"toponymName":"Martinez Gulch","countryId":"6252001","fcl":"T","population":0,"countryCode":"US","name":"Martinez Gulch","fclName":"mountain,hill,rock,... ","adminCodes1":{"ISO3166_2":"CA"},"countryName":"United States","fcodeName":"valley","adminName1":"California","lat":"33.26892","fcode":"VAL"},{"adminCode1":"CA","lng":"-115.97501","geonameId":5380516,"toponymName":"Painted Gorge","countryId":"6252001","fcl":"T","population":0,"countryCode":"US","name":"Painted Gorge","fclName":"mountain,hill,rock,... ","adminCodes1":{"ISO3166_2":"CA"},"countryName":"United States","fcodeName":"valley","adminName1":"California","lat":"32.81506","fcode":"VAL"},{"adminCode1":"CA","lng":"-116.02807","geonameId":5326265,"toponymName":"Barrett Canyon","countryId":"6252001","fcl":"T","population":0,"countryCode":"US","name":"Barrett Canyon","fclName":"mountain,hill,rock,... ","adminCodes1":{"ISO3166_2":"CA"},"countryName":"United States","fcodeName":"valley","adminName1":"California","lat":"32.91089","fcode":"VAL"},{"adminCode1":"CA","lng":"-115.97473","geonameId":5341688,"toponymName":"Davies Canyon","countryId":"6252001","fcl":"T","population":0,"countryCode":"US","name":"Davies Canyon","fclName":"mountain,hill,rock,... ","adminCodes1":{"ISO3166_2":"CA"},"countryName":"United States","fcodeName":"valley","adminName1":"California","lat":"32.70923","fcode":"VAL"},{"adminCode1":"CA","lng":"-116.0614","geonameId":5342316,"toponymName":"Deguynos Canyon","countryId":"6252001","fcl":"T","population":0,"countryCode":"US","name":"Deguynos Canyon","fclName":"mountain,hill,rock,... ","adminCodes1":{"ISO3166_2":"CA"},"countryName":"United States","fcodeName":"valley","adminName1":"California","lat":"32.88756","fcode":"VAL"},{"adminCode1":"CA","lng":"-114.53412","geonameId":5342811,"toponymName":"Devils Canyon","countryId":"6252001","fcl":"T","population":0,"countryCode":"US","name":"Devils Canyon","fclName":"mountain,hill,rock,... ","adminCodes1":{"ISO3166_2":"CA"},"countryName":"United States","fcodeName":"valley","adminName1":"California","lat":"33.02948","fcode":"VAL"},{"adminCode1":"CA","lng":"-116.07307","geonameId":5342813,"toponymName":"Devils Canyon","countryId":"6252001","fcl":"T","population":0,"countryCode":"US","name":"Devils Canyon","fclName":"mountain,hill,rock,... ","adminCodes1":{"ISO3166_2":"CA"},"countryName":"United States","fcodeName":"valley","adminName1":"California","lat":"32.72395","fcode":"VAL"},{"adminCode1":"CA","lng":"-116.02001","geonameId":5350140,"toponymName":"Fossil Canyon","countryId":"6252001","fcl":"T","population":0,"countryCode":"US","name":"Fossil Canyon","fclName":"mountain,hill,rock,... ","adminCodes1":{"ISO3166_2":"CA"},"countryName":"United States","fcodeName":"valley","adminName1":"California","lat":"32.78367","fcode":"VAL"},{"adminCode1":"CA","lng":"-122.47747","geonameId":5359092,"toponymName":"Imperial Park","countryId":"6252001","fcl":"L","population":0,"countryCode":"US","name":"Imperial Park","fclName":"parks,area, ...","adminCodes1":{"ISO3166_2":"CA"},"countryName":"United States","fcodeName":"park","adminName1":"California","lat":"37.65493","fcode":"PRK"},{"adminCode1":"AZ","lng":"-111.75013","geonameId":5299223,"toponymName":"Imperial Valley Cattle Company Number One Airstrip","countryId":"6252001","fcl":"S","population":0,"countryCode":"US","name":"Imperial Valley Cattle Company Number One Airstrip","fclName":"spot, building, farm","adminCodes1":{"ISO3166_2":"AZ"},"countryName":"United States","fcodeName":"airport","adminName1":"Arizona","lat":"32.46673","fcode":"AIRP"},{"adminCode1":"MT","lng":"-104.51718","geonameId":5651610,"toponymName":"Farmers Elevator Company Elevator","countryId":"6252001","fcl":"S","population":0,"countryCode":"US","name":"Farmers Elevator Company Elevator","fclName":"spot, building, farm","adminCodes1":{"ISO3166_2":"MT"},"countryName":"United States","fcodeName":"farm","adminName1":"Montana","lat":"48.14308","fcode":"FRM"},{"adminCode1":"TX","lng":"-95.4056","geonameId":7208750,"toponymName":"Imperial Valley","countryId":"6252001","fcl":"P","population":0,"countryCode":"US","name":"Imperial Valley","fclName":"city, village,...","adminCodes1":{"ISO3166_2":"TX"},"countryName":"United States","fcodeName":"populated place","adminName1":"Texas","lat":"29.9249","fcode":"PPL"},{"adminCode1":"ID","lng":"-114.3945","geonameId":5596539,"toponymName":"Imperial Gulch","countryId":"6252001","fcl":"T","population":0,"countryCode":"US","name":"Imperial Gulch","fclName":"mountain,hill,rock,... ","adminCodes1":{"ISO3166_2":"ID"},"countryName":"United States","fcodeName":"valley","adminName1":"Idaho","lat":"43.5913","fcode":"VAL"},{"adminCode1":"KY","lng":"-84.08799","geonameId":4295757,"toponymName":"Imperial Hollow","countryId":"6252001","fcl":"T","population":0,"countryCode":"US","name":"Imperial Hollow","fclName":"mountain,hill,rock,... ","adminCodes1":{"ISO3166_2":"KY"},"countryName":"United States","fcodeName":"valley","adminName1":"Kentucky","lat":"36.83481","fcode":"VAL"},{"adminCode1":"CA","lng":"-115.44721","geonameId":5404880,"toponymName":"University of California Imperial Valley Fir","countryId":"6252001","fcl":"S","population":0,"countryCode":"US","name":"University of California Imperial Valley Fir","fclName":"spot, building, farm","adminCodes1":{"ISO3166_2":"CA"},"countryName":"United States","fcodeName":"school","adminName1":"California","lat":"32.80477","fcode":"SCH"},{"adminCode1":"CA","lng":"-115.56888","geonameId":5359101,"toponymName":"Imperial Valley Pioneer Museum","countryId":"6252001","fcl":"S","population":0,"countryCode":"US","name":"Imperial Valley Pioneer Museum","fclName":"spot, building, farm","adminCodes1":{"ISO3166_2":"CA"},"countryName":"United States","fcodeName":"museum","adminName1":"California","lat":"32.83533","fcode":"MUS"},{"adminCode1":"CA","lng":"-115.27859","geonameId":5359102,"toponymName":"Imperial Valley Sanitarium (historical)","countryId":"6252001","fcl":"S","population":0,"countryCode":"US","name":"Imperial Valley Sanitarium (historical)","fclName":"spot, building, farm","adminCodes1":{"ISO3166_2":"CA"},"countryName":"United States","fcodeName":"hospital","adminName1":"California","lat":"32.83866","fcode":"HSP"},{"adminCode1":"CA","lng":"-115.55722","geonameId":5359106,"toponymName":"Imperial Valley Church of Religious Science","countryId":"6252001","fcl":"S","population":0,"countryCode":"US","name":"Imperial Valley Church of Religious Science","fclName":"spot, building, farm","adminCodes1":{"ISO3166_2":"CA"},"countryName":"United States","fcodeName":"church","adminName1":"California","lat":"32.78061","fcode":"CH"},{"adminCode1":"CA","lng":"-114.59829","geonameId":5392526,"toponymName":"San Pasqual Valley School","countryId":"6252001","fcl":"S","population":0,"countryCode":"US","name":"San Pasqual Valley School","fclName":"spot, building, farm","adminCodes1":{"ISO3166_2":"CA"},"countryName":"United States","fcodeName":"school","adminName1":"California","lat":"32.75199","fcode":"SCH"},{"adminCode1":"CA","lng":"-114.59717","geonameId":5392536,"toponymName":"San Pasqual Valley School","countryId":"6252001","fcl":"S","population":0,"countryCode":"US","name":"San Pasqual Valley School","fclName":"spot, building, farm","adminCodes1":{"ISO3166_2":"CA"},"countryName":"United States","fcodeName":"school","adminName1":"California","lat":"32.74977","fcode":"SCH"},{"adminCode1":"CA","lng":"-115.53082","geonameId":5405414,"toponymName":"Valley Baptist Church","countryId":"6252001","fcl":"S","population":0,"countryCode":"US","name":"Valley Baptist Church","fclName":"spot, building, farm","adminCodes1":{"ISO3166_2":"CA"},"countryName":"United States","fcodeName":"church","adminName1":"California","lat":"32.98449","fcode":"CH"},{"adminCode1":"CA","lng":"-115.565","geonameId":5405452,"toponymName":"Valley Christian Church","countryId":"6252001","fcl":"S","population":0,"countryCode":"US","name":"Valley Christian Church","fclName":"spot, building, farm","adminCodes1":{"ISO3166_2":"CA"},"countryName":"United States","fcodeName":"church","adminName1":"California","lat":"32.7995","fcode":"CH"},{"adminCode1":"CA","lng":"-115.3736","geonameId":5405461,"toponymName":"Valley Church","countryId":"6252001","fcl":"S","population":0,"countryCode":"US","name":"Valley Church","fclName":"spot, building, farm","adminCodes1":{"ISO3166_2":"CA"},"countryName":"United States","fcodeName":"church","adminName1":"California","lat":"32.81061","fcode":"CH"},{"adminCode1":"CA","lng":"-115.57083","geonameId":5405537,"toponymName":"Valley Plaza Shopping Center","countryId":"6252001","fcl":"S","population":0,"countryCode":"US","name":"Valley Plaza Shopping Center","fclName":"spot, building, farm","adminCodes1":{"ISO3166_2":"CA"},"countryName":"United States","fcodeName":"mall","adminName1":"California","lat":"32.79144","fcode":"MALL"},{"adminCode1":"CA","lng":"-115.5225","geonameId":8112591,"toponymName":"Valley Fish Farms","countryId":"6252001","fcl":"S","population":0,"countryCode":"US","name":"Valley Fish Farms","fclName":"spot, building, farm","adminCodes1":{"ISO3166_2":"CA"},"countryName":"United States","fcodeName":"farm","adminName1":"California","lat":"32.89833","fcode":"FRM"},{"adminCode1":"MT","lng":"-105.87946","geonameId":5658638,"toponymName":"Imperial Elevator (historical)","countryId":"6252001","fcl":"S","population":0,"countryCode":"US","name":"Imperial Elevator (historical)","fclName":"spot, building, farm","adminCodes1":{"ISO3166_2":"MT"},"countryName":"United States","fcodeName":"","adminName1":"Montana","lat":"48.05724"},{"adminCode1":"MT","lng":"-106.35725","geonameId":5658639,"toponymName":"Imperial Elevator (historical)","countryId":"6252001","fcl":"S","population":0,"countryCode":"US","name":"Imperial Elevator (historical)","fclName":"spot, building, farm","adminCodes1":{"ISO3166_2":"MT"},"countryName":"United States","fcodeName":"","adminName1":"Montana","lat":"48.13363"}]}
