{"totalResultsCount":1780,"geonames":[{"adminCode1":"MA","lng":"-71.09172","geonameId":4943351,"toponymName":"Massachusetts Institute of Technology","countryId":"6252001","fcl":"S","population":0,"countryCode":"US","name":"Massachusetts Institute of Technology","fclName":"spot, building, farm","adminCodes1":{"ISO3166_2":"MA"},"countryName":"United States","fcodeName":"school","adminName1":"Massachusetts","lat":"42.35954","fcode":"SCH"},{"adminCode1":"AL","lng":"-85.70489","geonameId":4094499,"toponymName":"Tuskegee Institute National Historic Site","countryId":"6252001","fcl":"L","population":0,"countryCode":"US","name":"Tuskegee Institute National Historic Site","fclName":"parks,area, ...","adminCodes1":{"ISO3166_2":"AL"},"countryName":"United States","fcodeName":"area","adminName1":"Alabama","lat":"32.42962","fcode":"AREA"},{"adminCode1":"VA","lng":"-79.43587","geonameId":4791322,"toponymName":"Virginia Military Institute Historic District","countryId":"6252001","fcl":"L","population":0,"countryCode":"US","name":"Virginia Military Institute Historic District","fclName":"parks,area, ...","adminCodes1":{"ISO3166_2":"VA"},"countryName":"United States","fcodeName":"park","adminName1":"Virginia","lat":"37.79041","fcode":"PRK"},{"adminCode1":"MA","lng":"-71.80785","geonameId":4940360,"toponymName":"Institute Park","countryId":"6252001","fcl":"L","population":0,"countryCode":"US","name":"Institute Park","fclName":"parks,area, ...","adminCodes1":{"ISO3166_2":"MA"},"countryName":"United States","fcodeName":"park","adminName1":"Massachusetts","lat":"42.27676","fcode":"PRK"},{"adminCode1":"CA","lng":"-118.12574","geonameId":6331816,"toponymName":"California Institute of Technology","countryId":"6252001","fcl":"S","population":0,"countryCode":"US","name":"California Institute of Technology","fclName":"spot, building, farm","adminCodes1":{"ISO3166_2":"CA"},"countryName":"United States","fcodeName":"university","adminName1":"California","lat":"34.13794","fcode":"UNIV"},{"adminCode1":"CA","lng":"-118.17341","geonameId":5332811,"toponymName":"California Institute of Technology - Jet Propulsion Laboratory","countryId":"6252001","fcl":"S","population":0,"countryCode":"US","name":"California Institute of Technology - Jet Propulsion Laboratory","fclName":"spot, building, farm","adminCodes1":{"ISO3166_2":"CA"},"countryName":"United States","fcodeName":"school","adminName1":"California","lat":"34.20139","fcode":"SCH"},{"adminCode1":"IL","lng":"-87.627","geonameId":4896819,"toponymName":"Illinois Institute of Technology","countryId":"6252001","fcl":"S","population":0,"countryCode":"US","name":"Illinois Institute of Technology","fclName":"spot, building, farm","adminCodes1":{"ISO3166_2":"IL"},"countryName":"United States","fcodeName":"school","adminName1":"Illinois","lat":"41.83531","fcode":"SCH"},{"adminCode1":"GA","lng":"-84.39456","geonameId":4196947,"toponymName":"Georgia Institute of Technology","countryId":"6252001","fcl":"S","population":0,"countryCode":"US","name":"Georgia Institute of Technology","fclName":"spot, building, farm","adminCodes1":{"ISO3166_2":"GA"},"countryName":"United States","fcodeName":"school","adminName1":"Georgia","lat":"33.77233","fcode":"SCH"},{"adminCode1":"IL","lng":"-87.62371","geonameId":4883641,"toponymName":"Art Institute of Chicago","countryId":"6252001","fcl":"S","population":0,"countryCode":"US","name":"Art Institute of Chicago","fclName":"spot, building, farm","adminCodes1":{"ISO3166_2":"IL"},"countryName":"United States","fcodeName":"school","adminName1":"Illinois","lat":"41.87958","fcode":"SCH"},{"adminCode1":"DC","lng":"-76.99415","geonameId":4138826,"toponymName":"Gallaudet University","countryId":"6252001","fcl":"S","population":0,"countryCode":"US","name":"Gallaudet University","fclName":"spot, building, farm","adminCodes1":{"ISO3166_2":"DC"},"countryName":"United States","fcodeName":"university","adminName1":"Washington, D.C.","lat":"38.90665","fcode":"UNIV"},{"adminCode1":"VA","lng":"-80.40785","geonameId":4791329,"toponymName":"Virginia Tech/Montgomery Executive Airport","countryId":"6252001","fcl":"S","population":0,"countryCode":"US","name":"Virginia Tech/Montgomery Executive Airport","fclName":"spot, building, farm","adminCodes1":{"ISO3166_2":"VA"},"countryName":"United States","fcodeName":"airport","adminName1":"Virginia","lat":"37.20618","fcode":"AIRP"},{"adminCode1":"WI","lng":"-87.28704","geonameId":5257516,"toponymName":"Institute","countryId":"6252001","fcl":"P","population":0,"countryCode":"US","name":"Institute","fclName":"city, village,...","adminCodes1":{"ISO3166_2":"WI"},"countryName":"United States","fcodeName":"populated place","adminName1":"Wisconsin","lat":"44.89333","fcode":"PPL"},{"adminCode1":"MA","lng":"-72.86954","geonameId":4940362,"toponymName":"Mount Institute","countryId":"6252001","fcl":"T","population":0,"countryCode":"US","name":"Mount Institute","fclName":"mountain,hill,rock,... ","adminCodes1":{"ISO3166_2":"MA"},"countryName":"United States","fcodeName":"mountain","adminName1":"Massachusetts","lat":"42.61397","fcode":"MT"},{"adminCode1":"MA","lng":"-71.10477","geonameId":4931016,"toponymName":"Boston University","countryId":"6252001","fcl":"S","population":0,"countryCode":"US","name":"Boston University","fclName":"spot, building, farm","adminCodes1":{"ISO3166_2":"MA"},"countryName":"United States","fcodeName":"school","adminName1":"Massachusetts","lat":"42.33399","fcode":"SCH"},{"adminCode1":"GA","lng":"-84.39465","geonameId":4196948,"toponymName":"Georgia Institute of Technology Historic District","countryId":"6252001","fcl":"L","population":0,"countryCode":"US","name":"Georgia Institute of Technology Historic District","fclName":"parks,area, ...","adminCodes1":{"ISO3166_2":"GA"},"countryName":"United States","fcodeName":"park","adminName1":"Georgia","lat":"33.77233","fcode":"PRK"},{"adminCode1":"DC","lng":"-77.02581","geonameId":4140525,"toponymName":"Smithsonian Institution","countryId":"6252001","fcl":"S","population":0,"countryCode":"US","name":"Smithsonian Institution","fclName":"spot, building, farm","adminCodes1":{"ISO3166_2":"DC"},"countryName":"United States","fcodeName":"building(s)","adminName1":"Washington, D.C.","lat":"38.88872","fcode":"BLDG"},{"adminCode1":"KY","lng":"-84.52105","geonameId":4296935,"toponymName":"Kentucky State Horse Park","countryId":"6252001","fcl":"L","population":0,"countryCode":"US","name":"Kentucky State Horse Park","fclName":"parks,area, ...","adminCodes1":{"ISO3166_2":"KY"},"countryName":"United States","fcodeName":"park","adminName1":"Kentucky","lat":"38.15035","fcode":"PRK"},{"adminCode1":"AK","lng":"-135.32372","geonameId":11550485,"toponymName":"Sheldon Jackson School","countryId":"6252001","fcl":"L","population":0,"countryCode":"US","name":"Sheldon Jackson College","fclName":"parks,area, ...","adminCodes1":{"ISO3166_2":"AK"},"countryName":"United States","fcodeName":"area","adminName1":"Alaska","lat":"57.05095","fcode":"AREA"},{"adminCode1":"GA","lng":"-81.60407","geonameId":4184079,"toponymName":"Bradwell Institute","countryId":"6252001","fcl":"S","population":0,"countryCode":"US","name":"Bradwell Institute","fclName":"spot, building, farm","adminCodes1":{"ISO3166_2":"GA"},"countryName":"United States","fcodeName":"school","adminName1":"Georgia","lat":"31.84899","fcode":"SCH"},{"adminCode1":"NC","lng":"-78.94001","geonameId":4464274,"toponymName":"Duke University","countryId":"6252001","fcl":"S","population":0,"countryCode":"US","name":"Duke University","fclName":"spot, building, farm","adminCodes1":{"ISO3166_2":"NC"},"countryName":"United States","fcodeName":"school","adminName1":"North Carolina","lat":"36.00153","fcode":"SCH"},{"adminCode1":"DC","lng":"-77.0779","geonameId":4140100,"toponymName":"Psychiatric Institute of Washington","countryId":"6252001","fcl":"S","population":0,"countryCode":"US","name":"Psychiatric Institute of Washington","fclName":"spot, building, farm","adminCodes1":{"ISO3166_2":"DC"},"countryName":"United States","fcodeName":"hospital","adminName1":"Washington, D.C.","lat":"38.94384","fcode":"HSP"},{"adminCode1":"WV","lng":"-81.76541","geonameId":4809766,"toponymName":"Institute","countryId":"6252001","fcl":"P","population":0,"countryCode":"US","name":"Institute","fclName":"city, village,...","adminCodes1":{"ISO3166_2":"WV"},"countryName":"United States","fcodeName":"populated place","adminName1":"West Virginia","lat":"38.38371","fcode":"PPL"},{"adminCode1":"MI","lng":"-84.3425","geonameId":7203732,"toponymName":"Woodstock Manual Labor Institute Historical Marker","countryId":"6252001","fcl":"L","population":0,"countryCode":"US","name":"Woodstock Manual Labor Institute Historical Marker","fclName":"parks,area, ...","adminCodes1":{"ISO3166_2":"MI"},"countryName":"United States","fcodeName":"park","adminName1":"Michigan","lat":"42.00417","fcode":"PRK"},{"adminCode1":"MI","lng":"-85.48028","geonameId":7239237,"toponymName":"Ferris Institute Historical Marker (historical)","countryId":"6252001","fcl":"L","population":0,"countryCode":"US","name":"Ferris Institute Historical Marker (historical)","fclName":"parks,area, ...","adminCodes1":{"ISO3166_2":"MI"},"countryName":"United States","fcodeName":"park","adminName1":"Michigan","lat":"43.68667","fcode":"PRK"},{"adminCode1":"TX","lng":"-98.60502","geonameId":4736187,"toponymName":"Texas Miltary Institute Baseball Field","countryId":"6252001","fcl":"L","population":0,"countryCode":"US","name":"Texas Miltary Institute Baseball Field","fclName":"parks,area, ...","adminCodes1":{"ISO3166_2":"TX"},"countryName":"United States","fcodeName":"park","adminName1":"Texas","lat":"29.6355","fcode":"PRK"},{"adminCode1":"TX","lng":"-95.37299","geonameId":4700083,"toponymName":"Institute Park","countryId":"6252001","fcl":"L","population":0,"countryCode":"US","name":"Institute Park","fclName":"parks,area, ...","adminCodes1":{"ISO3166_2":"TX"},"countryName":"United States","fcodeName":"park","adminName1":"Texas","lat":"29.68967","fcode":"PRK"},{"adminCode1":"MA","lng":"-70.89199","geonameId":4935961,"toponymName":"Essex Institute Historic District","countryId":"6252001","fcl":"L","population":0,"countryCode":"US","name":"Essex Institute Historic District","fclName":"parks,area, ...","adminCodes1":{"ISO3166_2":"MA"},"countryName":"United States","fcodeName":"park","adminName1":"Massachusetts","lat":"42.52232","fcode":"PRK"},{"adminCode1":"MI","lng":"-83.24836","geonameId":8095179,"toponymName":"Lawrence Institute of Technology Historical Marker","countryId":"6252001","fcl":"L","population":0,"countryCode":"US","name":"Lawrence Institute of Technology Historical Marker","fclName":"parks,area, ...","adminCodes1":{"ISO3166_2":"MI"},"countryName":"United States","fcodeName":"park","adminName1":"Michigan","lat":"42.47493","fcode":"PRK"},{"adminCode1":"MI","lng":"-83.23237","geonameId":8095854,"toponymName":"The Edison Institute Historical Marker","countryId":"6252001","fcl":"L","population":0,"countryCode":"US","name":"The Edison Institute Historical Marker","fclName":"parks,area, ...","adminCodes1":{"ISO3166_2":"MI"},"countryName":"United States","fcodeName":"park","adminName1":"Michigan","lat":"42.3028","fcode":"PRK"},{"adminCode1":"MI","lng":"-83.06593","geonameId":8095976,"toponymName":"The Merrill-Palmer Institute Historical Marker","countryId":"6252001","fcl":"L","population":0,"countryCode":"US","name":"The Merrill-Palmer Institute Historical Marker","fclName":"parks,area, ...","adminCodes1":{"ISO3166_2":"MI"},"countryName":"United States","fcodeName":"park","adminName1":"Michigan","lat":"42.36166","fcode":"PRK"},{"adminCode1":"KY","lng":"-83.97584","geonameId":8503827,"toponymName":"Estill Collegiate Institute Historical Marker","countryId":"6252001","fcl":"L","population":0,"countryCode":"US","name":"Estill Collegiate Institute Historical Marker","fclName":"parks,area, ...","adminCodes1":{"ISO3166_2":"KY"},"countryName":"United States","fcodeName":"park","adminName1":"Kentucky","lat":"37.70327","fcode":"PRK"},{"adminCode1":"KY","lng":"-82.52178","geonameId":8504106,"toponymName":"Pikeville Collegiate Institute Historical Marker","countryId":"6252001","fcl":"L","population":0,"countryCode":"US","name":"Pikeville Collegiate Institute Historical Marker","fclName":"parks,area, ...","adminCodes1":{"ISO3166_2":"KY"},"countryName":"United States","fcodeName":"park","adminName1":"Kentucky","lat":"37.47622","fcode":"PRK"},{"adminCode1":"PA","lng":"-75.19296","geonameId":4557610,"toponymName":"Drexel University","countryId":"6252001","fcl":"S","population":0,"countryCode":"US","name":"Drexel University","fclName":"spot, building, farm","adminCodes1":{"ISO3166_2":"PA"},"countryName":"United States","fcodeName":"school","adminName1":"Pennsylvania","lat":"39.954","fcode":"SCH"},{"adminCode1":"NC","lng":"-77.7149","geonameId":4472738,"toponymName":"Township of Institute","countryId":"6252001","fcl":"A","population":0,"countryCode":"US","name":"Institute Township","fclName":"country, state, region,...","adminCodes1":{"ISO3166_2":"NC"},"countryName":"United States","fcodeName":"third-order administrative division","adminName1":"North Carolina","lat":"35.33502","fcode":"ADM3"},{"adminCode1":"MA","lng":"-71.80785","geonameId":4956222,"toponymName":"Worcester Polytechnic Institute","countryId":"6252001","fcl":"S","population":0,"countryCode":"US","name":"Worcester Polytechnic Institute","fclName":"spot, building, farm","adminCodes1":{"ISO3166_2":"MA"},"countryName":"United States","fcodeName":"school","adminName1":"Massachusetts","lat":"42.27509","fcode":"SCH"},{"adminCode1":"VA","lng":"-79.41308","geonameId":4745069,"toponymName":"Averett University","countryId":"6252001","fcl":"S","population":0,"countryCode":"US","name":"Averett University","fclName":"spot, building, farm","adminCodes1":{"ISO3166_2":"VA"},"countryName":"United States","fcodeName":"school","adminName1":"Virginia","lat":"36.57736","fcode":"SCH"},{"adminCode1":"NY","lng":"-73.95486","geonameId":5134181,"toponymName":"Rockefeller University","countryId":"6252001","fcl":"S","population":0,"countryCode":"US","name":"Rockefeller University","fclName":"spot, building, farm","adminCodes1":{"ISO3166_2":"NY"},"countryName":"United States","fcodeName":"school","adminName1":"New York","lat":"40.7626","fcode":"SCH"},{"adminCode1":"PA","lng":"-79.94283","geonameId":5183278,"toponymName":"Carnegie Mellon University","countryId":"6252001","fcl":"S","population":0,"countryCode":"US","name":"Carnegie Mellon University","fclName":"spot, building, farm","adminCodes1":{"ISO3166_2":"PA"},"countryName":"United States","fcodeName":"university","adminName1":"Pennsylvania","lat":"40.44118","fcode":"UNIV"},{"adminCode1":"GA","lng":"-84.35417","geonameId":7242595,"toponymName":"Art Institute of Atlanta","countryId":"6252001","fcl":"S","population":0,"countryCode":"US","name":"Art Institute of Atlanta","fclName":"spot, building, farm","adminCodes1":{"ISO3166_2":"GA"},"countryName":"United States","fcodeName":"school","adminName1":"Georgia","lat":"33.93594","fcode":"SCH"},{"adminCode1":"GA","lng":"-81.02169","geonameId":4223002,"toponymName":"Skidaway Institute of Oceanography","countryId":"6252001","fcl":"S","population":0,"countryCode":"US","name":"Skidaway Institute of Oceanography","fclName":"spot, building, farm","adminCodes1":{"ISO3166_2":"GA"},"countryName":"United States","fcodeName":"school","adminName1":"Georgia","lat":"31.98836","fcode":"SCH"},{"adminCode1":"GA","lng":"-84.88076","geonameId":4223743,"toponymName":"Southeastern Holiness Institute","countryId":"6252001","fcl":"S","population":0,"countryCode":"US","name":"Southeastern Holiness Institute","fclName":"spot, building, farm","adminCodes1":{"ISO3166_2":"GA"},"countryName":"United States","fcodeName":"school","adminName1":"Georgia","lat":"31.05102","fcode":"SCH"},{"adminCode1":"VA","lng":"-76.33908","geonameId":4762927,"toponymName":"Hampton University","countryId":"6252001","fcl":"S","population":0,"countryCode":"US","name":"Hampton University","fclName":"spot, building, farm","adminCodes1":{"ISO3166_2":"VA"},"countryName":"United States","fcodeName":"school","adminName1":"Virginia","lat":"37.02","fcode":"SCH"},{"adminCode1":"NY","lng":"-77.67028","geonameId":5134108,"toponymName":"Rochester Institute of Technology","countryId":"6252001","fcl":"S","population":0,"countryCode":"US","name":"Rochester Institute of Technology","fclName":"spot, building, farm","adminCodes1":{"ISO3166_2":"NY"},"countryName":"United States","fcodeName":"school","adminName1":"New York","lat":"43.0859","fcode":"SCH"},{"adminCode1":"MI","lng":"-83.0556","geonameId":7145087,"toponymName":"Rehabilitation Institute of Michigan","countryId":"6252001","fcl":"S","population":0,"countryCode":"US","name":"Rehabilitation Institute of Michigan","fclName":"spot, building, farm","adminCodes1":{"ISO3166_2":"MI"},"countryName":"United States","fcodeName":"building(s)","adminName1":"Michigan","lat":"42.34971","fcode":"BLDG"},{"adminCode1":"MO","lng":"-94.39444","geonameId":4384488,"toponymName":"Andrew Drumm Institute","countryId":"6252001","fcl":"S","population":0,"countryCode":"US","name":"Andrew Drumm Institute","fclName":"spot, building, farm","adminCodes1":{"ISO3166_2":"MO"},"countryName":"United States","fcodeName":"school","adminName1":"Missouri","lat":"39.06232","fcode":"SCH"},{"adminCode1":"MD","lng":"-76.70821","geonameId":4359830,"toponymName":"University of Maryland Rehabilitation and Orthopaedic Institute","countryId":"6252001","fcl":"S","population":0,"countryCode":"US","name":"University of Maryland Rehabilitation and Orthopaedic Institute","fclName":"spot, building, farm","adminCodes1":{"ISO3166_2":"MD"},"countryName":"United States","fcodeName":"hospital","adminName1":"Maryland","lat":"39.31407","fcode":"HSP"},{"adminCode1":"AL","lng":"-87.03298","geonameId":4090773,"toponymName":"Snow Hill Institute (historical)","countryId":"6252001","fcl":"S","population":0,"countryCode":"US","name":"Colored Industrial and Literary Institute of Snow Hill","fclName":"spot, building, farm","adminCodes1":{"ISO3166_2":"AL"},"countryName":"United States","fcodeName":"school","adminName1":"Alabama","lat":"32.02064","fcode":"SCH"},{"adminCode1":"AL","lng":"-85.70523","geonameId":4094496,"toponymName":"Tuskegee Institute","countryId":"6252001","fcl":"S","population":0,"countryCode":"US","name":"Tuskegee Institute","fclName":"spot, building, farm","adminCodes1":{"ISO3166_2":"AL"},"countryName":"United States","fcodeName":"school","adminName1":"Alabama","lat":"32.43042","fcode":"SCH"},{"adminCode1":"IA","lng":"-95.57298","geonameId":4867205,"toponymName":"Cherokee Mental Health Institute","countryId":"6252001","fcl":"S","population":0,"countryCode":"US","name":"Cherokee Mental Health Institute","fclName":"spot, building, farm","adminCodes1":{"ISO3166_2":"IA"},"countryName":"United States","fcodeName":"hospital","adminName1":"Iowa","lat":"42.75702","fcode":"HSP"},{"adminCode1":"WI","lng":"-87.87066","geonameId":5271137,"toponymName":"Montessori Institute of Milwaukee","countryId":"6252001","fcl":"S","population":0,"countryCode":"US","name":"Montessori Institute of Milwaukee","fclName":"spot, building, farm","adminCodes1":{"ISO3166_2":"WI"},"countryName":"United States","fcodeName":"school","adminName1":"Wisconsin","lat":"42.98611","fcode":"SCH"},{"adminCode1":"CA","lng":"-122.41713","geonameId":5391960,"toponymName":"San Francisco Art Institute","countryId":"6252001","fcl":"S","population":0,"countryCode":"US","name":"San Francisco Art Institute","fclName":"spot, building, farm","adminCodes1":{"ISO3166_2":"CA"},"countryName":"United States","fcodeName":"school","adminName1":"California","lat":"37.80357","fcode":"SCH"},{"adminCode1":"OR","lng":"-118.66251","geonameId":8486241,"toponymName":"Tamastslikt Cultural Institute","countryId":"6252001","fcl":"S","population":0,"countryCode":"US","name":"Tamastslikt Cultural Institute","fclName":"spot, building, farm","adminCodes1":{"ISO3166_2":"OR"},"countryName":"United States","fcodeName":"building(s)","adminName1":"Oregon","lat":"45.65441","fcode":"BLDG"},{"adminCode1":"NY","lng":"-73.96444","geonameId":7119409,"toponymName":"Institute Park (historical)","countryId":"6252001","fcl":"L","population":0,"countryCode":"US","name":"Institute Park (historical)","fclName":"parks,area, ...","adminCodes1":{"ISO3166_2":"NY"},"countryName":"United States","fcodeName":"park","adminName1":"New York","lat":"40.66889","fcode":"PRK"},{"adminCode1":"VA","lng":"-78.37195","geonameId":4749662,"toponymName":"Buckingham Female Collegiate Institute Historic District","countryId":"6252001","fcl":"L","population":0,"countryCode":"US","name":"Buckingham Female Collegiate Institute Historic District","fclName":"parks,area, ...","adminCodes1":{"ISO3166_2":"VA"},"countryName":"United States","fcodeName":"park","adminName1":"Virginia","lat":"37.58265","fcode":"PRK"},{"adminCode1":"MD","lng":"-76.90247","geonameId":4347190,"toponymName":"Ammendale Normal Institute","countryId":"6252001","fcl":"S","population":0,"countryCode":"US","name":"Ammendale Normal Institute","fclName":"spot, building, farm","adminCodes1":{"ISO3166_2":"MD"},"countryName":"United States","fcodeName":"school","adminName1":"Maryland","lat":"39.05316","fcode":"SCH"},{"adminCode1":"VA","lng":"-80.41998","geonameId":4791328,"toponymName":"Virginia Polytechnic Institute and State University","countryId":"6252001","fcl":"S","population":0,"countryCode":"US","name":"Virginia Polytechnic Institute and State University","fclName":"spot, building, farm","adminCodes1":{"ISO3166_2":"VA"},"countryName":"United States","fcodeName":"school","adminName1":"Virginia","lat":"37.2299","fcode":"SCH"},{"adminCode1":"MA","lng":"-71.10811","geonameId":4934467,"toponymName":"Dana - Farber Cancer Institute","countryId":"6252001","fcl":"S","population":0,"countryCode":"US","name":"Dana - Farber Cancer Institute","fclName":"spot, building, farm","adminCodes1":{"ISO3166_2":"MA"},"countryName":"United States","fcodeName":"hospital","adminName1":"Massachusetts","lat":"42.33751","fcode":"HSP"},{"adminCode1":"MD","lng":"-76.66449","geonameId":7135988,"toponymName":"Augusta Fells Savage Institute of Visual Arts","countryId":"6252001","fcl":"S","population":0,"countryCode":"US","name":"Augusta Fells Savage Institute of Visual Arts","fclName":"spot, building, farm","adminCodes1":{"ISO3166_2":"MD"},"countryName":"United States","fcodeName":"school","adminName1":"Maryland","lat":"39.28375","fcode":"SCH"},{"adminCode1":"MS","lng":"-90.63066","geonameId":4431028,"toponymName":"Institute","countryId":"6252001","fcl":"P","population":0,"countryCode":"US","name":"Institute","fclName":"city, village,...","adminCodes1":{"ISO3166_2":"MS"},"countryName":"United States","fcodeName":"populated place","adminName1":"Mississippi","lat":"32.3357","fcode":"PPL"},{"adminCode1":"TN","lng":"-85.33552","geonameId":4642291,"toponymName":"Moccasin Bend Mental Health Institute","countryId":"6252001","fcl":"S","population":0,"countryCode":"US","name":"Moccasin Bend Mental Health Institute","fclName":"spot, building, farm","adminCodes1":{"ISO3166_2":"TN"},"countryName":"United States","fcodeName":"hospital","adminName1":"Tennessee","lat":"35.02577","fcode":"HSP"},{"adminCode1":"TN","lng":"-83.99088","geonameId":4635288,"toponymName":"Lakeshore Mental Health Institute","countryId":"6252001","fcl":"S","population":0,"countryCode":"US","name":"Lakeshore Mental Health Institute","fclName":"spot, building, farm","adminCodes1":{"ISO3166_2":"TN"},"countryName":"United States","fcodeName":"hospital","adminName1":"Tennessee","lat":"35.92279","fcode":"HSP"},{"adminCode1":"TN","lng":"-86.67944","geonameId":4641493,"toponymName":"Middle Tennessee Mental Health Institute","countryId":"6252001","fcl":"S","population":0,"countryCode":"US","name":"Middle Tennessee Mental Health Institute","fclName":"spot, building, farm","adminCodes1":{"ISO3166_2":"TN"},"countryName":"United States","fcodeName":"hospital","adminName1":"Tennessee","lat":"36.10367","fcode":"HSP"},{"adminCode1":"OH","lng":"-83.48358","geonameId":4517012,"toponymName":"London Correctional Institute","countryId":"6252001","fcl":"S","population":0,"countryCode":"US","name":"London Correctional Institute","fclName":"spot, building, farm","adminCodes1":{"ISO3166_2":"OH"},"countryName":"United States","fcodeName":"building(s)","adminName1":"Ohio","lat":"39.90518","fcode":"BLDG"},{"adminCode1":"OH","lng":"-84.54689","geonameId":4520223,"toponymName":"Ohio Military Institute (historical)","countryId":"6252001","fcl":"S","population":0,"countryCode":"US","name":"Ohio Military Institute (historical)","fclName":"spot, building, farm","adminCodes1":{"ISO3166_2":"OH"},"countryName":"United States","fcodeName":"school","adminName1":"Ohio","lat":"39.187","fcode":"SCH"},{"adminCode1":"OH","lng":"-83.15352","geonameId":4520645,"toponymName":"Orient State Institute","countryId":"6252001","fcl":"S","population":0,"countryCode":"US","name":"Orient State Institute","fclName":"spot, building, farm","adminCodes1":{"ISO3166_2":"OH"},"countryName":"United States","fcodeName":"school","adminName1":"Ohio","lat":"39.79423","fcode":"SCH"},{"adminCode1":"MD","lng":"-76.64305","geonameId":4347810,"toponymName":"Baltimore Polytechnic Institute","countryId":"6252001","fcl":"S","population":0,"countryCode":"US","name":"Baltimore Polytechnic Institute","fclName":"spot, building, farm","adminCodes1":{"ISO3166_2":"MD"},"countryName":"United States","fcodeName":"school","adminName1":"Maryland","lat":"39.34601","fcode":"SCH"},{"adminCode1":"AL","lng":"-87.3212","geonameId":4074649,"toponymName":"Marion Military Institute","countryId":"6252001","fcl":"S","population":0,"countryCode":"US","name":"Marion Institute","fclName":"spot, building, farm","adminCodes1":{"ISO3166_2":"AL"},"countryName":"United States","fcodeName":"school","adminName1":"Alabama","lat":"32.62373","fcode":"SCH"},{"adminCode1":"KY","lng":"-83.65075","geonameId":4303224,"toponymName":"Oneida Baptist Institute","countryId":"6252001","fcl":"S","population":0,"countryCode":"US","name":"Oneida Baptist Institute","fclName":"spot, building, farm","adminCodes1":{"ISO3166_2":"KY"},"countryName":"United States","fcodeName":"school","adminName1":"Kentucky","lat":"37.26842","fcode":"SCH"},{"adminCode1":"KS","lng":"-95.75128","geonameId":4273870,"toponymName":"Washburn Institute of Technology","countryId":"6252001","fcl":"S","population":0,"countryCode":"US","name":"Washburn Institute of Technology","fclName":"spot, building, farm","adminCodes1":{"ISO3166_2":"KS"},"countryName":"United States","fcodeName":"school","adminName1":"Kansas","lat":"39.04459","fcode":"SCH"},{"adminCode1":"FL","lng":"-80.10949","geonameId":4169019,"toponymName":"Pompano Beach Institute of International Studies","countryId":"6252001","fcl":"S","population":0,"countryCode":"US","name":"Pompano Beach Institute of International Studies","fclName":"spot, building, farm","adminCodes1":{"ISO3166_2":"FL"},"countryName":"United States","fcodeName":"school","adminName1":"Florida","lat":"26.23647","fcode":"SCH"},{"adminCode1":"NV","lng":"-119.80352","geonameId":5502924,"toponymName":"Desert Research Institute","countryId":"6252001","fcl":"S","population":0,"countryCode":"US","name":"Desert Research Institute","fclName":"spot, building, farm","adminCodes1":{"ISO3166_2":"NV"},"countryName":"United States","fcodeName":"","adminName1":"Nevada","lat":"39.57213"},{"adminCode1":"WI","lng":"-88.73036","geonameId":5278111,"toponymName":"Waupun Correctional Institute","countryId":"6252001","fcl":"S","population":0,"countryCode":"US","name":"Waupun Correctional Institute","fclName":"spot, building, farm","adminCodes1":{"ISO3166_2":"WI"},"countryName":"United States","fcodeName":"building(s)","adminName1":"Wisconsin","lat":"43.62918","fcode":"BLDG"},{"adminCode1":"WI","lng":"-89.39854","geonameId":5262614,"toponymName":"Mendota Mental Health Institute","countryId":"6252001","fcl":"S","population":0,"countryCode":"US","name":"Mendota Mental Health Institute","fclName":"spot, building, farm","adminCodes1":{"ISO3166_2":"WI"},"countryName":"United States","fcodeName":"hospital","adminName1":"Wisconsin","lat":"43.13247","fcode":"HSP"},{"adminCode1":"WI","lng":"-88.51986","geonameId":5279352,"toponymName":"Winnebago Mental Health Institute","countryId":"6252001","fcl":"S","population":0,"countryCode":"US","name":"Winnebago Mental Health Institute","fclName":"spot, building, farm","adminCodes1":{"ISO3166_2":"WI"},"countryName":"United States","fcodeName":"hospital","adminName1":"Wisconsin","lat":"44.07389","fcode":"HSP"},{"adminCode1":"ME","lng":"-69.3866","geonameId":4970879,"toponymName":"Maine Central Institute","countryId":"6252001","fcl":"S","population":0,"countryCode":"US","name":"Maine Central Institute","fclName":"spot, building, farm","adminCodes1":{"ISO3166_2":"ME"},"countryName":"United States","fcodeName":"school","adminName1":"Maine","lat":"44.7794","fcode":"SCH"},{"adminCode1":"OH","lng":"-81.43038","geonameId":5153009,"toponymName":"Edwin Shaw Rehabilitation Institute","countryId":"6252001","fcl":"S","population":0,"countryCode":"US","name":"Edwin Shaw Rehabilitation Institute","fclName":"spot, building, farm","adminCodes1":{"ISO3166_2":"OH"},"countryName":"United States","fcodeName":"hospital","adminName1":"Ohio","lat":"41.01667","fcode":"HSP"},{"adminCode1":"OH","lng":"-81.60985","geonameId":5150557,"toponymName":"Cleveland Institute of Art","countryId":"6252001","fcl":"S","population":0,"countryCode":"US","name":"Cleveland Institute of Art","fclName":"spot, building, farm","adminCodes1":{"ISO3166_2":"OH"},"countryName":"United States","fcodeName":"school","adminName1":"Ohio","lat":"41.50922","fcode":"SCH"},{"adminCode1":"IN","lng":"-85.11775","geonameId":4921855,"toponymName":"Indiana Institute of Technology","countryId":"6252001","fcl":"S","population":0,"countryCode":"US","name":"Indiana Institute of Technology","fclName":"spot, building, farm","adminCodes1":{"ISO3166_2":"IN"},"countryName":"United States","fcodeName":"school","adminName1":"Indiana","lat":"41.07644","fcode":"SCH"},{"adminCode1":"MO","lng":"-94.58289","geonameId":4375135,"toponymName":"Kansas City Art Institute","countryId":"6252001","fcl":"S","population":0,"countryCode":"US","name":"Kansas City Art Institute","fclName":"spot, building, farm","adminCodes1":{"ISO3166_2":"MO"},"countryName":"United States","fcodeName":"school","adminName1":"Missouri","lat":"39.04695","fcode":"SCH"},{"adminCode1":"CA","lng":"-121.897","geonameId":5374401,"toponymName":"Middlebury Institute of International Studies at Monterey","countryId":"6252001","fcl":"S","population":0,"countryCode":"US","name":"Middlebury Institute of International Studies at Monterey","fclName":"spot, building, farm","adminCodes1":{"ISO3166_2":"CA"},"countryName":"United States","fcodeName":"school","adminName1":"California","lat":"36.5993","fcode":"SCH"},{"adminCode1":"CA","lng":"-122.27272","geonameId":5368167,"toponymName":"Oakland Military Institute","countryId":"6252001","fcl":"S","population":0,"countryCode":"US","name":"Oakland Military Institute","fclName":"spot, building, farm","adminCodes1":{"ISO3166_2":"CA"},"countryName":"United States","fcodeName":"school","adminName1":"California","lat":"37.82953","fcode":"SCH"},{"adminCode1":"CA","lng":"-118.71426","geonameId":5330529,"toponymName":"Brandeis-Bardin Institute","countryId":"6252001","fcl":"S","population":0,"countryCode":"US","name":"Brandeis-Barden Institute","fclName":"spot, building, farm","adminCodes1":{"ISO3166_2":"CA"},"countryName":"United States","fcodeName":"school","adminName1":"California","lat":"34.25973","fcode":"SCH"},{"adminCode1":"DC","lng":"-77.04942","geonameId":4137513,"toponymName":"American Pharmaceutical Institute","countryId":"6252001","fcl":"S","population":0,"countryCode":"US","name":"American Pharmaceutical Institute","fclName":"spot, building, farm","adminCodes1":{"ISO3166_2":"DC"},"countryName":"United States","fcodeName":"building(s)","adminName1":"Washington, D.C.","lat":"38.89289","fcode":"BLDG"},{"adminCode1":"DC","lng":"-77.04148","geonameId":4139873,"toponymName":"Octagon House","countryId":"6252001","fcl":"S","population":0,"countryCode":"US","name":"Octagon House","fclName":"spot, building, farm","adminCodes1":{"ISO3166_2":"DC"},"countryName":"United States","fcodeName":"building(s)","adminName1":"Washington, D.C.","lat":"38.89643","fcode":"BLDG"},{"adminCode1":"FL","lng":"-81.94619","geonameId":4155738,"toponymName":"Florida Southern College","countryId":"6252001","fcl":"S","population":0,"countryCode":"US","name":"Florida Southern College","fclName":"spot, building, farm","adminCodes1":{"ISO3166_2":"FL"},"countryName":"United States","fcodeName":"school","adminName1":"Florida","lat":"28.03141","fcode":"SCH"},{"adminCode1":"AL","lng":"-86.57223","geonameId":4829694,"toponymName":"Alabama Agricultural and Mechanical University","countryId":"6252001","fcl":"S","population":0,"countryCode":"US","name":"Alabama Agricultural and Mechanical University","fclName":"spot, building, farm","adminCodes1":{"ISO3166_2":"AL"},"countryName":"United States","fcodeName":"school","adminName1":"Alabama","lat":"34.78419","fcode":"SCH"},{"adminCode1":"NY","lng":"-78.02222","geonameId":7309445,"toponymName":"Silver Lake Institute Historic District","countryId":"6252001","fcl":"L","population":0,"countryCode":"US","name":"Silver Lake Institute Historic District","fclName":"parks,area, ...","adminCodes1":{"ISO3166_2":"NY"},"countryName":"United States","fcodeName":"park","adminName1":"New York","lat":"42.69889","fcode":"PRK"},{"adminCode1":"NY","lng":"-73.9643","geonameId":5132216,"toponymName":"Pratt Institute","countryId":"6252001","fcl":"S","population":0,"countryCode":"US","name":"Pratt Institute","fclName":"spot, building, farm","adminCodes1":{"ISO3166_2":"NY"},"countryName":"United States","fcodeName":"school","adminName1":"New York","lat":"40.69066","fcode":"SCH"},{"adminCode1":"NY","lng":"-73.68095","geonameId":5133672,"toponymName":"Rensselaer Polytechnic Institute","countryId":"6252001","fcl":"S","population":0,"countryCode":"US","name":"Rensselaer Polytechnic Institute","fclName":"spot, building, farm","adminCodes1":{"ISO3166_2":"NY"},"countryName":"United States","fcodeName":"school","adminName1":"New York","lat":"42.73258","fcode":"SCH"},{"adminCode1":"OH","lng":"-84.17827","geonameId":4526983,"toponymName":"University of Dayton","countryId":"6252001","fcl":"S","population":0,"countryCode":"US","name":"University of Dayton","fclName":"spot, building, farm","adminCodes1":{"ISO3166_2":"OH"},"countryName":"United States","fcodeName":"school","adminName1":"Ohio","lat":"39.73978","fcode":"SCH"},{"adminCode1":"LA","lng":"-92.01941","geonameId":4344369,"toponymName":"University of Louisiana at Lafayette","countryId":"6252001","fcl":"S","population":0,"countryCode":"US","name":"University of Louisiana at Lafayette","fclName":"spot, building, farm","adminCodes1":{"ISO3166_2":"LA"},"countryName":"United States","fcodeName":"school","adminName1":"Louisiana","lat":"30.21528","fcode":"SCH"},{"adminCode1":"OR","lng":"-121.7862","geonameId":5744284,"toponymName":"Oregon Institute of Technology","countryId":"6252001","fcl":"S","population":0,"countryCode":"US","name":"Oregon Institute of Technology","fclName":"spot, building, farm","adminCodes1":{"ISO3166_2":"OR"},"countryName":"United States","fcodeName":"school","adminName1":"Oregon","lat":"42.25626","fcode":"SCH"},{"adminCode1":"AK","lng":"-149.82627","geonameId":5879093,"toponymName":"Alaska Psychiatric Institute","countryId":"6252001","fcl":"S","population":0,"countryCode":"US","name":"Alaska Psychiatric Institute","fclName":"spot, building, farm","adminCodes1":{"ISO3166_2":"AK"},"countryName":"United States","fcodeName":"hospital","adminName1":"Alaska","lat":"61.18585","fcode":"HSP"},{"adminCode1":"FL","lng":"-82.11611","geonameId":6329839,"toponymName":"Marion Technical Institute","countryId":"6252001","fcl":"S","population":0,"countryCode":"US","name":"Marion Technical Institute","fclName":"spot, building, farm","adminCodes1":{"ISO3166_2":"FL"},"countryName":"United States","fcodeName":"school","adminName1":"Florida","lat":"29.18472","fcode":"SCH"},{"adminCode1":"MI","lng":"-83.3391","geonameId":7145708,"toponymName":"Michigan Jewish Institute","countryId":"6252001","fcl":"S","population":0,"countryCode":"US","name":"Michigan Jewish Institute","fclName":"spot, building, farm","adminCodes1":{"ISO3166_2":"MI"},"countryName":"United States","fcodeName":"school","adminName1":"Michigan","lat":"42.5062","fcode":"SCH"},{"adminCode1":"CA","lng":"-122.41619","geonameId":7156470,"toponymName":"California Institute of Integral Studies","countryId":"6252001","fcl":"S","population":0,"countryCode":"US","name":"California Institute of Integral Studies","fclName":"spot, building, farm","adminCodes1":{"ISO3166_2":"CA"},"countryName":"United States","fcodeName":"school","adminName1":"California","lat":"37.77462","fcode":"SCH"},{"adminCode1":"FL","lng":"-81.19973","geonameId":7192092,"toponymName":"University of Central Florida Orlando Campus Institute for Simulation and Training","countryId":"6252001","fcl":"S","population":0,"countryCode":"US","name":"University of Central Florida Orlando Campus Institute for Simulation and Training","fclName":"spot, building, farm","adminCodes1":{"ISO3166_2":"FL"},"countryName":"United States","fcodeName":"university","adminName1":"Florida","lat":"28.58951","fcode":"UNIV"},{"adminCode1":"AZ","lng":"-112.06622","geonameId":7204766,"toponymName":"Metropolitan Arts Institute","countryId":"6252001","fcl":"S","population":0,"countryCode":"US","name":"Metropolitan Arts Institute","fclName":"spot, building, farm","adminCodes1":{"ISO3166_2":"AZ"},"countryName":"United States","fcodeName":"school","adminName1":"Arizona","lat":"33.45191","fcode":"SCH"},{"adminCode1":"MD","lng":"-76.89037","geonameId":7136057,"toponymName":"Tai Sophia Institute","countryId":"6252001","fcl":"S","population":0,"countryCode":"US","name":"Tai Sophia Institute","fclName":"spot, building, farm","adminCodes1":{"ISO3166_2":"MD"},"countryName":"United States","fcodeName":"school","adminName1":"Maryland","lat":"39.16269","fcode":"SCH"},{"adminCode1":"AZ","lng":"-112.10648","geonameId":7236940,"toponymName":"The Art Institute of Phoenix","countryId":"6252001","fcl":"S","population":0,"countryCode":"US","name":"The Art Institute of Phoenix","fclName":"spot, building, farm","adminCodes1":{"ISO3166_2":"AZ"},"countryName":"United States","fcodeName":"school","adminName1":"Arizona","lat":"33.56703","fcode":"SCH"}]}
