{"totalResultsCount":139,"geonames":[{"adminCode1":"OH","lng":"-82.68294","geonameId":4515247,"toponymName":"Ironton","countryId":"6252001","fcl":"P","population":10900,"countryCode":"US","name":"Ironton","fclName":"city, village,...","adminCodes1":{"ISO3166_2":"OH"},"countryName":"United States","fcodeName":"seat of a second-order administrative division","adminName1":"Ohio","lat":"38.53675","fcode":"PPLA2"},{"adminCode1":"MN","lng":"-93.97776","geonameId":5031459,"toponymName":"Ironton","countryId":"6252001","fcl":"P","population":561,"countryCode":"US","name":"Ironton","fclName":"city, village,...","adminCodes1":{"ISO3166_2":"MN"},"countryName":"United States","fcodeName":"populated place","adminName1":"Minnesota","lat":"46.47746","fcode":"PPL"},{"adminCode1":"MO","lng":"-90.62734","geonameId":4392057,"toponymName":"Ironton","countryId":"6252001","fcl":"P","population":1392,"countryCode":"US","name":"Ironton","fclName":"city, village,...","adminCodes1":{"ISO3166_2":"MO"},"countryName":"United States","fcodeName":"seat of a second-order administrative division","adminName1":"Missouri","lat":"37.59727","fcode":"PPLA2"},{"adminCode1":"WI","lng":"-90.14124","geonameId":5257567,"toponymName":"Ironton","countryId":"6252001","fcl":"P","population":256,"countryCode":"US","name":"Ironton","fclName":"city, village,...","adminCodes1":{"ISO3166_2":"WI"},"countryName":"United States","fcodeName":"populated place","adminName1":"Wisconsin","lat":"43.54609","fcode":"PPL"},{"adminCode1":"WI","lng":"-90.1437","geonameId":5257563,"toponymName":"Village of Ironton","countryId":"6252001","fcl":"A","population":253,"countryCode":"US","name":"Village of Ironton","fclName":"country, state, region,...","adminCodes1":{"ISO3166_2":"WI"},"countryName":"United States","fcodeName":"third-order administrative division","adminName1":"Wisconsin","lat":"43.54531","fcode":"ADM3"},{"adminCode1":"TX","lng":"-95.37356","geonameId":4700164,"toponymName":"Ironton","countryId":"6252001","fcl":"P","population":0,"countryCode":"US","name":"Ironton","fclName":"city, village,...","adminCodes1":{"ISO3166_2":"TX"},"countryName":"United States","fcodeName":"populated place","adminName1":"Texas","lat":"31.91906","fcode":"PPL"},{"adminCode1":"AR","lng":"-92.27737","geonameId":4116126,"toponymName":"Ironton","countryId":"6252001","fcl":"P","population":0,"countryCode":"US","name":"Ironton","fclName":"city, village,...","adminCodes1":{"ISO3166_2":"AR"},"countryName":"United States","fcodeName":"populated place","adminName1":"Arkansas","lat":"34.63204","fcode":"PPL"},{"adminCode1":"IN","lng":"-86.77528","geonameId":4259522,"toponymName":"Ironton","countryId":"6252001","fcl":"P","population":0,"countryCode":"US","name":"Ironton","fclName":"city, village,...","adminCodes1":{"ISO3166_2":"IN"},"countryName":"United States","fcodeName":"populated place","adminName1":"Indiana","lat":"38.66227","fcode":"PPL"},{"adminCode1":"CO","lng":"-107.68034","geonameId":5426228,"toponymName":"Ironton","countryId":"6252001","fcl":"P","population":0,"countryCode":"US","name":"Ironton","fclName":"city, village,...","adminCodes1":{"ISO3166_2":"CO"},"countryName":"United States","fcodeName":"populated place","adminName1":"Colorado","lat":"37.93277","fcode":"PPL"},{"adminCode1":"MI","lng":"-85.18673","geonameId":4997247,"toponymName":"Ironton","countryId":"6252001","fcl":"P","population":140,"countryCode":"US","name":"Ironton","fclName":"city, village,...","adminCodes1":{"ISO3166_2":"MI"},"countryName":"United States","fcodeName":"populated place","adminName1":"Michigan","lat":"45.25612","fcode":"PPL"},{"adminCode1":"WI","lng":"-90.1321","geonameId":5257562,"toponymName":"Town of Ironton","countryId":"6252001","fcl":"A","population":679,"countryCode":"US","name":"Town of Ironton","fclName":"country, state, region,...","adminCodes1":{"ISO3166_2":"WI"},"countryName":"United States","fcodeName":"third-order administrative division","adminName1":"Wisconsin","lat":"43.51155","fcode":"ADM3"},{"adminCode1":"LA","lng":"-89.96146","geonameId":4328700,"toponymName":"Ironton","countryId":"6252001","fcl":"P","population":0,"countryCode":"US","name":"Ironton","fclName":"city, village,...","adminCodes1":{"ISO3166_2":"LA"},"countryName":"United States","fcodeName":"populated place","adminName1":"Louisiana","lat":"29.64882","fcode":"PPL"},{"adminCode1":"PA","lng":"-75.56769","geonameId":5194997,"toponymName":"Ironton","countryId":"6252001","fcl":"P","population":0,"countryCode":"US","name":"Ironton","fclName":"city, village,...","adminCodes1":{"ISO3166_2":"PA"},"countryName":"United States","fcodeName":"populated place","adminName1":"Pennsylvania","lat":"40.6701","fcode":"PPL"},{"adminCode1":"NC","lng":"-81.15619","geonameId":4472787,"toponymName":"Iron Station","countryId":"6252001","fcl":"P","population":755,"countryCode":"US","name":"Iron Station","fclName":"city, village,...","adminCodes1":{"ISO3166_2":"NC"},"countryName":"United States","fcodeName":"populated place","adminName1":"North Carolina","lat":"35.44152","fcode":"PPL"},{"adminCode1":"MO","lng":"-90.6282","geonameId":7163935,"toponymName":"City of Ironton","countryId":"6252001","fcl":"A","population":1460,"countryCode":"US","name":"City of Ironton","fclName":"country, state, region,...","adminCodes1":{"ISO3166_2":"MO"},"countryName":"United States","fcodeName":"administrative division","adminName1":"Missouri","lat":"37.601","fcode":"ADMD"},{"adminCode1":"NC","lng":"-81.14612","geonameId":4472798,"toponymName":"Township of Ironton","countryId":"6252001","fcl":"A","population":0,"countryCode":"US","name":"Ironton Township","fclName":"country, state, region,...","adminCodes1":{"ISO3166_2":"NC"},"countryName":"United States","fcodeName":"third-order administrative division","adminName1":"North Carolina","lat":"35.48021","fcode":"ADM3"},{"adminCode1":"MN","lng":"-93.99667","geonameId":5031462,"toponymName":"City of Ironton","countryId":"6252001","fcl":"A","population":0,"countryCode":"US","name":"City of Ironton","fclName":"country, state, region,...","adminCodes1":{"ISO3166_2":"MN"},"countryName":"United States","fcodeName":"third-order administrative division","adminName1":"Minnesota","lat":"46.48083","fcode":"ADM3"},{"adminCode1":"NC","lng":"-81.16261","geonameId":4475970,"toponymName":"Lincolnton-Lincoln County Regional Airport","countryId":"6252001","fcl":"S","population":0,"countryCode":"US","name":"Lincolnton-Lincoln County Regional Airport","fclName":"spot, building, farm","adminCodes1":{"ISO3166_2":"NC"},"countryName":"United States","fcodeName":"airport","adminName1":"North Carolina","lat":"35.48439","fcode":"AIRP"},{"adminCode1":"MN","lng":"-93.97694","geonameId":6341109,"toponymName":"Ironton City Hall","countryId":"6252001","fcl":"S","population":0,"countryCode":"US","name":"Ironton City Hall","fclName":"spot, building, farm","adminCodes1":{"ISO3166_2":"MN"},"countryName":"United States","fcodeName":"building(s)","adminName1":"Minnesota","lat":"46.47611","fcode":"BLDG"},{"adminCode1":"NC","lng":"-81.21341","geonameId":4456560,"toponymName":"Boger City","countryId":"6252001","fcl":"P","population":593,"countryCode":"US","name":"Boger City","fclName":"city, village,...","adminCodes1":{"ISO3166_2":"NC"},"countryName":"United States","fcodeName":"populated place","adminName1":"North Carolina","lat":"35.48069","fcode":"PPL"},{"adminCode1":"OH","lng":"-82.66961","geonameId":4515250,"toponymName":"Ironton High School","countryId":"6252001","fcl":"S","population":0,"countryCode":"US","name":"Ironton High School","fclName":"spot, building, farm","adminCodes1":{"ISO3166_2":"OH"},"countryName":"United States","fcodeName":"school","adminName1":"Ohio","lat":"38.52452","fcode":"SCH"},{"adminCode1":"CO","lng":"-107.66728","geonameId":5426229,"toponymName":"Ironton Park","countryId":"6252001","fcl":"T","population":0,"countryCode":"US","name":"Ironton Park","fclName":"mountain,hill,rock,... ","adminCodes1":{"ISO3166_2":"CO"},"countryName":"United States","fcodeName":"plain(s)","adminName1":"Colorado","lat":"37.95055","fcode":"PLN"},{"adminCode1":"WI","lng":"-90.13556","geonameId":5257564,"toponymName":"Ironton - La Valle Elementary School","countryId":"6252001","fcl":"S","population":0,"countryCode":"US","name":"Ironton - La Valle Elementary School","fclName":"spot, building, farm","adminCodes1":{"ISO3166_2":"WI"},"countryName":"United States","fcodeName":"school","adminName1":"Wisconsin","lat":"43.578","fcode":"SCH"},{"adminCode1":"NC","lng":"-81.16139","geonameId":6298460,"toponymName":"Lincolnton, Lincolnton-Lincoln County Regional Airport","countryId":"6252001","fcl":"S","population":0,"countryCode":"US","name":"Lincolnton, Lincolnton-Lincoln County Regional Airport","fclName":"spot, building, farm","adminCodes1":{"ISO3166_2":"NC"},"countryName":"United States","fcodeName":"airport","adminName1":"North Carolina","lat":"35.48306","fcode":"AIRP"},{"adminCode1":"WI","lng":"-90.19061","geonameId":5278696,"toponymName":"Weston High School","countryId":"6252001","fcl":"S","population":0,"countryCode":"US","name":"Weston High School","fclName":"spot, building, farm","adminCodes1":{"ISO3166_2":"WI"},"countryName":"United States","fcodeName":"school","adminName1":"Wisconsin","lat":"43.48025","fcode":"SCH"},{"adminCode1":"UT","lng":"-111.61825","geonameId":5776364,"toponymName":"Ironton","countryId":"6252001","fcl":"P","population":0,"countryCode":"US","name":"Ironton","fclName":"city, village,...","adminCodes1":{"ISO3166_2":"UT"},"countryName":"United States","fcodeName":"populated place","adminName1":"Utah","lat":"40.19857","fcode":"PPL"},{"adminCode1":"OH","lng":"-82.55683","geonameId":4515251,"toponymName":"Ironton Junction","countryId":"6252001","fcl":"P","population":0,"countryCode":"US","name":"Ironton Junction","fclName":"city, village,...","adminCodes1":{"ISO3166_2":"OH"},"countryName":"United States","fcodeName":"populated place","adminName1":"Ohio","lat":"39.09646","fcode":"PPL"},{"adminCode1":"MO","lng":"-90.60234","geonameId":4392058,"toponymName":"Ironton Hollow","countryId":"6252001","fcl":"T","population":0,"countryCode":"US","name":"Ironton Hollow","fclName":"mountain,hill,rock,... ","adminCodes1":{"ISO3166_2":"MO"},"countryName":"United States","fcodeName":"valley","adminName1":"Missouri","lat":"37.60227","fcode":"VAL"},{"adminCode1":"MO","lng":"-91.05485","geonameId":4392067,"toponymName":"Ironton Ridge","countryId":"6252001","fcl":"T","population":0,"countryCode":"US","name":"Ironton Ridge","fclName":"mountain,hill,rock,... ","adminCodes1":{"ISO3166_2":"MO"},"countryName":"United States","fcodeName":"ridge(s)","adminName1":"Missouri","lat":"37.52866","fcode":"RDGE"},{"adminCode1":"NC","lng":"-81.14119","geonameId":4486727,"toponymName":"Pumpkin Center","countryId":"6252001","fcl":"P","population":2107,"countryCode":"US","name":"Pumpkin Center","fclName":"city, village,...","adminCodes1":{"ISO3166_2":"NC"},"countryName":"United States","fcodeName":"populated place","adminName1":"North Carolina","lat":"35.5193","fcode":"PPL"},{"adminCode1":"CA","lng":"-119.59903","geonameId":5359771,"toponymName":"Ironton Flats","countryId":"6252001","fcl":"T","population":0,"countryCode":"US","name":"Ironton Flats","fclName":"mountain,hill,rock,... ","adminCodes1":{"ISO3166_2":"CA"},"countryName":"United States","fcodeName":"plain(s)","adminName1":"California","lat":"37.15939","fcode":"PLN"},{"adminCode1":"AL","lng":"-86.85944","geonameId":4081949,"toponymName":"Oxmoor","countryId":"6252001","fcl":"P","population":0,"countryCode":"US","name":"Oxmoor","fclName":"city, village,...","adminCodes1":{"ISO3166_2":"AL"},"countryName":"United States","fcodeName":"populated place","adminName1":"Alabama","lat":"33.43289","fcode":"PPL"},{"adminCode1":"OH","lng":"-82.68181","geonameId":7245486,"toponymName":"Ironton Fire Department","countryId":"6252001","fcl":"S","population":0,"countryCode":"US","name":"Ironton Fire Department","fclName":"spot, building, farm","adminCodes1":{"ISO3166_2":"OH"},"countryName":"United States","fcodeName":"building(s)","adminName1":"Ohio","lat":"38.53214","fcode":"BLDG"},{"adminCode1":"OH","lng":"-82.70683","geonameId":4515252,"toponymName":"Ironton Middle School","countryId":"6252001","fcl":"S","population":0,"countryCode":"US","name":"Ironton Middle School","fclName":"spot, building, farm","adminCodes1":{"ISO3166_2":"OH"},"countryName":"United States","fcodeName":"school","adminName1":"Ohio","lat":"38.55202","fcode":"SCH"},{"adminCode1":"NY","lng":"-74.68546","geonameId":5122343,"toponymName":"Ironton","countryId":"6252001","fcl":"P","population":0,"countryCode":"US","name":"Ironton","fclName":"city, village,...","adminCodes1":{"ISO3166_2":"NY"},"countryName":"United States","fcodeName":"populated place","adminName1":"New York","lat":"44.89838","fcode":"PPL"},{"adminCode1":"MN","lng":"-93.95222","geonameId":6341112,"toponymName":"Crosby-Ironton Police Department","countryId":"6252001","fcl":"S","population":0,"countryCode":"US","name":"Crosby-Ironton Police Department","fclName":"spot, building, farm","adminCodes1":{"ISO3166_2":"MN"},"countryName":"United States","fcodeName":"building(s)","adminName1":"Minnesota","lat":"46.48","fcode":"BLDG"},{"adminCode1":"NC","lng":"-81.11313","geonameId":4487591,"toponymName":"Reese Mountain","countryId":"6252001","fcl":"T","population":0,"countryCode":"US","name":"Reese Mountain","fclName":"mountain,hill,rock,... ","adminCodes1":{"ISO3166_2":"NC"},"countryName":"United States","fcodeName":"mountain","adminName1":"North Carolina","lat":"35.42791","fcode":"MT"},{"adminCode1":"NC","lng":"-81.12286","geonameId":4487628,"toponymName":"Rehobeth Furnace (historical)","countryId":"6252001","fcl":"S","population":0,"countryCode":"US","name":"Rehobeth Furnace (historical)","fclName":"spot, building, farm","adminCodes1":{"ISO3166_2":"NC"},"countryName":"United States","fcodeName":"building(s)","adminName1":"North Carolina","lat":"35.4718","fcode":"BLDG"},{"adminCode1":"NC","lng":"-81.19536","geonameId":4489917,"toponymName":"Salem","countryId":"6252001","fcl":"P","population":0,"countryCode":"US","name":"Salem","fclName":"city, village,...","adminCodes1":{"ISO3166_2":"NC"},"countryName":"United States","fcodeName":"populated place","adminName1":"North Carolina","lat":"35.43402","fcode":"PPL"},{"adminCode1":"NC","lng":"-81.11786","geonameId":4459117,"toponymName":"Cansellers","countryId":"6252001","fcl":"P","population":0,"countryCode":"US","name":"Cansellers","fclName":"city, village,...","adminCodes1":{"ISO3166_2":"NC"},"countryName":"United States","fcodeName":"populated place","adminName1":"North Carolina","lat":"35.46986","fcode":"PPL"},{"adminCode1":"NC","lng":"-81.20619","geonameId":4468312,"toponymName":"Goodsonville","countryId":"6252001","fcl":"P","population":0,"countryCode":"US","name":"Goodsonville","fclName":"city, village,...","adminCodes1":{"ISO3166_2":"NC"},"countryName":"United States","fcodeName":"populated place","adminName1":"North Carolina","lat":"35.48041","fcode":"PPL"},{"adminCode1":"OH","lng":"-82.4971","geonameId":4527783,"toponymName":"Wayne National Forest - Ironton Ranger District","countryId":"6252001","fcl":"V","population":0,"countryCode":"US","name":"Wayne National Forest - Ironton Ranger District","fclName":"forest,heath,...","adminCodes1":{"ISO3166_2":"OH"},"countryName":"United States","fcodeName":"forest(s)","adminName1":"Ohio","lat":"38.68758","fcode":"FRST"},{"adminCode1":"PA","lng":"-75.5638","geonameId":5194998,"toponymName":"Ironton Elementary School","countryId":"6252001","fcl":"S","population":0,"countryCode":"US","name":"Ironton Elementary School","fclName":"spot, building, farm","adminCodes1":{"ISO3166_2":"PA"},"countryName":"United States","fcodeName":"school","adminName1":"Pennsylvania","lat":"40.66537","fcode":"SCH"},{"adminCode1":"LA","lng":"-89.96532","geonameId":9858392,"toponymName":"Ironton Plantation (historical)","countryId":"6252001","fcl":"V","population":0,"countryCode":"US","name":"Ironton Plantation (historical)","fclName":"forest,heath,...","adminCodes1":{"ISO3166_2":"LA"},"countryName":"United States","fcodeName":"cultivated area","adminName1":"Louisiana","lat":"29.64905","fcode":"CULT"},{"adminCode1":"NC","lng":"-81.20367","geonameId":4475972,"toponymName":"Carolinas Medical Center Lincoln","countryId":"6252001","fcl":"S","population":0,"countryCode":"US","name":"Carolinas Medical Center Lincoln","fclName":"spot, building, farm","adminCodes1":{"ISO3166_2":"NC"},"countryName":"United States","fcodeName":"hospital","adminName1":"North Carolina","lat":"35.48978","fcode":"HSP"},{"adminCode1":"NC","lng":"-81.19925","geonameId":4471701,"toponymName":"Holy Cross Church","countryId":"6252001","fcl":"S","population":0,"countryCode":"US","name":"Holy Cross Church","fclName":"spot, building, farm","adminCodes1":{"ISO3166_2":"NC"},"countryName":"United States","fcodeName":"church","adminName1":"North Carolina","lat":"35.48958","fcode":"CH"},{"adminCode1":"NC","lng":"-81.20841","geonameId":4452995,"toponymName":"Asbury Elementary School","countryId":"6252001","fcl":"S","population":0,"countryCode":"US","name":"Asbury Elementary School","fclName":"spot, building, farm","adminCodes1":{"ISO3166_2":"NC"},"countryName":"United States","fcodeName":"school","adminName1":"North Carolina","lat":"35.47736","fcode":"SCH"},{"adminCode1":"NC","lng":"-81.20175","geonameId":4454074,"toponymName":"Beals Chapel","countryId":"6252001","fcl":"S","population":0,"countryCode":"US","name":"Beals Chapel","fclName":"spot, building, farm","adminCodes1":{"ISO3166_2":"NC"},"countryName":"United States","fcodeName":"church","adminName1":"North Carolina","lat":"35.48236","fcode":"CH"},{"adminCode1":"MN","lng":"-93.97778","geonameId":6352058,"toponymName":"Ironton (historical)","countryId":"6252001","fcl":"S","population":0,"countryCode":"US","name":"Ironton (historical)","fclName":"spot, building, farm","adminCodes1":{"ISO3166_2":"MN"},"countryName":"United States","fcodeName":"","adminName1":"Minnesota","lat":"46.47861"},{"adminCode1":"MN","lng":"-93.97611","geonameId":6350094,"toponymName":"Ironton Post Office","countryId":"6252001","fcl":"S","population":0,"countryCode":"US","name":"Ironton Post Office","fclName":"spot, building, farm","adminCodes1":{"ISO3166_2":"MN"},"countryName":"United States","fcodeName":"post office","adminName1":"Minnesota","lat":"46.47778","fcode":"PO"},{"adminCode1":"MN","lng":"-93.97665","geonameId":5031484,"toponymName":"Ironton School","countryId":"6252001","fcl":"S","population":0,"countryCode":"US","name":"Ironton School","fclName":"spot, building, farm","adminCodes1":{"ISO3166_2":"MN"},"countryName":"United States","fcodeName":"school","adminName1":"Minnesota","lat":"46.47496","fcode":"SCH"},{"adminCode1":"MN","lng":"-93.97714","geonameId":8106903,"toponymName":"Ironton Fire Department","countryId":"6252001","fcl":"S","population":0,"countryCode":"US","name":"Ironton Fire Department","fclName":"spot, building, farm","adminCodes1":{"ISO3166_2":"MN"},"countryName":"United States","fcodeName":"building(s)","adminName1":"Minnesota","lat":"46.4788","fcode":"BLDG"},{"adminCode1":"MT","lng":"-112.90921","geonameId":5659164,"toponymName":"Ironton (historical)","countryId":"6252001","fcl":"S","population":0,"countryCode":"US","name":"Ironton (historical)","fclName":"spot, building, farm","adminCodes1":{"ISO3166_2":"MT"},"countryName":"United States","fcodeName":"","adminName1":"Montana","lat":"46.12076"},{"adminCode1":"MI","lng":"-85.18639","geonameId":7154201,"toponymName":"Ironton Post Office (historical)","countryId":"6252001","fcl":"S","population":0,"countryCode":"US","name":"Ironton Post Office (historical)","fclName":"spot, building, farm","adminCodes1":{"ISO3166_2":"MI"},"countryName":"United States","fcodeName":"post office","adminName1":"Michigan","lat":"45.25611","fcode":"PO"},{"adminCode1":"MI","lng":"-85.19028","geonameId":7155097,"toponymName":"Ironton Congregational Church","countryId":"6252001","fcl":"S","population":0,"countryCode":"US","name":"Ironton Congregational Church","fclName":"spot, building, farm","adminCodes1":{"ISO3166_2":"MI"},"countryName":"United States","fcodeName":"church","adminName1":"Michigan","lat":"45.25917","fcode":"CH"},{"adminCode1":"OH","lng":"-82.6652","geonameId":7246103,"toponymName":"Southeast Ohio Emergency Medical Services Station 11 Ironton","countryId":"6252001","fcl":"S","population":0,"countryCode":"US","name":"Southeast Ohio Emergency Medical Services Station 11 Ironton","fclName":"spot, building, farm","adminCodes1":{"ISO3166_2":"OH"},"countryName":"United States","fcodeName":"building(s)","adminName1":"Ohio","lat":"38.5191","fcode":"BLDG"},{"adminCode1":"OH","lng":"-82.66361","geonameId":7246269,"toponymName":"Patriot Emergency Medical Services Ironton Station","countryId":"6252001","fcl":"S","population":0,"countryCode":"US","name":"Patriot Emergency Medical Services Ironton Station","fclName":"spot, building, farm","adminCodes1":{"ISO3166_2":"OH"},"countryName":"United States","fcodeName":"building(s)","adminName1":"Ohio","lat":"38.50994","fcode":"BLDG"},{"adminCode1":"LA","lng":"-89.96063","geonameId":4328701,"toponymName":"Ironton Cemetery","countryId":"6252001","fcl":"S","population":0,"countryCode":"US","name":"Ironton Cemetery","fclName":"spot, building, farm","adminCodes1":{"ISO3166_2":"LA"},"countryName":"United States","fcodeName":"cemetery","adminName1":"Louisiana","lat":"29.64716","fcode":"CMTY"},{"adminCode1":"OH","lng":"-82.68266","geonameId":4511715,"toponymName":"First Baptist Church of Ironton","countryId":"6252001","fcl":"S","population":0,"countryCode":"US","name":"First Baptist Church of Ironton","fclName":"spot, building, farm","adminCodes1":{"ISO3166_2":"OH"},"countryName":"United States","fcodeName":"church","adminName1":"Ohio","lat":"38.53452","fcode":"CH"},{"adminCode1":"OH","lng":"-82.68544","geonameId":4515248,"toponymName":"Ironton City Hall","countryId":"6252001","fcl":"S","population":0,"countryCode":"US","name":"Ironton City Hall","fclName":"spot, building, farm","adminCodes1":{"ISO3166_2":"OH"},"countryName":"United States","fcodeName":"building(s)","adminName1":"Ohio","lat":"38.5373","fcode":"BLDG"},{"adminCode1":"OH","lng":"-82.73433","geonameId":4515249,"toponymName":"Ironton Country Club","countryId":"6252001","fcl":"S","population":0,"countryCode":"US","name":"Ironton Country Club","fclName":"spot, building, farm","adminCodes1":{"ISO3166_2":"OH"},"countryName":"United States","fcodeName":"resort","adminName1":"Ohio","lat":"38.61647","fcode":"RSRT"},{"adminCode1":"OH","lng":"-82.68294","geonameId":4515253,"toponymName":"Ironton Post Office","countryId":"6252001","fcl":"S","population":0,"countryCode":"US","name":"Ironton Post Office","fclName":"spot, building, farm","adminCodes1":{"ISO3166_2":"OH"},"countryName":"United States","fcodeName":"post office","adminName1":"Ohio","lat":"38.53647","fcode":"PO"},{"adminCode1":"OH","lng":"-82.67127","geonameId":4527353,"toponymName":"WIRO-AM (Ironton)","countryId":"6252001","fcl":"S","population":0,"countryCode":"US","name":"WIRO-AM (Ironton)","fclName":"spot, building, farm","adminCodes1":{"ISO3166_2":"OH"},"countryName":"United States","fcodeName":"tower","adminName1":"Ohio","lat":"38.53952","fcode":"TOWR"},{"adminCode1":"OH","lng":"-82.67127","geonameId":4527384,"toponymName":"WMLV-FM (Ironton)","countryId":"6252001","fcl":"S","population":0,"countryCode":"US","name":"WMLV-FM (Ironton)","fclName":"spot, building, farm","adminCodes1":{"ISO3166_2":"OH"},"countryName":"United States","fcodeName":"tower","adminName1":"Ohio","lat":"38.53952","fcode":"TOWR"},{"adminCode1":"OH","lng":"-82.65544","geonameId":4527408,"toponymName":"WOUL-FM (Ironton)","countryId":"6252001","fcl":"S","population":0,"countryCode":"US","name":"WOUL-FM (Ironton)","fclName":"spot, building, farm","adminCodes1":{"ISO3166_2":"OH"},"countryName":"United States","fcodeName":"tower","adminName1":"Ohio","lat":"38.52314","fcode":"TOWR"},{"adminCode1":"OH","lng":"-82.69489","geonameId":4528014,"toponymName":"West Ironton Elementary School","countryId":"6252001","fcl":"S","population":0,"countryCode":"US","name":"West Ironton Elementary School","fclName":"spot, building, farm","adminCodes1":{"ISO3166_2":"OH"},"countryName":"United States","fcodeName":"school","adminName1":"Ohio","lat":"38.5448","fcode":"SCH"},{"adminCode1":"MO","lng":"-90.69318","geonameId":4393166,"toponymName":"KYLS-FM (Ironton)","countryId":"6252001","fcl":"S","population":0,"countryCode":"US","name":"KYLS-FM (Ironton)","fclName":"spot, building, farm","adminCodes1":{"ISO3166_2":"MO"},"countryName":"United States","fcodeName":"tower","adminName1":"Missouri","lat":"37.5731","fcode":"TOWR"},{"adminCode1":"AR","lng":"-92.27821","geonameId":4116127,"toponymName":"Ironton Baptist Church","countryId":"6252001","fcl":"S","population":0,"countryCode":"US","name":"Ironton Baptist Church","fclName":"spot, building, farm","adminCodes1":{"ISO3166_2":"AR"},"countryName":"United States","fcodeName":"church","adminName1":"Arkansas","lat":"34.63204","fcode":"CH"},{"adminCode1":"AR","lng":"-92.28293","geonameId":4116128,"toponymName":"Ironton Church","countryId":"6252001","fcl":"S","population":0,"countryCode":"US","name":"Ironton Church","fclName":"spot, building, farm","adminCodes1":{"ISO3166_2":"AR"},"countryName":"United States","fcodeName":"church","adminName1":"Arkansas","lat":"34.61093","fcode":"CH"},{"adminCode1":"MN","lng":"-94.04888","geonameId":5031460,"toponymName":"Ironton Creek","countryId":"6252001","fcl":"H","population":0,"countryCode":"US","name":"Ironton Creek","fclName":"stream, lake, ...","adminCodes1":{"ISO3166_2":"MN"},"countryName":"United States","fcodeName":"stream","adminName1":"Minnesota","lat":"46.46413","fcode":"STM"},{"adminCode1":"OH","lng":"-82.69056","geonameId":8114706,"toponymName":"Ironton Sewage Treatment Plant","countryId":"6252001","fcl":"S","population":0,"countryCode":"US","name":"Ironton Sewage Treatment Plant","fclName":"spot, building, farm","adminCodes1":{"ISO3166_2":"OH"},"countryName":"United States","fcodeName":"sewage treatment plant","adminName1":"Ohio","lat":"38.54167","fcode":"SWT"},{"adminCode1":"MO","lng":"-90.62739","geonameId":7721465,"toponymName":"Ironton Fire Department","countryId":"6252001","fcl":"S","population":0,"countryCode":"US","name":"Ironton Fire Department","fclName":"spot, building, farm","adminCodes1":{"ISO3166_2":"MO"},"countryName":"United States","fcodeName":"building(s)","adminName1":"Missouri","lat":"37.6002","fcode":"BLDG"},{"adminCode1":"OH","lng":"-82.68414","geonameId":9674883,"toponymName":"Ironton City Police Department","countryId":"6252001","fcl":"S","population":0,"countryCode":"US","name":"Ironton City Police Department","fclName":"spot, building, farm","adminCodes1":{"ISO3166_2":"OH"},"countryName":"United States","fcodeName":"building(s)","adminName1":"Ohio","lat":"38.53378","fcode":"BLDG"},{"adminCode1":"OH","lng":"-82.57962","geonameId":9674594,"toponymName":"Ohio State Highway Patrol - Ironton Patrol Post","countryId":"6252001","fcl":"S","population":0,"countryCode":"US","name":"Ohio State Highway Patrol - Ironton Patrol Post","fclName":"spot, building, farm","adminCodes1":{"ISO3166_2":"OH"},"countryName":"United States","fcodeName":"building(s)","adminName1":"Ohio","lat":"38.43717","fcode":"BLDG"},{"adminCode1":"LA","lng":"-89.95862","geonameId":12036081,"toponymName":"Ironton Light","countryId":"6252001","fcl":"S","population":0,"countryCode":"US","name":"Ironton Light","fclName":"spot, building, farm","adminCodes1":{"ISO3166_2":"LA"},"countryName":"United States","fcodeName":"beacon","adminName1":"Louisiana","lat":"29.6484","fcode":"BCN"},{"adminCode1":"MO","lng":"-90.62734","geonameId":7721367,"toponymName":"Missouri Department of Conservation Forestry Southeast Regional Field Fire Office Ironton","countryId":"6252001","fcl":"S","population":0,"countryCode":"US","name":"Missouri Department of Conservation Forestry Southeast Regional Field Fire Office Ironton","fclName":"spot, building, farm","adminCodes1":{"ISO3166_2":"MO"},"countryName":"United States","fcodeName":"building(s)","adminName1":"Missouri","lat":"37.5972","fcode":"BLDG"},{"adminCode1":"WI","lng":"-90.19062","geonameId":7308209,"toponymName":"Weston Elementary School","countryId":"6252001","fcl":"S","population":0,"countryCode":"US","name":"Weston Elementary School","fclName":"spot, building, farm","adminCodes1":{"ISO3166_2":"WI"},"countryName":"United States","fcodeName":"school","adminName1":"Wisconsin","lat":"43.48024","fcode":"SCH"},{"adminCode1":"WI","lng":"-90.19062","geonameId":7308210,"toponymName":"Weston Middle School","countryId":"6252001","fcl":"S","population":0,"countryCode":"US","name":"Weston Middle School","fclName":"spot, building, farm","adminCodes1":{"ISO3166_2":"WI"},"countryName":"United States","fcodeName":"school","adminName1":"Wisconsin","lat":"43.48027","fcode":"SCH"},{"adminCode1":"WI","lng":"-90.12818","geonameId":5275701,"toponymName":"Thornton Cemetery","countryId":"6252001","fcl":"S","population":0,"countryCode":"US","name":"Thornton Cemetery","fclName":"spot, building, farm","adminCodes1":{"ISO3166_2":"WI"},"countryName":"United States","fcodeName":"cemetery","adminName1":"Wisconsin","lat":"43.54081","fcode":"CMTY"},{"adminCode1":"WI","lng":"-90.10374","geonameId":5265435,"toponymName":"Oakland School (historical)","countryId":"6252001","fcl":"S","population":0,"countryCode":"US","name":"Oakland School (historical)","fclName":"spot, building, farm","adminCodes1":{"ISO3166_2":"WI"},"countryName":"United States","fcodeName":"school","adminName1":"Wisconsin","lat":"43.50359","fcode":"SCH"},{"adminCode1":"WI","lng":"-90.12096","geonameId":5268687,"toponymName":"Resting Green Cemetery","countryId":"6252001","fcl":"S","population":0,"countryCode":"US","name":"Resting Green Cemetery","fclName":"spot, building, farm","adminCodes1":{"ISO3166_2":"WI"},"countryName":"United States","fcodeName":"cemetery","adminName1":"Wisconsin","lat":"43.54887","fcode":"CMTY"},{"adminCode1":"WI","lng":"-90.10374","geonameId":5256161,"toponymName":"Hickory Grove School (historical)","countryId":"6252001","fcl":"S","population":0,"countryCode":"US","name":"Hickory Grove School (historical)","fclName":"spot, building, farm","adminCodes1":{"ISO3166_2":"WI"},"countryName":"United States","fcodeName":"school","adminName1":"Wisconsin","lat":"43.53359","fcode":"SCH"},{"adminCode1":"WI","lng":"-90.18346","geonameId":5245634,"toponymName":"Bethel School (historical)","countryId":"6252001","fcl":"S","population":0,"countryCode":"US","name":"Bethel School (historical)","fclName":"spot, building, farm","adminCodes1":{"ISO3166_2":"WI"},"countryName":"United States","fcodeName":"school","adminName1":"Wisconsin","lat":"43.55414","fcode":"SCH"},{"adminCode1":"WI","lng":"-90.11985","geonameId":5247496,"toponymName":"Calvary Cemetery","countryId":"6252001","fcl":"S","population":0,"countryCode":"US","name":"Calvary Cemetery","fclName":"spot, building, farm","adminCodes1":{"ISO3166_2":"WI"},"countryName":"United States","fcodeName":"cemetery","adminName1":"Wisconsin","lat":"43.54831","fcode":"CMTY"},{"adminCode1":"MN","lng":"-93.98026","geonameId":5041123,"toponymName":"Pennington Mine","countryId":"6252001","fcl":"S","population":0,"countryCode":"US","name":"Pennington Mine","fclName":"spot, building, farm","adminCodes1":{"ISO3166_2":"MN"},"countryName":"United States","fcodeName":"mine(s)","adminName1":"Minnesota","lat":"46.48441","fcode":"MN"},{"adminCode1":"MN","lng":"-94.00721","geonameId":5030960,"toponymName":"Huntington Mine","countryId":"6252001","fcl":"S","population":0,"countryCode":"US","name":"Huntington Mine","fclName":"spot, building, farm","adminCodes1":{"ISO3166_2":"MN"},"countryName":"United States","fcodeName":"mine(s)","adminName1":"Minnesota","lat":"46.48024","fcode":"MN"},{"adminCode1":"MN","lng":"-93.99637","geonameId":5026389,"toponymName":"Feigh Mine","countryId":"6252001","fcl":"S","population":0,"countryCode":"US","name":"Feigh Mine","fclName":"spot, building, farm","adminCodes1":{"ISO3166_2":"MN"},"countryName":"United States","fcodeName":"mine(s)","adminName1":"Minnesota","lat":"46.48219","fcode":"MN"},{"adminCode1":"MN","lng":"-94.00721","geonameId":5016212,"toponymName":"Alstead Mine","countryId":"6252001","fcl":"S","population":0,"countryCode":"US","name":"Alstead Mine","fclName":"spot, building, farm","adminCodes1":{"ISO3166_2":"MN"},"countryName":"United States","fcodeName":"mine(s)","adminName1":"Minnesota","lat":"46.48496","fcode":"MN"},{"adminCode1":"MN","lng":"-94.00387","geonameId":5016542,"toponymName":"Arco Mine","countryId":"6252001","fcl":"S","population":0,"countryCode":"US","name":"Arco Mine","fclName":"spot, building, farm","adminCodes1":{"ISO3166_2":"MN"},"countryName":"United States","fcodeName":"mine(s)","adminName1":"Minnesota","lat":"46.48802","fcode":"MN"},{"adminCode1":"MN","lng":"-93.99332","geonameId":5036284,"toponymName":"Mahnomen Number Three Mine","countryId":"6252001","fcl":"S","population":0,"countryCode":"US","name":"Mahnomen Number Three Mine","fclName":"spot, building, farm","adminCodes1":{"ISO3166_2":"MN"},"countryName":"United States","fcodeName":"mine(s)","adminName1":"Minnesota","lat":"46.48746","fcode":"MN"},{"adminCode1":"MN","lng":"-94.00054","geonameId":5036285,"toponymName":"Mahnomen Number Two Mine","countryId":"6252001","fcl":"S","population":0,"countryCode":"US","name":"Mahnomen Number Two Mine","fclName":"spot, building, farm","adminCodes1":{"ISO3166_2":"MN"},"countryName":"United States","fcodeName":"mine(s)","adminName1":"Minnesota","lat":"46.48357","fcode":"MN"},{"adminCode1":"NC","lng":"-81.1198","geonameId":4487656,"toponymName":"Reinhardt Bridge","countryId":"6252001","fcl":"S","population":0,"countryCode":"US","name":"Reinhardt Bridge","fclName":"spot, building, farm","adminCodes1":{"ISO3166_2":"NC"},"countryName":"United States","fcodeName":"bridge","adminName1":"North Carolina","lat":"35.47041","fcode":"BDG"},{"adminCode1":"NC","lng":"-81.13397","geonameId":4489663,"toponymName":"Saint Lukes Church","countryId":"6252001","fcl":"S","population":0,"countryCode":"US","name":"Saint Lukes Church","fclName":"spot, building, farm","adminCodes1":{"ISO3166_2":"NC"},"countryName":"United States","fcodeName":"church","adminName1":"North Carolina","lat":"35.51513","fcode":"CH"},{"adminCode1":"NC","lng":"-81.14425","geonameId":4491053,"toponymName":"Sharon Church","countryId":"6252001","fcl":"S","population":0,"countryCode":"US","name":"Sharon Church","fclName":"spot, building, farm","adminCodes1":{"ISO3166_2":"NC"},"countryName":"United States","fcodeName":"church","adminName1":"North Carolina","lat":"35.46708","fcode":"CH"},{"adminCode1":"NC","lng":"-81.20314","geonameId":4479592,"toponymName":"Miller Siding","countryId":"6252001","fcl":"S","population":0,"countryCode":"US","name":"Miller Siding","fclName":"spot, building, farm","adminCodes1":{"ISO3166_2":"NC"},"countryName":"United States","fcodeName":"","adminName1":"North Carolina","lat":"35.47708"},{"adminCode1":"NC","lng":"-81.20064","geonameId":4480097,"toponymName":"Moores Chapel","countryId":"6252001","fcl":"S","population":0,"countryCode":"US","name":"Moores Chapel","fclName":"spot, building, farm","adminCodes1":{"ISO3166_2":"NC"},"countryName":"United States","fcodeName":"church","adminName1":"North Carolina","lat":"35.50902","fcode":"CH"},{"adminCode1":"NC","lng":"-81.17369","geonameId":4480874,"toponymName":"Mount Vernon Church","countryId":"6252001","fcl":"S","population":0,"countryCode":"US","name":"Mount Vernon Church","fclName":"spot, building, farm","adminCodes1":{"ISO3166_2":"NC"},"countryName":"United States","fcodeName":"church","adminName1":"North Carolina","lat":"35.46263","fcode":"CH"},{"adminCode1":"NC","lng":"-81.09119","geonameId":4480954,"toponymName":"Mount Zion Church","countryId":"6252001","fcl":"S","population":0,"countryCode":"US","name":"Mount Zion Church","fclName":"spot, building, farm","adminCodes1":{"ISO3166_2":"NC"},"countryName":"United States","fcodeName":"church","adminName1":"North Carolina","lat":"35.41514","fcode":"CH"},{"adminCode1":"NC","lng":"-81.08563","geonameId":4457052,"toponymName":"Brevards Forge (historical)","countryId":"6252001","fcl":"S","population":0,"countryCode":"US","name":"Brevards Forge (historical)","fclName":"spot, building, farm","adminCodes1":{"ISO3166_2":"NC"},"countryName":"United States","fcodeName":"","adminName1":"North Carolina","lat":"35.42625"},{"adminCode1":"NC","lng":"-81.19341","geonameId":4459325,"toponymName":"Carpenters Lake Dam","countryId":"6252001","fcl":"S","population":0,"countryCode":"US","name":"Carpenters Lake Dam","fclName":"spot, building, farm","adminCodes1":{"ISO3166_2":"NC"},"countryName":"United States","fcodeName":"dam","adminName1":"North Carolina","lat":"35.41708","fcode":"DAM"}]}
