{"totalResultsCount":53,"geonames":[{"adminCode1":"WY","lng":"-110.73854","geonameId":5828662,"toponymName":"Jackson Hole Airport","countryId":"6252001","fcl":"S","population":0,"countryCode":"US","name":"Jackson Hole Airport","fclName":"spot, building, farm","adminCodes1":{"ISO3166_2":"WY"},"countryName":"United States","fcodeName":"airport","adminName1":"Wyoming","lat":"43.6066","fcode":"AIRP"},{"adminCode1":"OR","lng":"-123.07171","geonameId":5731592,"toponymName":"Hole in the Ground","countryId":"6252001","fcl":"T","population":0,"countryCode":"US","name":"Hole in the Ground","fclName":"mountain,hill,rock,... ","adminCodes1":{"ISO3166_2":"OR"},"countryName":"United States","fcodeName":"valley","adminName1":"Oregon","lat":"42.07985","fcode":"VAL"},{"adminCode1":"WY","lng":"-110.68993","geonameId":5828692,"toponymName":"Jackson Hole","countryId":"6252001","fcl":"T","population":0,"countryCode":"US","name":"Jackson Hole","fclName":"mountain,hill,rock,... ","adminCodes1":{"ISO3166_2":"WY"},"countryName":"United States","fcodeName":"depression(s)","adminName1":"Wyoming","lat":"43.68438","fcode":"DPR"},{"adminCode1":"AL","lng":"-85.77997","geonameId":4050823,"toponymName":"The Blue Hole","countryId":"6252001","fcl":"H","population":0,"countryCode":"US","name":"The Blue Hole","fclName":"stream, lake, ...","adminCodes1":{"ISO3166_2":"AL"},"countryName":"United States","fcodeName":"lake","adminName1":"Alabama","lat":"34.73897","fcode":"LK"},{"adminCode1":"FL","lng":"-84.99352","geonameId":4160985,"toponymName":"Kit Hole","countryId":"6252001","fcl":"H","population":0,"countryCode":"US","name":"Kit Hole","fclName":"stream, lake, ...","adminCodes1":{"ISO3166_2":"FL"},"countryName":"United States","fcodeName":"lake","adminName1":"Florida","lat":"30.83033","fcode":"LK"},{"adminCode1":"AL","lng":"-86.16582","geonameId":4828110,"toponymName":"Ned Hole","countryId":"6252001","fcl":"H","population":0,"countryCode":"US","name":"Ned Hole","fclName":"stream, lake, ...","adminCodes1":{"ISO3166_2":"AL"},"countryName":"United States","fcodeName":"lake","adminName1":"Alabama","lat":"34.65425","fcode":"LK"},{"adminCode1":"OH","lng":"-81.89375","geonameId":5151415,"toponymName":"Creston","countryId":"6252001","fcl":"P","population":2181,"countryCode":"US","name":"Creston","fclName":"city, village,...","adminCodes1":{"ISO3166_2":"OH"},"countryName":"United States","fcodeName":"populated place","adminName1":"Ohio","lat":"40.987","fcode":"PPL"},{"adminCode1":"NV","lng":"-118.4971","geonameId":5705239,"toponymName":"Jackson Mountains","countryId":"6252001","fcl":"T","population":0,"countryCode":"US","name":"Jackson Mountains","fclName":"mountain,hill,rock,... ","adminCodes1":{"ISO3166_2":"NV"},"countryName":"United States","fcodeName":"mountains","adminName1":"Nevada","lat":"41.32351","fcode":"MTS"},{"adminCode1":"WY","lng":"-110.84743","geonameId":5828666,"toponymName":"Jackson Hole Ski Area","countryId":"6252001","fcl":"L","population":0,"countryCode":"US","name":"Jackson Hole Ski Area","fclName":"parks,area, ...","adminCodes1":{"ISO3166_2":"WY"},"countryName":"United States","fcodeName":"area","adminName1":"Wyoming","lat":"43.59659","fcode":"AREA"},{"adminCode1":"AL","lng":"-86.00776","geonameId":4079334,"toponymName":"Never Hole","countryId":"6252001","fcl":"T","population":0,"countryCode":"US","name":"Never Hole","fclName":"mountain,hill,rock,... ","adminCodes1":{"ISO3166_2":"AL"},"countryName":"United States","fcodeName":"depression(s)","adminName1":"Alabama","lat":"34.83647","fcode":"DPR"},{"adminCode1":"IL","lng":"-88.61005","geonameId":4241694,"toponymName":"Jackson Hole","countryId":"6252001","fcl":"T","population":0,"countryCode":"US","name":"Jackson Hole","fclName":"mountain,hill,rock,... ","adminCodes1":{"ISO3166_2":"IL"},"countryName":"United States","fcodeName":"depression(s)","adminName1":"Illinois","lat":"37.51144","fcode":"DPR"},{"adminCode1":"UT","lng":"-109.63762","geonameId":5541108,"toponymName":"Jackson Hole","countryId":"6252001","fcl":"T","population":0,"countryCode":"US","name":"Jackson Hole","fclName":"mountain,hill,rock,... ","adminCodes1":{"ISO3166_2":"UT"},"countryName":"United States","fcodeName":"depression(s)","adminName1":"Utah","lat":"38.51304","fcode":"DPR"},{"adminCode1":"MT","lng":"-113.40422","geonameId":5659383,"toponymName":"Jackson Hot Springs","countryId":"6252001","fcl":"H","population":0,"countryCode":"US","name":"Jackson Hot Springs","fclName":"stream, lake, ...","adminCodes1":{"ISO3166_2":"MT"},"countryName":"United States","fcodeName":"spring(s)","adminName1":"Montana","lat":"45.36742","fcode":"SPNG"},{"adminCode1":"WY","lng":"-111.03692","geonameId":8111857,"toponymName":"Jackson Hole Fire and Emergency Medical Services Station 5 Alta / Driggs Volunteer Fire Department","countryId":"6252001","fcl":"S","population":0,"countryCode":"US","name":"Jackson Hole Fire and Emergency Medical Services Station 5 Alta / Driggs Volunteer Fire Department","fclName":"spot, building, farm","adminCodes1":{"ISO3166_2":"WY"},"countryName":"United States","fcodeName":"building(s)","adminName1":"Wyoming","lat":"43.75461","fcode":"BLDG"},{"adminCode1":"OR","lng":"-122.82504","geonameId":5713781,"toponymName":"Betts Hole","countryId":"6252001","fcl":"H","population":0,"countryCode":"US","name":"Betts Hole","fclName":"stream, lake, ...","adminCodes1":{"ISO3166_2":"OR"},"countryName":"United States","fcodeName":"channel","adminName1":"Oregon","lat":"42.58818","fcode":"CHN"},{"adminCode1":"OR","lng":"-122.80504","geonameId":5715059,"toponymName":"Boil Hole","countryId":"6252001","fcl":"H","population":0,"countryCode":"US","name":"Boil Hole","fclName":"stream, lake, ...","adminCodes1":{"ISO3166_2":"OR"},"countryName":"United States","fcodeName":"channel","adminName1":"Oregon","lat":"42.64012","fcode":"CHN"},{"adminCode1":"OR","lng":"-122.77893","geonameId":5717276,"toponymName":"Cable Hole","countryId":"6252001","fcl":"H","population":0,"countryCode":"US","name":"Cable Hole","fclName":"stream, lake, ...","adminCodes1":{"ISO3166_2":"OR"},"countryName":"United States","fcodeName":"channel","adminName1":"Oregon","lat":"42.65679","fcode":"CHN"},{"adminCode1":"OR","lng":"-122.58559","geonameId":5731596,"toponymName":"Hole in the Ground Creek","countryId":"6252001","fcl":"H","population":0,"countryCode":"US","name":"Hole in the Ground Creek","fclName":"stream, lake, ...","adminCodes1":{"ISO3166_2":"OR"},"countryName":"United States","fcodeName":"stream","adminName1":"Oregon","lat":"42.70346","fcode":"STM"},{"adminCode1":"AL","lng":"-85.76387","geonameId":4050807,"toponymName":"Blue Hole","countryId":"6252001","fcl":"H","population":0,"countryCode":"US","name":"Blue Hole","fclName":"stream, lake, ...","adminCodes1":{"ISO3166_2":"AL"},"countryName":"United States","fcodeName":"spring(s)","adminName1":"Alabama","lat":"34.97765","fcode":"SPNG"},{"adminCode1":"FL","lng":"-85.41528","geonameId":4148115,"toponymName":"Black Water Hole","countryId":"6252001","fcl":"H","population":0,"countryCode":"US","name":"Black Water Hole","fclName":"stream, lake, ...","adminCodes1":{"ISO3166_2":"FL"},"countryName":"United States","fcodeName":"swamp","adminName1":"Florida","lat":"30.73072","fcode":"SWMP"},{"adminCode1":"FL","lng":"-85.24353","geonameId":4148259,"toponymName":"Blue Hole Spring","countryId":"6252001","fcl":"H","population":0,"countryCode":"US","name":"Blue Hole Spring","fclName":"stream, lake, ...","adminCodes1":{"ISO3166_2":"FL"},"countryName":"United States","fcodeName":"spring(s)","adminName1":"Florida","lat":"30.82048","fcode":"SPNG"},{"adminCode1":"FL","lng":"-85.2608","geonameId":4174892,"toponymName":"Taylor Hole","countryId":"6252001","fcl":"H","population":0,"countryCode":"US","name":"Taylor Hole","fclName":"stream, lake, ...","adminCodes1":{"ISO3166_2":"FL"},"countryName":"United States","fcodeName":"swamp","adminName1":"Florida","lat":"30.74958","fcode":"SWMP"},{"adminCode1":"FL","lng":"-85.36838","geonameId":4156886,"toponymName":"Gnat Hole Pond","countryId":"6252001","fcl":"H","population":0,"countryCode":"US","name":"Gnat Hole Pond","fclName":"stream, lake, ...","adminCodes1":{"ISO3166_2":"FL"},"countryName":"United States","fcodeName":"swamp","adminName1":"Florida","lat":"30.80356","fcode":"SWMP"},{"adminCode1":"WY","lng":"-110.76123","geonameId":8111773,"toponymName":"Jackson Hole Fire and Emergency Medical Services Station 1 Jackson","countryId":"6252001","fcl":"S","population":0,"countryCode":"US","name":"Jackson Hole Fire and Emergency Medical Services Station 1 Jackson","fclName":"spot, building, farm","adminCodes1":{"ISO3166_2":"WY"},"countryName":"United States","fcodeName":"building(s)","adminName1":"Wyoming","lat":"43.47833","fcode":"BLDG"},{"adminCode1":"WY","lng":"-110.7881","geonameId":6480537,"toponymName":"Jackson Hole - Days Inn","countryId":"6252001","fcl":"S","population":0,"countryCode":"US","name":"Jackson Hole - Days Inn","fclName":"spot, building, farm","adminCodes1":{"ISO3166_2":"WY"},"countryName":"United States","fcodeName":"hotel","adminName1":"Wyoming","lat":"43.4736","fcode":"HTL"},{"adminCode1":"WY","lng":"-110.7825","geonameId":6502613,"toponymName":"Best Western Lodge At Jackson Hole","countryId":"6252001","fcl":"S","population":0,"countryCode":"US","name":"Best Western Lodge At Jackson Hole","fclName":"spot, building, farm","adminCodes1":{"ISO3166_2":"WY"},"countryName":"United States","fcodeName":"hotel","adminName1":"Wyoming","lat":"43.4736","fcode":"HTL"},{"adminCode1":"WY","lng":"-110.6337","geonameId":6471683,"toponymName":"Super 8 Motel - Jackson Hole","countryId":"6252001","fcl":"S","population":0,"countryCode":"US","name":"Super 8 Motel - Jackson Hole","fclName":"spot, building, farm","adminCodes1":{"ISO3166_2":"WY"},"countryName":"United States","fcodeName":"hotel","adminName1":"Wyoming","lat":"43.4431","fcode":"HTL"},{"adminCode1":"WY","lng":"-110.7688","geonameId":6468557,"toponymName":"Jackson Hole Lodge","countryId":"6252001","fcl":"S","population":0,"countryCode":"US","name":"Jackson Hole Lodge","fclName":"spot, building, farm","adminCodes1":{"ISO3166_2":"WY"},"countryName":"United States","fcodeName":"hotel","adminName1":"Wyoming","lat":"43.4792","fcode":"HTL"},{"adminCode1":"OR","lng":"-117.64572","geonameId":5733386,"toponymName":"Jackson Hole","countryId":"6252001","fcl":"H","population":0,"countryCode":"US","name":"Jackson Hole","fclName":"stream, lake, ...","adminCodes1":{"ISO3166_2":"OR"},"countryName":"United States","fcodeName":"stream bend","adminName1":"Oregon","lat":"43.19043","fcode":"STMB"},{"adminCode1":"WY","lng":"-110.75576","geonameId":5828663,"toponymName":"Jackson Hole Country Club","countryId":"6252001","fcl":"S","population":0,"countryCode":"US","name":"Jackson Hole Country Club","fclName":"spot, building, farm","adminCodes1":{"ISO3166_2":"WY"},"countryName":"United States","fcodeName":"resort","adminName1":"Wyoming","lat":"43.56576","fcode":"RSRT"},{"adminCode1":"WY","lng":"-110.76243","geonameId":5828664,"toponymName":"Jackson Hole High School","countryId":"6252001","fcl":"S","population":0,"countryCode":"US","name":"Jackson Hole High School","fclName":"spot, building, farm","adminCodes1":{"ISO3166_2":"WY"},"countryName":"United States","fcodeName":"school","adminName1":"Wyoming","lat":"43.47993","fcode":"SCH"},{"adminCode1":"WY","lng":"-110.76243","geonameId":5828665,"toponymName":"Jackson Hole Middle School","countryId":"6252001","fcl":"S","population":0,"countryCode":"US","name":"Jackson Hole Middle School","fclName":"spot, building, farm","adminCodes1":{"ISO3166_2":"WY"},"countryName":"United States","fcodeName":"school","adminName1":"Wyoming","lat":"43.47993","fcode":"SCH"},{"adminCode1":"AK","lng":"-147.21028","geonameId":5865114,"toponymName":"Jackson Hole","countryId":"6252001","fcl":"H","population":0,"countryCode":"US","name":"Jackson Hole","fclName":"stream, lake, ...","adminCodes1":{"ISO3166_2":"AK"},"countryName":"United States","fcodeName":"bay","adminName1":"Alaska","lat":"60.89667","fcode":"BAY"},{"adminCode1":"WY","lng":"-110.8716","geonameId":6498677,"toponymName":"Jackson Hole Racquet Club Aspen","countryId":"6252001","fcl":"S","population":0,"countryCode":"US","name":"Jackson Hole Racquet Club Aspen","fclName":"spot, building, farm","adminCodes1":{"ISO3166_2":"WY"},"countryName":"United States","fcodeName":"hotel","adminName1":"Wyoming","lat":"43.4999","fcode":"HTL"},{"adminCode1":"WY","lng":"-110.8274","geonameId":6465182,"toponymName":"Best Western Inn At Jackson Hole","countryId":"6252001","fcl":"S","population":0,"countryCode":"US","name":"Best Western Inn At Jackson Hole","fclName":"spot, building, farm","adminCodes1":{"ISO3166_2":"WY"},"countryName":"United States","fcodeName":"hotel","adminName1":"Wyoming","lat":"43.5863","fcode":"HTL"},{"adminCode1":"WY","lng":"-110.8272","geonameId":6529357,"toponymName":"Four Seasons Jackson Hole","countryId":"6252001","fcl":"S","population":0,"countryCode":"US","name":"Four Seasons Jackson Hole","fclName":"spot, building, farm","adminCodes1":{"ISO3166_2":"WY"},"countryName":"United States","fcodeName":"hotel","adminName1":"Wyoming","lat":"43.588","fcode":"HTL"},{"adminCode1":"WY","lng":"-110.8272","geonameId":6526295,"toponymName":"Teton Club Jackson Hole","countryId":"6252001","fcl":"S","population":0,"countryCode":"US","name":"Teton Club Jackson Hole","fclName":"spot, building, farm","adminCodes1":{"ISO3166_2":"WY"},"countryName":"United States","fcodeName":"hotel","adminName1":"Wyoming","lat":"43.588","fcode":"HTL"},{"adminCode1":"AZ","lng":"-110.19135","geonameId":5299705,"toponymName":"Jackson Hole Tank","countryId":"6252001","fcl":"H","population":0,"countryCode":"US","name":"Jackson Hole Tank","fclName":"stream, lake, ...","adminCodes1":{"ISO3166_2":"AZ"},"countryName":"United States","fcodeName":"water tank","adminName1":"Arizona","lat":"33.63537","fcode":"RSVT"},{"adminCode1":"TX","lng":"-101.74457","geonameId":5523900,"toponymName":"Jackson Hole Windmill","countryId":"6252001","fcl":"S","population":0,"countryCode":"US","name":"Jackson Hole Windmill","fclName":"spot, building, farm","adminCodes1":{"ISO3166_2":"TX"},"countryName":"United States","fcodeName":"","adminName1":"Texas","lat":"31.86958"},{"adminCode1":"WY","lng":"-110.87642","geonameId":8111854,"toponymName":"Jackson Hole Fire and Emergency Medical Services Station 2 Wilson","countryId":"6252001","fcl":"S","population":0,"countryCode":"US","name":"Jackson Hole Fire and Emergency Medical Services Station 2 Wilson","fclName":"spot, building, farm","adminCodes1":{"ISO3166_2":"WY"},"countryName":"United States","fcodeName":"building(s)","adminName1":"Wyoming","lat":"43.49902","fcode":"BLDG"},{"adminCode1":"WY","lng":"-110.73132","geonameId":8111855,"toponymName":"Jackson Hole Fire and Emergency Medical Services Station 3 Hoback","countryId":"6252001","fcl":"S","population":0,"countryCode":"US","name":"Jackson Hole Fire and Emergency Medical Services Station 3 Hoback","fclName":"spot, building, farm","adminCodes1":{"ISO3166_2":"WY"},"countryName":"United States","fcodeName":"building(s)","adminName1":"Wyoming","lat":"43.32247","fcode":"BLDG"},{"adminCode1":"WY","lng":"-110.50794","geonameId":8111856,"toponymName":"Jackson Hole Fire and Emergency Medical Services Station 4 Moran","countryId":"6252001","fcl":"S","population":0,"countryCode":"US","name":"Jackson Hole Fire and Emergency Medical Services Station 4 Moran","fclName":"spot, building, farm","adminCodes1":{"ISO3166_2":"WY"},"countryName":"United States","fcodeName":"building(s)","adminName1":"Wyoming","lat":"43.84131","fcode":"BLDG"},{"adminCode1":"WY","lng":"-110.8427","geonameId":8111858,"toponymName":"Jackson Hole Fire and Emergency Medical Services Station 6 Teton Pines","countryId":"6252001","fcl":"S","population":0,"countryCode":"US","name":"Jackson Hole Fire and Emergency Medical Services Station 6 Teton Pines","fclName":"spot, building, farm","adminCodes1":{"ISO3166_2":"WY"},"countryName":"United States","fcodeName":"building(s)","adminName1":"Wyoming","lat":"43.51644","fcode":"BLDG"},{"adminCode1":"WY","lng":"-110.78147","geonameId":8111860,"toponymName":"Jackson Hole Fire and Emergency Medical Services Station 7 Adams Canyon / Watsabaugh Facility","countryId":"6252001","fcl":"S","population":0,"countryCode":"US","name":"Jackson Hole Fire and Emergency Medical Services Station 7 Adams Canyon / Watsabaugh Facility","fclName":"spot, building, farm","adminCodes1":{"ISO3166_2":"WY"},"countryName":"United States","fcodeName":"building(s)","adminName1":"Wyoming","lat":"43.43327","fcode":"BLDG"},{"adminCode1":"WY","lng":"-110.73694","geonameId":8112004,"toponymName":"Jackson Hole Airport Fire Department","countryId":"6252001","fcl":"S","population":0,"countryCode":"US","name":"Jackson Hole Airport Fire Department","fclName":"spot, building, farm","adminCodes1":{"ISO3166_2":"WY"},"countryName":"United States","fcodeName":"building(s)","adminName1":"Wyoming","lat":"43.60179","fcode":"BLDG"},{"adminCode1":"WY","lng":"-110.78251","geonameId":9850492,"toponymName":"The Lodge At Jackson Hole","countryId":"6252001","fcl":"S","population":0,"countryCode":"US","name":"The Lodge At Jackson Hole","fclName":"spot, building, farm","adminCodes1":{"ISO3166_2":"WY"},"countryName":"United States","fcodeName":"hotel","adminName1":"Wyoming","lat":"43.47343","fcode":"HTL"},{"adminCode1":"WY","lng":"-110.78976","geonameId":9850493,"toponymName":"Hampton Inn Jackson Hole Wy","countryId":"6252001","fcl":"S","population":0,"countryCode":"US","name":"Hampton Inn Jackson Hole Wy","fclName":"spot, building, farm","adminCodes1":{"ISO3166_2":"WY"},"countryName":"United States","fcodeName":"hotel","adminName1":"Wyoming","lat":"43.47098","fcode":"HTL"},{"adminCode1":"WY","lng":"-110.7626","geonameId":9850494,"toponymName":"Rustic Inn At Jackson Hole Creekside Resort & Spa","countryId":"6252001","fcl":"S","population":0,"countryCode":"US","name":"Rustic Inn At Jackson Hole Creekside Resort & Spa","fclName":"spot, building, farm","adminCodes1":{"ISO3166_2":"WY"},"countryName":"United States","fcodeName":"hotel","adminName1":"Wyoming","lat":"43.48604","fcode":"HTL"},{"adminCode1":"WY","lng":"-110.829","geonameId":9851814,"toponymName":"Terra Jackson Hole","countryId":"6252001","fcl":"S","population":0,"countryCode":"US","name":"Terra Jackson Hole","fclName":"spot, building, farm","adminCodes1":{"ISO3166_2":"WY"},"countryName":"United States","fcodeName":"hotel","adminName1":"Wyoming","lat":"43.5866","fcode":"HTL"},{"adminCode1":"WY","lng":"-110.76259","geonameId":9856504,"toponymName":"The Lexington At Jackson Hole","countryId":"6252001","fcl":"S","population":0,"countryCode":"US","name":"The Lexington At Jackson Hole","fclName":"spot, building, farm","adminCodes1":{"ISO3166_2":"WY"},"countryName":"United States","fcodeName":"hotel","adminName1":"Wyoming","lat":"43.48305","fcode":"HTL"},{"adminCode1":"WY","lng":"-110.79269","geonameId":9966558,"toponymName":"Super 8 Jackson Hole","countryId":"6252001","fcl":"S","population":0,"countryCode":"US","name":"Super 8 Jackson Hole","fclName":"spot, building, farm","adminCodes1":{"ISO3166_2":"WY"},"countryName":"United States","fcodeName":"hotel","adminName1":"Wyoming","lat":"43.4665","fcode":"HTL"},{"adminCode1":"WY","lng":"-110.78233","geonameId":10055454,"toponymName":"Plus The Lodge At Jackson Hole","countryId":"6252001","fcl":"S","population":0,"countryCode":"US","name":"Plus The Lodge At Jackson Hole","fclName":"spot, building, farm","adminCodes1":{"ISO3166_2":"WY"},"countryName":"United States","fcodeName":"hotel","adminName1":"Wyoming","lat":"43.47339","fcode":"HTL"},{"adminCode1":"CA","lng":"-119.05538","geonameId":5360234,"toponymName":"Jackson Hole","countryId":"6252001","fcl":"S","population":0,"countryCode":"US","name":"Jackson Hole","fclName":"spot, building, farm","adminCodes1":{"ISO3166_2":"CA"},"countryName":"United States","fcodeName":"","adminName1":"California","lat":"34.46277"}]}
