{"totalResultsCount":32,"geonames":[{"adminCode1":"IL","lng":"-88.23727","geonameId":4832070,"toponymName":"Kempton","countryId":"6252001","fcl":"P","population":223,"countryCode":"US","name":"Kempton","fclName":"city, village,...","adminCodes1":{"ISO3166_2":"IL"},"countryName":"United States","fcodeName":"populated place","adminName1":"Illinois","lat":"40.93559","fcode":"PPL"},{"adminCode1":"IN","lng":"-86.22972","geonameId":4922249,"toponymName":"Kempton","countryId":"6252001","fcl":"P","population":312,"countryCode":"US","name":"Kempton","fclName":"city, village,...","adminCodes1":{"ISO3166_2":"IN"},"countryName":"United States","fcodeName":"populated place","adminName1":"Indiana","lat":"40.28837","fcode":"PPL"},{"adminCode1":"PA","lng":"-75.85242","geonameId":5195963,"toponymName":"Kempton","countryId":"6252001","fcl":"P","population":169,"countryCode":"US","name":"Kempton","fclName":"city, village,...","adminCodes1":{"ISO3166_2":"PA"},"countryName":"United States","fcodeName":"populated place","adminName1":"Pennsylvania","lat":"40.6262","fcode":"PPL"},{"adminCode1":"IN","lng":"-86.22965","geonameId":7164974,"toponymName":"Town of Kempton","countryId":"6252001","fcl":"A","population":335,"countryCode":"US","name":"Town of Kempton","fclName":"country, state, region,...","adminCodes1":{"ISO3166_2":"IN"},"countryName":"United States","fcodeName":"administrative division","adminName1":"Indiana","lat":"40.28773","fcode":"ADMD"},{"adminCode1":"IL","lng":"-88.23543","geonameId":7166065,"toponymName":"Village of Kempton","countryId":"6252001","fcl":"A","population":231,"countryCode":"US","name":"Village of Kempton","fclName":"country, state, region,...","adminCodes1":{"ISO3166_2":"IL"},"countryName":"United States","fcodeName":"administrative division","adminName1":"Illinois","lat":"40.93537","fcode":"ADMD"},{"adminCode1":"MD","lng":"-77.23693","geonameId":4359729,"toponymName":"Kempton Community Park","countryId":"6252001","fcl":"L","population":0,"countryCode":"US","name":"Kempton Community Park","fclName":"parks,area, ...","adminCodes1":{"ISO3166_2":"MD"},"countryName":"United States","fcodeName":"park","adminName1":"Maryland","lat":"39.33399","fcode":"PRK"},{"adminCode1":"WV","lng":"-79.44616","geonameId":4810787,"toponymName":"Kempton Junction","countryId":"6252001","fcl":"P","population":0,"countryCode":"US","name":"Kempton Junction","fclName":"city, village,...","adminCodes1":{"ISO3166_2":"WV"},"countryName":"United States","fcodeName":"populated place","adminName1":"West Virginia","lat":"39.21538","fcode":"PPL"},{"adminCode1":"ND","lng":"-97.61425","geonameId":5059945,"toponymName":"Kempton","countryId":"6252001","fcl":"P","population":0,"countryCode":"US","name":"Kempton","fclName":"city, village,...","adminCodes1":{"ISO3166_2":"ND"},"countryName":"United States","fcodeName":"populated place","adminName1":"North Dakota","lat":"47.81888","fcode":"PPL"},{"adminCode1":"OH","lng":"-84.22328","geonameId":5159485,"toponymName":"Kemp","countryId":"6252001","fcl":"P","population":0,"countryCode":"US","name":"Kemp","fclName":"city, village,...","adminCodes1":{"ISO3166_2":"OH"},"countryName":"United States","fcodeName":"populated place","adminName1":"Ohio","lat":"40.72366","fcode":"PPL"},{"adminCode1":"MN","lng":"-91.66479","geonameId":5033038,"toponymName":"Kemptons Lake","countryId":"6252001","fcl":"H","population":0,"countryCode":"US","name":"Kemptons Lake","fclName":"stream, lake, ...","adminCodes1":{"ISO3166_2":"MN"},"countryName":"United States","fcodeName":"lake","adminName1":"Minnesota","lat":"47.93087","fcode":"LK"},{"adminCode1":"MD","lng":"-79.48533","geonameId":4359728,"toponymName":"Kempton","countryId":"6252001","fcl":"P","population":0,"countryCode":"US","name":"Kempton","fclName":"city, village,...","adminCodes1":{"ISO3166_2":"MD"},"countryName":"United States","fcodeName":"populated place","adminName1":"Maryland","lat":"39.20677","fcode":"PPL"},{"adminCode1":"MA","lng":"-71.00921","geonameId":4941188,"toponymName":"Kempton Croft","countryId":"6252001","fcl":"P","population":0,"countryCode":"US","name":"Kempton Croft","fclName":"city, village,...","adminCodes1":{"ISO3166_2":"MA"},"countryName":"United States","fcodeName":"populated place","adminName1":"Massachusetts","lat":"41.64038","fcode":"PPL"},{"adminCode1":"MA","lng":"-70.93976","geonameId":4939905,"toponymName":"Horatio A Kempton School","countryId":"6252001","fcl":"S","population":0,"countryCode":"US","name":"Horatio A Kempton School","fclName":"spot, building, farm","adminCodes1":{"ISO3166_2":"MA"},"countryName":"United States","fcodeName":"school","adminName1":"Massachusetts","lat":"41.64566","fcode":"SCH"},{"adminCode1":"PA","lng":"-75.86277","geonameId":7221905,"toponymName":"Kempton Fire Company Station 44","countryId":"6252001","fcl":"S","population":0,"countryCode":"US","name":"Kempton Fire Company Station 44","fclName":"spot, building, farm","adminCodes1":{"ISO3166_2":"PA"},"countryName":"United States","fcodeName":"building(s)","adminName1":"Pennsylvania","lat":"40.62344","fcode":"BLDG"},{"adminCode1":"CA","lng":"-117.00197","geonameId":5362752,"toponymName":"Kempton Street Elementary School","countryId":"6252001","fcl":"S","population":0,"countryCode":"US","name":"Kempton Street Elementary School","fclName":"spot, building, farm","adminCodes1":{"ISO3166_2":"CA"},"countryName":"United States","fcodeName":"school","adminName1":"California","lat":"32.71089","fcode":"SCH"},{"adminCode1":"MN","lng":"-92.82487","geonameId":5033036,"toponymName":"Kempton Bay","countryId":"6252001","fcl":"H","population":0,"countryCode":"US","name":"Kempton Bay","fclName":"stream, lake, ...","adminCodes1":{"ISO3166_2":"MN"},"countryName":"United States","fcodeName":"bay","adminName1":"Minnesota","lat":"48.53602","fcode":"BAY"},{"adminCode1":"MN","lng":"-92.85404","geonameId":5033037,"toponymName":"Kempton Channel","countryId":"6252001","fcl":"H","population":0,"countryCode":"US","name":"Kempton Channel","fclName":"stream, lake, ...","adminCodes1":{"ISO3166_2":"MN"},"countryName":"United States","fcodeName":"channel","adminName1":"Minnesota","lat":"48.53547","fcode":"CHN"},{"adminCode1":"MI","lng":"-84.36911","geonameId":4997962,"toponymName":"Kempton Drain","countryId":"6252001","fcl":"H","population":0,"countryCode":"US","name":"Kempton Drain","fclName":"stream, lake, ...","adminCodes1":{"ISO3166_2":"MI"},"countryName":"United States","fcodeName":"stream","adminName1":"Michigan","lat":"41.99143","fcode":"STM"},{"adminCode1":"MD","lng":"-77.23415","geonameId":4359730,"toponymName":"Kempton Elementary School","countryId":"6252001","fcl":"S","population":0,"countryCode":"US","name":"Kempton Elementary School","fclName":"spot, building, farm","adminCodes1":{"ISO3166_2":"MD"},"countryName":"United States","fcodeName":"school","adminName1":"Maryland","lat":"39.32955","fcode":"SCH"},{"adminCode1":"WY","lng":"-106.86172","geonameId":5829439,"toponymName":"Kempton Ditch","countryId":"6252001","fcl":"H","population":0,"countryCode":"US","name":"Kempton Ditch","fclName":"stream, lake, ...","adminCodes1":{"ISO3166_2":"WY"},"countryName":"United States","fcodeName":"canal","adminName1":"Wyoming","lat":"44.44664","fcode":"CNL"},{"adminCode1":"MD","lng":"-79.48033","geonameId":4359731,"toponymName":"Kempton Spring","countryId":"6252001","fcl":"H","population":0,"countryCode":"US","name":"Kempton Spring","fclName":"stream, lake, ...","adminCodes1":{"ISO3166_2":"MD"},"countryName":"United States","fcodeName":"spring(s)","adminName1":"Maryland","lat":"39.209","fcode":"SPNG"},{"adminCode1":"OH","lng":"-83.03546","geonameId":5159486,"toponymName":"Kempton Cemetery","countryId":"6252001","fcl":"S","population":0,"countryCode":"US","name":"Kempton Cemetery","fclName":"spot, building, farm","adminCodes1":{"ISO3166_2":"OH"},"countryName":"United States","fcodeName":"cemetery","adminName1":"Ohio","lat":"40.05895","fcode":"CMTY"},{"adminCode1":"OH","lng":"-84.22217","geonameId":5159487,"toponymName":"Kempton Post Office (historical)","countryId":"6252001","fcl":"S","population":0,"countryCode":"US","name":"Kempton Post Office (historical)","fclName":"spot, building, farm","adminCodes1":{"ISO3166_2":"OH"},"countryName":"United States","fcodeName":"post office","adminName1":"Ohio","lat":"40.72366","fcode":"PO"},{"adminCode1":"IN","lng":"-86.22583","geonameId":4922250,"toponymName":"Kempton Cemetery","countryId":"6252001","fcl":"S","population":0,"countryCode":"US","name":"Kempton Cemetery","fclName":"spot, building, farm","adminCodes1":{"ISO3166_2":"IN"},"countryName":"United States","fcodeName":"cemetery","adminName1":"Indiana","lat":"40.29893","fcode":"CMTY"},{"adminCode1":"MI","lng":"-83.98109","geonameId":4997968,"toponymName":"Kempton School","countryId":"6252001","fcl":"S","population":0,"countryCode":"US","name":"Kempton School","fclName":"spot, building, farm","adminCodes1":{"ISO3166_2":"MI"},"countryName":"United States","fcodeName":"school","adminName1":"Michigan","lat":"43.43947","fcode":"SCH"},{"adminCode1":"IL","lng":"-88.238","geonameId":8116240,"toponymName":"Kempton Fire Protection District","countryId":"6252001","fcl":"S","population":0,"countryCode":"US","name":"Kempton Fire Protection District","fclName":"spot, building, farm","adminCodes1":{"ISO3166_2":"IL"},"countryName":"United States","fcodeName":"building(s)","adminName1":"Illinois","lat":"40.93514","fcode":"BLDG"},{"adminCode1":"IN","lng":"-86.22974","geonameId":7726554,"toponymName":"Kempton Fire and Rescue","countryId":"6252001","fcl":"S","population":0,"countryCode":"US","name":"Kempton Fire and Rescue","fclName":"spot, building, farm","adminCodes1":{"ISO3166_2":"IN"},"countryName":"United States","fcodeName":"building(s)","adminName1":"Indiana","lat":"40.28506","fcode":"BLDG"},{"adminCode1":"IN","lng":"-86.22888","geonameId":11381252,"toponymName":"Kempton Police Department","countryId":"6252001","fcl":"S","population":0,"countryCode":"US","name":"Kempton Police Department","fclName":"spot, building, farm","adminCodes1":{"ISO3166_2":"IN"},"countryName":"United States","fcodeName":"building(s)","adminName1":"Indiana","lat":"40.28683","fcode":"BLDG"},{"adminCode1":"PA","lng":"-75.86366","geonameId":7221906,"toponymName":"Kempton Fire Company Social Hall","countryId":"6252001","fcl":"S","population":0,"countryCode":"US","name":"Kempton Fire Company Social Hall","fclName":"spot, building, farm","adminCodes1":{"ISO3166_2":"PA"},"countryName":"United States","fcodeName":"building(s)","adminName1":"Pennsylvania","lat":"40.62327","fcode":"BLDG"},{"adminCode1":"PA","lng":"-75.86018","geonameId":11392487,"toponymName":"Kempton Post Office","countryId":"6252001","fcl":"S","population":0,"countryCode":"US","name":"Kempton Post Office","fclName":"spot, building, farm","adminCodes1":{"ISO3166_2":"PA"},"countryName":"United States","fcodeName":"post office","adminName1":"Pennsylvania","lat":"40.62427","fcode":"PO"},{"adminCode1":"NM","lng":"-108.12924","geonameId":5474307,"toponymName":"Kempton-Prewitt","countryId":"6252001","fcl":"S","population":0,"countryCode":"US","name":"Kempton-Prewitt","fclName":"spot, building, farm","adminCodes1":{"ISO3166_2":"NM"},"countryName":"United States","fcodeName":"mine(s)","adminName1":"New Mexico","lat":"36.99695","fcode":"MN"},{"adminCode1":"NC","lng":"-77.89737","geonameId":7230637,"toponymName":"The Kempton at Brightmore","countryId":"6252001","fcl":"S","population":0,"countryCode":"US","name":"The Kempton at Brightmore","fclName":"spot, building, farm","adminCodes1":{"ISO3166_2":"NC"},"countryName":"United States","fcodeName":"building(s)","adminName1":"North Carolina","lat":"34.20181","fcode":"BLDG"}]}
