{"totalResultsCount":458,"geonames":[{"adminCode1":"SD","lng":"-97.49148","geonameId":5228997,"toponymName":"Kingsbury County","countryId":"6252001","fcl":"A","population":5148,"countryCode":"US","name":"Kingsbury","fclName":"country, state, region,...","adminCodes1":{"ISO3166_2":"SD"},"countryName":"United States","fcodeName":"second-order administrative division","adminName1":"South Dakota","lat":"44.36959","fcode":"ADM2"},{"adminCode1":"SD","lng":"-97.13312","geonameId":5226035,"toponymName":"Arlington","countryId":"6252001","fcl":"P","population":883,"countryCode":"US","name":"Arlington","fclName":"city, village,...","adminCodes1":{"ISO3166_2":"SD"},"countryName":"United States","fcodeName":"populated place","adminName1":"South Dakota","lat":"44.36441","fcode":"PPL"},{"adminCode1":"SD","lng":"-97.55035","geonameId":5227237,"toponymName":"De Smet","countryId":"6252001","fcl":"P","population":1072,"countryCode":"US","name":"De Smet","fclName":"city, village,...","adminCodes1":{"ISO3166_2":"SD"},"countryName":"United States","fcodeName":"seat of a second-order administrative division","adminName1":"South Dakota","lat":"44.38747","fcode":"PPLA2"},{"adminCode1":"SD","lng":"-97.49674","geonameId":5230563,"toponymName":"Plum Lake","countryId":"6252001","fcl":"H","population":0,"countryCode":"US","name":"Plum Lake","fclName":"stream, lake, ...","adminCodes1":{"ISO3166_2":"SD"},"countryName":"United States","fcodeName":"lake","adminName1":"South Dakota","lat":"44.52191","fcode":"LK"},{"adminCode1":"SD","lng":"-97.60866","geonameId":5231995,"toponymName":"Spirit Lake","countryId":"6252001","fcl":"H","population":0,"countryCode":"US","name":"Spirit Lake","fclName":"stream, lake, ...","adminCodes1":{"ISO3166_2":"SD"},"countryName":"United States","fcodeName":"lake","adminName1":"South Dakota","lat":"44.49329","fcode":"LK"},{"adminCode1":"SD","lng":"-97.15204","geonameId":5232338,"toponymName":"Lake Thisted","countryId":"6252001","fcl":"H","population":0,"countryCode":"US","name":"Lake Thisted","fclName":"stream, lake, ...","adminCodes1":{"ISO3166_2":"SD"},"countryName":"United States","fcodeName":"lake","adminName1":"South Dakota","lat":"44.47518","fcode":"LK"},{"adminCode1":"SD","lng":"-97.45515","geonameId":5232345,"toponymName":"Lake Thompson","countryId":"6252001","fcl":"H","population":0,"countryCode":"US","name":"Lake Thompson","fclName":"stream, lake, ...","adminCodes1":{"ISO3166_2":"SD"},"countryName":"United States","fcodeName":"lake","adminName1":"South Dakota","lat":"44.26964","fcode":"LK"},{"adminCode1":"SD","lng":"-97.30531","geonameId":5232921,"toponymName":"Lake Whitewood","countryId":"6252001","fcl":"H","population":0,"countryCode":"US","name":"Lake Whitewood","fclName":"stream, lake, ...","adminCodes1":{"ISO3166_2":"SD"},"countryName":"United States","fcodeName":"lake","adminName1":"South Dakota","lat":"44.33258","fcode":"LK"},{"adminCode1":"SD","lng":"-97.17672","geonameId":5226113,"toponymName":"Lake Badger","countryId":"6252001","fcl":"H","population":0,"countryCode":"US","name":"Lake Badger","fclName":"stream, lake, ...","adminCodes1":{"ISO3166_2":"SD"},"countryName":"United States","fcodeName":"lake","adminName1":"South Dakota","lat":"44.46185","fcode":"LK"},{"adminCode1":"SD","lng":"-97.30785","geonameId":5230207,"toponymName":"Oldham","countryId":"6252001","fcl":"P","population":128,"countryCode":"US","name":"Oldham","fclName":"city, village,...","adminCodes1":{"ISO3166_2":"SD"},"countryName":"United States","fcodeName":"populated place","adminName1":"South Dakota","lat":"44.22747","fcode":"PPL"},{"adminCode1":"SD","lng":"-97.20479","geonameId":5226112,"toponymName":"Badger","countryId":"6252001","fcl":"P","population":103,"countryCode":"US","name":"Badger","fclName":"city, village,...","adminCodes1":{"ISO3166_2":"SD"},"countryName":"United States","fcodeName":"populated place","adminName1":"South Dakota","lat":"44.48524","fcode":"PPL"},{"adminCode1":"SD","lng":"-97.44508","geonameId":5227645,"toponymName":"Erwin","countryId":"6252001","fcl":"P","population":43,"countryCode":"US","name":"Erwin","fclName":"city, village,...","adminCodes1":{"ISO3166_2":"SD"},"countryName":"United States","fcodeName":"populated place","adminName1":"South Dakota","lat":"44.48747","fcode":"PPL"},{"adminCode1":"SD","lng":"-97.85092","geonameId":5228754,"toponymName":"Iroquois","countryId":"6252001","fcl":"P","population":263,"countryCode":"US","name":"Iroquois","fclName":"city, village,...","adminCodes1":{"ISO3166_2":"SD"},"countryName":"United States","fcodeName":"populated place","adminName1":"South Dakota","lat":"44.36692","fcode":"PPL"},{"adminCode1":"SD","lng":"-97.37729","geonameId":5229173,"toponymName":"Lake Preston","countryId":"6252001","fcl":"P","population":568,"countryCode":"US","name":"Lake Preston","fclName":"city, village,...","adminCodes1":{"ISO3166_2":"SD"},"countryName":"United States","fcodeName":"populated place","adminName1":"South Dakota","lat":"44.36358","fcode":"PPL"},{"adminCode1":"MT","lng":"-110.36532","geonameId":5660844,"toponymName":"Kingsbury Lake","countryId":"6252001","fcl":"H","population":0,"countryCode":"US","name":"Kingsbury Lake","fclName":"stream, lake, ...","adminCodes1":{"ISO3166_2":"MT"},"countryName":"United States","fcodeName":"lake","adminName1":"Montana","lat":"47.56914","fcode":"LK"},{"adminCode1":"SD","lng":"-97.8387","geonameId":5230258,"toponymName":"Osceola","countryId":"6252001","fcl":"P","population":0,"countryCode":"US","name":"Osceola","fclName":"city, village,...","adminCodes1":{"ISO3166_2":"SD"},"countryName":"United States","fcodeName":"populated place","adminName1":"South Dakota","lat":"44.46747","fcode":"PPL"},{"adminCode1":"SD","lng":"-97.75008","geonameId":5226145,"toponymName":"Bancroft","countryId":"6252001","fcl":"P","population":18,"countryCode":"US","name":"Bancroft","fclName":"city, village,...","adminCodes1":{"ISO3166_2":"SD"},"countryName":"United States","fcodeName":"populated place","adminName1":"South Dakota","lat":"44.48803","fcode":"PPL"},{"adminCode1":"SD","lng":"-97.77147","geonameId":5227648,"toponymName":"Esmond","countryId":"6252001","fcl":"P","population":0,"countryCode":"US","name":"Esmond","fclName":"city, village,...","adminCodes1":{"ISO3166_2":"SD"},"countryName":"United States","fcodeName":"populated place","adminName1":"South Dakota","lat":"44.2622","fcode":"PPL"},{"adminCode1":"SD","lng":"-97.23507","geonameId":5228435,"toponymName":"Hetland","countryId":"6252001","fcl":"P","population":44,"countryCode":"US","name":"Hetland","fclName":"city, village,...","adminCodes1":{"ISO3166_2":"SD"},"countryName":"United States","fcodeName":"populated place","adminName1":"South Dakota","lat":"44.37802","fcode":"PPL"},{"adminCode1":"SD","lng":"-97.72064","geonameId":5229542,"toponymName":"Manchester","countryId":"6252001","fcl":"P","population":0,"countryCode":"US","name":"Manchester","fclName":"city, village,...","adminCodes1":{"ISO3166_2":"SD"},"countryName":"United States","fcodeName":"populated place","adminName1":"South Dakota","lat":"44.36914","fcode":"PPL"},{"adminCode1":"TX","lng":"-97.82806","geonameId":4703368,"toponymName":"Kingsbury","countryId":"6252001","fcl":"P","population":782,"countryCode":"US","name":"Kingsbury","fclName":"city, village,...","adminCodes1":{"ISO3166_2":"TX"},"countryName":"United States","fcodeName":"populated place","adminName1":"Texas","lat":"29.64801","fcode":"PPL"},{"adminCode1":"NV","lng":"-119.90685","geonameId":5506726,"toponymName":"Kingsbury","countryId":"6252001","fcl":"P","population":2152,"countryCode":"US","name":"Kingsbury","fclName":"city, village,...","adminCodes1":{"ISO3166_2":"NV"},"countryName":"United States","fcodeName":"populated place","adminName1":"Nevada","lat":"38.97713","fcode":"PPL"},{"adminCode1":"IN","lng":"-86.70002","geonameId":4922323,"toponymName":"Kingsbury","countryId":"6252001","fcl":"P","population":245,"countryCode":"US","name":"Kingsbury","fclName":"city, village,...","adminCodes1":{"ISO3166_2":"IN"},"countryName":"United States","fcodeName":"populated place","adminName1":"Indiana","lat":"41.52754","fcode":"PPL"},{"adminCode1":"SD","lng":"-97.17366","geonameId":11383079,"toponymName":"Kingsbury County Waterfowl Production Area","countryId":"6252001","fcl":"L","population":0,"countryCode":"US","name":"Kingsbury County Waterfowl Production Area","fclName":"parks,area, ...","adminCodes1":{"ISO3166_2":"SD"},"countryName":"United States","fcodeName":"park","adminName1":"South Dakota","lat":"44.30021","fcode":"PRK"},{"adminCode1":"IN","lng":"-86.59057","geonameId":4922327,"toponymName":"Kingsbury State Fish and Game Area","countryId":"6252001","fcl":"L","population":0,"countryCode":"US","name":"Kingsbury State Fish and Game Area","fclName":"parks,area, ...","adminCodes1":{"ISO3166_2":"IN"},"countryName":"United States","fcodeName":"park","adminName1":"Indiana","lat":"41.5156","fcode":"PRK"},{"adminCode1":"IN","lng":"-86.57002","geonameId":4922328,"toponymName":"Kingsbury State Fish and Wildlife Area","countryId":"6252001","fcl":"L","population":0,"countryCode":"US","name":"Kingsbury State Fish and Wildlife Area","fclName":"parks,area, ...","adminCodes1":{"ISO3166_2":"IN"},"countryName":"United States","fcodeName":"park","adminName1":"Indiana","lat":"41.4981","fcode":"PRK"},{"adminCode1":"ME","lng":"-69.60108","geonameId":4968928,"toponymName":"Plantation of Kingsbury","countryId":"6252001","fcl":"A","population":0,"countryCode":"US","name":"Plantation of Kingsbury","fclName":"country, state, region,...","adminCodes1":{"ISO3166_2":"ME"},"countryName":"United States","fcodeName":"third-order administrative division","adminName1":"Maine","lat":"45.15666","fcode":"ADM3"},{"adminCode1":"SD","lng":"-97.30953","geonameId":5230209,"toponymName":"City of Oldham","countryId":"6252001","fcl":"A","population":133,"countryCode":"US","name":"City of Oldham","fclName":"country, state, region,...","adminCodes1":{"ISO3166_2":"SD"},"countryName":"United States","fcodeName":"third-order administrative division","adminName1":"South Dakota","lat":"44.2282","fcode":"ADM3"},{"adminCode1":"SD","lng":"-97.58223","geonameId":5231997,"toponymName":"Township of Spirit Lake","countryId":"6252001","fcl":"A","population":0,"countryCode":"US","name":"Spirit Lake Township","fclName":"country, state, region,...","adminCodes1":{"ISO3166_2":"SD"},"countryName":"United States","fcodeName":"third-order administrative division","adminName1":"South Dakota","lat":"44.49263","fcode":"ADM3"},{"adminCode1":"SD","lng":"-97.21728","geonameId":5232035,"toponymName":"Spring Lake","countryId":"6252001","fcl":"H","population":0,"countryCode":"US","name":"Spring Lake","fclName":"stream, lake, ...","adminCodes1":{"ISO3166_2":"SD"},"countryName":"United States","fcodeName":"lake","adminName1":"South Dakota","lat":"44.2367","fcode":"LK"},{"adminCode1":"SD","lng":"-97.22484","geonameId":5232045,"toponymName":"Township of Spring Lake","countryId":"6252001","fcl":"A","population":0,"countryCode":"US","name":"Spring Lake Township","fclName":"country, state, region,...","adminCodes1":{"ISO3166_2":"SD"},"countryName":"United States","fcodeName":"third-order administrative division","adminName1":"South Dakota","lat":"44.26213","fcode":"ADM3"},{"adminCode1":"SD","lng":"-97.14534","geonameId":5232480,"toponymName":"Twin Lakes","countryId":"6252001","fcl":"H","population":0,"countryCode":"US","name":"Twin Lakes","fclName":"stream, lake, ...","adminCodes1":{"ISO3166_2":"SD"},"countryName":"United States","fcodeName":"lake","adminName1":"South Dakota","lat":"44.30191","fcode":"LK"},{"adminCode1":"SD","lng":"-97.37917","geonameId":5232922,"toponymName":"Township of Whitewood","countryId":"6252001","fcl":"A","population":0,"countryCode":"US","name":"Whitewood Township","fclName":"country, state, region,...","adminCodes1":{"ISO3166_2":"SD"},"countryName":"United States","fcodeName":"third-order administrative division","adminName1":"South Dakota","lat":"44.2483","fcode":"ADM3"},{"adminCode1":"SD","lng":"-97.55663","geonameId":5232948,"toponymName":"Wilder Airport","countryId":"6252001","fcl":"S","population":0,"countryCode":"US","name":"Wilder Airport","fclName":"spot, building, farm","adminCodes1":{"ISO3166_2":"SD"},"countryName":"United States","fcodeName":"airport","adminName1":"South Dakota","lat":"44.43363","fcode":"AIRP"},{"adminCode1":"SD","lng":"-97.15742","geonameId":5225903,"toponymName":"Lake Albert","countryId":"6252001","fcl":"H","population":0,"countryCode":"US","name":"Lake Albert","fclName":"stream, lake, ...","adminCodes1":{"ISO3166_2":"SD"},"countryName":"United States","fcodeName":"lake","adminName1":"South Dakota","lat":"44.53329","fcode":"LK"},{"adminCode1":"SD","lng":"-97.13436","geonameId":5226040,"toponymName":"City of Arlington","countryId":"6252001","fcl":"A","population":915,"countryCode":"US","name":"City of Arlington","fclName":"country, state, region,...","adminCodes1":{"ISO3166_2":"SD"},"countryName":"United States","fcodeName":"third-order administrative division","adminName1":"South Dakota","lat":"44.36354","fcode":"ADM3"},{"adminCode1":"SD","lng":"-97.32507","geonameId":5226049,"toponymName":"Arnold State Public Shooting Area","countryId":"6252001","fcl":"L","population":0,"countryCode":"US","name":"Arnold State Public Shooting Area","fclName":"parks,area, ...","adminCodes1":{"ISO3166_2":"SD"},"countryName":"United States","fcodeName":"park","adminName1":"South Dakota","lat":"44.51608","fcode":"PRK"},{"adminCode1":"SD","lng":"-97.20787","geonameId":5226114,"toponymName":"Town of Badger","countryId":"6252001","fcl":"A","population":107,"countryCode":"US","name":"Town of Badger","fclName":"country, state, region,...","adminCodes1":{"ISO3166_2":"SD"},"countryName":"United States","fcodeName":"third-order administrative division","adminName1":"South Dakota","lat":"44.4855","fcode":"ADM3"},{"adminCode1":"SD","lng":"-97.22252","geonameId":5226116,"toponymName":"Township of Badger","countryId":"6252001","fcl":"A","population":0,"countryCode":"US","name":"Badger Township","fclName":"country, state, region,...","adminCodes1":{"ISO3166_2":"SD"},"countryName":"United States","fcodeName":"third-order administrative division","adminName1":"South Dakota","lat":"44.49493","fcode":"ADM3"},{"adminCode1":"SD","lng":"-97.37831","geonameId":5226133,"toponymName":"Township of Baker","countryId":"6252001","fcl":"A","population":0,"countryCode":"US","name":"Baker Township","fclName":"country, state, region,...","adminCodes1":{"ISO3166_2":"SD"},"countryName":"United States","fcodeName":"third-order administrative division","adminName1":"South Dakota","lat":"44.37074","fcode":"ADM3"},{"adminCode1":"SD","lng":"-97.7505","geonameId":5226147,"toponymName":"Town of Bancroft","countryId":"6252001","fcl":"A","population":19,"countryCode":"US","name":"Town of Bancroft","fclName":"country, state, region,...","adminCodes1":{"ISO3166_2":"SD"},"countryName":"United States","fcodeName":"third-order administrative division","adminName1":"South Dakota","lat":"44.48937","fcode":"ADM3"},{"adminCode1":"SD","lng":"-97.52698","geonameId":5227241,"toponymName":"Township of De Smet","countryId":"6252001","fcl":"A","population":0,"countryCode":"US","name":"De Smet Township","fclName":"country, state, region,...","adminCodes1":{"ISO3166_2":"SD"},"countryName":"United States","fcodeName":"third-order administrative division","adminName1":"South Dakota","lat":"44.37698","fcode":"ADM3"},{"adminCode1":"SD","lng":"-97.54969","geonameId":5227254,"toponymName":"City of De Smet","countryId":"6252001","fcl":"A","population":1089,"countryCode":"US","name":"City of De Smet","fclName":"country, state, region,...","adminCodes1":{"ISO3166_2":"SD"},"countryName":"United States","fcodeName":"third-order administrative division","adminName1":"South Dakota","lat":"44.38615","fcode":"ADM3"},{"adminCode1":"SD","lng":"-97.20391","geonameId":5227286,"toponymName":"Township of Denver","countryId":"6252001","fcl":"A","population":0,"countryCode":"US","name":"Denver Township","fclName":"country, state, region,...","adminCodes1":{"ISO3166_2":"SD"},"countryName":"United States","fcodeName":"third-order administrative division","adminName1":"South Dakota","lat":"44.38594","fcode":"ADM3"},{"adminCode1":"SD","lng":"-97.44086","geonameId":5227647,"toponymName":"Town of Erwin","countryId":"6252001","fcl":"A","population":45,"countryCode":"US","name":"Town of Erwin","fclName":"country, state, region,...","adminCodes1":{"ISO3166_2":"SD"},"countryName":"United States","fcodeName":"third-order administrative division","adminName1":"South Dakota","lat":"44.48802","fcode":"ADM3"},{"adminCode1":"SD","lng":"-97.76119","geonameId":5227650,"toponymName":"Township of Esmond","countryId":"6252001","fcl":"A","population":0,"countryCode":"US","name":"Esmond Township","fclName":"country, state, region,...","adminCodes1":{"ISO3166_2":"SD"},"countryName":"United States","fcodeName":"third-order administrative division","adminName1":"South Dakota","lat":"44.25892","fcode":"ADM3"},{"adminCode1":"SD","lng":"-97.40041","geonameId":5228362,"toponymName":"Township of Hartland","countryId":"6252001","fcl":"A","population":0,"countryCode":"US","name":"Hartland Township","fclName":"country, state, region,...","adminCodes1":{"ISO3166_2":"SD"},"countryName":"United States","fcodeName":"third-order administrative division","adminName1":"South Dakota","lat":"44.4924","fcode":"ADM3"},{"adminCode1":"SD","lng":"-97.48542","geonameId":5228421,"toponymName":"Lake Henry","countryId":"6252001","fcl":"H","population":0,"countryCode":"US","name":"Lake Henry","fclName":"stream, lake, ...","adminCodes1":{"ISO3166_2":"SD"},"countryName":"United States","fcodeName":"lake","adminName1":"South Dakota","lat":"44.32823","fcode":"LK"},{"adminCode1":"SD","lng":"-97.23467","geonameId":5228437,"toponymName":"Town of Hetland","countryId":"6252001","fcl":"A","population":46,"countryCode":"US","name":"Town of Hetland","fclName":"country, state, region,...","adminCodes1":{"ISO3166_2":"SD"},"countryName":"United States","fcodeName":"third-order administrative division","adminName1":"South Dakota","lat":"44.37723","fcode":"ADM3"},{"adminCode1":"SD","lng":"-97.84953","geonameId":5228755,"toponymName":"City of Iroquois","countryId":"6252001","fcl":"A","population":266,"countryCode":"US","name":"City of Iroquois","fclName":"country, state, region,...","adminCodes1":{"ISO3166_2":"SD"},"countryName":"United States","fcodeName":"third-order administrative division","adminName1":"South Dakota","lat":"44.36786","fcode":"ADM3"},{"adminCode1":"SD","lng":"-97.8043","geonameId":5228756,"toponymName":"Township of Iroquois","countryId":"6252001","fcl":"A","population":0,"countryCode":"US","name":"Iroquois Township","fclName":"country, state, region,...","adminCodes1":{"ISO3166_2":"SD"},"countryName":"United States","fcodeName":"third-order administrative division","adminName1":"South Dakota","lat":"44.37984","fcode":"ADM3"},{"adminCode1":"SD","lng":"-97.37599","geonameId":5229177,"toponymName":"City of Lake Preston","countryId":"6252001","fcl":"A","population":599,"countryCode":"US","name":"City of Lake Preston","fclName":"country, state, region,...","adminCodes1":{"ISO3166_2":"SD"},"countryName":"United States","fcodeName":"third-order administrative division","adminName1":"South Dakota","lat":"44.36166","fcode":"ADM3"},{"adminCode1":"SD","lng":"-97.76325","geonameId":5229250,"toponymName":"Township of Le Sueur","countryId":"6252001","fcl":"A","population":0,"countryCode":"US","name":"Township of Le Sueur","fclName":"country, state, region,...","adminCodes1":{"ISO3166_2":"SD"},"countryName":"United States","fcodeName":"third-order administrative division","adminName1":"South Dakota","lat":"44.49267","fcode":"ADM3"},{"adminCode1":"SD","lng":"-97.68233","geonameId":5229544,"toponymName":"Township of Manchester","countryId":"6252001","fcl":"A","population":0,"countryCode":"US","name":"Manchester Township","fclName":"country, state, region,...","adminCodes1":{"ISO3166_2":"SD"},"countryName":"United States","fcodeName":"third-order administrative division","adminName1":"South Dakota","lat":"44.38313","fcode":"ADM3"},{"adminCode1":"SD","lng":"-97.57121","geonameId":5229596,"toponymName":"Township of Mathews","countryId":"6252001","fcl":"A","population":0,"countryCode":"US","name":"Township of Mathews","fclName":"country, state, region,...","adminCodes1":{"ISO3166_2":"SD"},"countryName":"United States","fcodeName":"third-order administrative division","adminName1":"South Dakota","lat":"44.25752","fcode":"ADM3"},{"adminCode1":"SD","lng":"-97.59051","geonameId":5229900,"toponymName":"Mud Lake","countryId":"6252001","fcl":"H","population":0,"countryCode":"US","name":"Mud Lake","fclName":"stream, lake, ...","adminCodes1":{"ISO3166_2":"SD"},"countryName":"United States","fcodeName":"lake","adminName1":"South Dakota","lat":"44.4794","fcode":"LK"},{"adminCode1":"NY","lng":"-73.58595","geonameId":5121513,"toponymName":"Hudson Falls","countryId":"6252001","fcl":"P","population":7191,"countryCode":"US","name":"Hudson Falls","fclName":"city, village,...","adminCodes1":{"ISO3166_2":"NY"},"countryName":"United States","fcodeName":"populated place","adminName1":"New York","lat":"43.30063","fcode":"PPL"},{"adminCode1":"OH","lng":"-82.0057","geonameId":4515941,"toponymName":"Kingsbury","countryId":"6252001","fcl":"P","population":0,"countryCode":"US","name":"Kingsbury","fclName":"city, village,...","adminCodes1":{"ISO3166_2":"OH"},"countryName":"United States","fcodeName":"populated place","adminName1":"Ohio","lat":"39.11147","fcode":"PPL"},{"adminCode1":"NY","lng":"-73.5315","geonameId":5123469,"toponymName":"Kingsbury","countryId":"6252001","fcl":"P","population":0,"countryCode":"US","name":"Kingsbury","fclName":"city, village,...","adminCodes1":{"ISO3166_2":"NY"},"countryName":"United States","fcodeName":"populated place","adminName1":"New York","lat":"43.36368","fcode":"PPL"},{"adminCode1":"WY","lng":"-105.76501","geonameId":5829651,"toponymName":"Kingsbury Oil Field","countryId":"6252001","fcl":"L","population":0,"countryCode":"US","name":"Kingsbury Oil Field","fclName":"parks,area, ...","adminCodes1":{"ISO3166_2":"WY"},"countryName":"United States","fcodeName":"oilfield","adminName1":"Wyoming","lat":"44.30638","fcode":"OILF"},{"adminCode1":"IN","lng":"-86.69735","geonameId":7164979,"toponymName":"Town of Kingsbury","countryId":"6252001","fcl":"A","population":242,"countryCode":"US","name":"Town of Kingsbury","fclName":"country, state, region,...","adminCodes1":{"ISO3166_2":"IN"},"countryName":"United States","fcodeName":"administrative division","adminName1":"Indiana","lat":"41.53023","fcode":"ADMD"},{"adminCode1":"CT","lng":"-71.81219","geonameId":4837334,"toponymName":"Kingsbury Pond","countryId":"6252001","fcl":"H","population":0,"countryCode":"US","name":"Kingsbury Pond","fclName":"stream, lake, ...","adminCodes1":{"ISO3166_2":"CT"},"countryName":"United States","fcodeName":"lake","adminName1":"Connecticut","lat":"41.99643","fcode":"LK"},{"adminCode1":"MA","lng":"-71.37332","geonameId":4941373,"toponymName":"Kingsbury Pond","countryId":"6252001","fcl":"H","population":0,"countryCode":"US","name":"Kingsbury Pond","fclName":"stream, lake, ...","adminCodes1":{"ISO3166_2":"MA"},"countryName":"United States","fcodeName":"lake","adminName1":"Massachusetts","lat":"42.1225","fcode":"LK"},{"adminCode1":"MA","lng":"-71.85229","geonameId":4941375,"toponymName":"Kingsbury Pond (historical)","countryId":"6252001","fcl":"H","population":0,"countryCode":"US","name":"Kingsbury Pond (historical)","fclName":"stream, lake, ...","adminCodes1":{"ISO3166_2":"MA"},"countryName":"United States","fcodeName":"lake","adminName1":"Massachusetts","lat":"42.0751","fcode":"LK"},{"adminCode1":"OH","lng":"-81.61374","geonameId":5159753,"toponymName":"Kingsbury Run Park","countryId":"6252001","fcl":"L","population":0,"countryCode":"US","name":"Kingsbury Run Park","fclName":"parks,area, ...","adminCodes1":{"ISO3166_2":"OH"},"countryName":"United States","fcodeName":"park","adminName1":"Ohio","lat":"41.46811","fcode":"PRK"},{"adminCode1":"IN","lng":"-86.66669","geonameId":4922326,"toponymName":"Kingsbury Industrial Park","countryId":"6252001","fcl":"L","population":0,"countryCode":"US","name":"Kingsbury Industrial Park","fclName":"parks,area, ...","adminCodes1":{"ISO3166_2":"IN"},"countryName":"United States","fcodeName":"industrial area","adminName1":"Indiana","lat":"41.50838","fcode":"INDS"},{"adminCode1":"MI","lng":"-83.40667","geonameId":8096829,"toponymName":"Kingsbury Park","countryId":"6252001","fcl":"L","population":0,"countryCode":"US","name":"Kingsbury Park","fclName":"parks,area, ...","adminCodes1":{"ISO3166_2":"MI"},"countryName":"United States","fcodeName":"park","adminName1":"Michigan","lat":"42.40472","fcode":"PRK"},{"adminCode1":"SD","lng":"-97.57091","geonameId":5227238,"toponymName":"De Smet Cemetery","countryId":"6252001","fcl":"S","population":0,"countryCode":"US","name":"De Smet Cemetery","fclName":"spot, building, farm","adminCodes1":{"ISO3166_2":"SD"},"countryName":"United States","fcodeName":"cemetery","adminName1":"South Dakota","lat":"44.3683","fcode":"CMTY"},{"adminCode1":"SD","lng":"-97.82792","geonameId":5229156,"toponymName":"Lake Iroquois","countryId":"6252001","fcl":"H","population":0,"countryCode":"US","name":"Lake Iroquois","fclName":"stream, lake, ...","adminCodes1":{"ISO3166_2":"SD"},"countryName":"United States","fcodeName":"reservoir(s)","adminName1":"South Dakota","lat":"44.35154","fcode":"RSV"},{"adminCode1":"SD","lng":"-97.3833","geonameId":5229176,"toponymName":"Lake Preston Municipal Airport","countryId":"6252001","fcl":"S","population":0,"countryCode":"US","name":"Lake Preston Municipal Airport","fclName":"spot, building, farm","adminCodes1":{"ISO3166_2":"SD"},"countryName":"United States","fcodeName":"airport","adminName1":"South Dakota","lat":"44.35732","fcode":"AIRP"},{"adminCode1":"MN","lng":"-92.18158","geonameId":5033302,"toponymName":"Kingsbury Creek","countryId":"6252001","fcl":"H","population":0,"countryCode":"US","name":"Kingsbury Creek","fclName":"stream, lake, ...","adminCodes1":{"ISO3166_2":"MN"},"countryName":"United States","fcodeName":"stream","adminName1":"Minnesota","lat":"46.72411","fcode":"STM"},{"adminCode1":"SD","lng":"-97.22303","geonameId":8081617,"toponymName":"Andersen Farms Airport","countryId":"6252001","fcl":"S","population":0,"countryCode":"US","name":"Andersen Farms Airport","fclName":"spot, building, farm","adminCodes1":{"ISO3166_2":"SD"},"countryName":"United States","fcodeName":"airport","adminName1":"South Dakota","lat":"44.46831","fcode":"AIRP"},{"adminCode1":"SD","lng":"-97.60783","geonameId":8081618,"toponymName":"Lee Airport","countryId":"6252001","fcl":"S","population":0,"countryCode":"US","name":"Lee Airport","fclName":"spot, building, farm","adminCodes1":{"ISO3166_2":"SD"},"countryName":"United States","fcodeName":"airport","adminName1":"South Dakota","lat":"44.21844","fcode":"AIRP"},{"adminCode1":"CA","lng":"-123.17475","geonameId":5566321,"toponymName":"Kingsbury Gulch","countryId":"6252001","fcl":"T","population":0,"countryCode":"US","name":"Kingsbury Gulch","fclName":"mountain,hill,rock,... ","adminCodes1":{"ISO3166_2":"CA"},"countryName":"United States","fcodeName":"valley","adminName1":"California","lat":"40.54014","fcode":"VAL"},{"adminCode1":"NY","lng":"-73.53955","geonameId":5123470,"toponymName":"Town of Kingsbury","countryId":"6252001","fcl":"A","population":12561,"countryCode":"US","name":"Town of Kingsbury","fclName":"country, state, region,...","adminCodes1":{"ISO3166_2":"NY"},"countryName":"United States","fcodeName":"third-order administrative division","adminName1":"New York","lat":"43.344","fcode":"ADM3"},{"adminCode1":"WY","lng":"-106.7381","geonameId":5829645,"toponymName":"Kingsbury Ridge","countryId":"6252001","fcl":"T","population":0,"countryCode":"US","name":"Kingsbury Ridge","fclName":"mountain,hill,rock,... ","adminCodes1":{"ISO3166_2":"WY"},"countryName":"United States","fcodeName":"ridge(s)","adminName1":"Wyoming","lat":"44.24192","fcode":"RDGE"},{"adminCode1":"VT","lng":"-72.58205","geonameId":5237717,"toponymName":"Kingsbury Covered Bridge","countryId":"6252001","fcl":"S","population":0,"countryCode":"US","name":"Kingsbury Covered Bridge","fclName":"spot, building, farm","adminCodes1":{"ISO3166_2":"VT"},"countryName":"United States","fcodeName":"bridge","adminName1":"Vermont","lat":"43.8809","fcode":"BDG"},{"adminCode1":"NV","lng":"-119.9149","geonameId":5506727,"toponymName":"Kingsbury Canyon","countryId":"6252001","fcl":"T","population":0,"countryCode":"US","name":"Kingsbury Canyon","fclName":"mountain,hill,rock,... ","adminCodes1":{"ISO3166_2":"NV"},"countryName":"United States","fcodeName":"valley","adminName1":"Nevada","lat":"38.9663","fcode":"VAL"},{"adminCode1":"TX","lng":"-97.81068","geonameId":8113096,"toponymName":"Old Kingsbury Aerodrome","countryId":"6252001","fcl":"S","population":0,"countryCode":"US","name":"Old Kingsbury Aerodrome","fclName":"spot, building, farm","adminCodes1":{"ISO3166_2":"TX"},"countryName":"United States","fcodeName":"airport","adminName1":"Texas","lat":"29.63355","fcode":"AIRP"},{"adminCode1":"MA","lng":"-71.85229","geonameId":4941378,"toponymName":"Kingsburys Pond","countryId":"6252001","fcl":"H","population":0,"countryCode":"US","name":"Kingsburys Pond","fclName":"stream, lake, ...","adminCodes1":{"ISO3166_2":"MA"},"countryName":"United States","fcodeName":"lake","adminName1":"Massachusetts","lat":"42.0751","fcode":"LK"},{"adminCode1":"NY","lng":"-73.47854","geonameId":8081415,"toponymName":"Mountain View Airport","countryId":"6252001","fcl":"S","population":0,"countryCode":"US","name":"Mountain View Airport","fclName":"spot, building, farm","adminCodes1":{"ISO3166_2":"NY"},"countryName":"United States","fcodeName":"airport","adminName1":"New York","lat":"43.34271","fcode":"AIRP"},{"adminCode1":"SD","lng":"-97.44202","geonameId":5232594,"toponymName":"Vermillion Flats","countryId":"6252001","fcl":"T","population":0,"countryCode":"US","name":"Vermillion Flats","fclName":"mountain,hill,rock,... ","adminCodes1":{"ISO3166_2":"SD"},"countryName":"United States","fcodeName":"plain(s)","adminName1":"South Dakota","lat":"44.23108","fcode":"PLN"},{"adminCode1":"SD","lng":"-97.13312","geonameId":5227285,"toponymName":"Arlington Post Office","countryId":"6252001","fcl":"S","population":0,"countryCode":"US","name":"Arlington Post Office","fclName":"spot, building, farm","adminCodes1":{"ISO3166_2":"SD"},"countryName":"United States","fcodeName":"post office","adminName1":"South Dakota","lat":"44.36441","fcode":"PO"},{"adminCode1":"SD","lng":"-97.30702","geonameId":5229175,"toponymName":"Lake Preston Lakebed","countryId":"6252001","fcl":"T","population":0,"countryCode":"US","name":"Lake Preston Lakebed","fclName":"mountain,hill,rock,... ","adminCodes1":{"ISO3166_2":"SD"},"countryName":"United States","fcodeName":"plain(s)","adminName1":"South Dakota","lat":"44.37719","fcode":"PLN"},{"adminCode1":"SD","lng":"-97.17577","geonameId":8498906,"toponymName":"Spring Lake Colony","countryId":"6252001","fcl":"P","population":0,"countryCode":"US","name":"Spring Lake Colony","fclName":"city, village,...","adminCodes1":{"ISO3166_2":"SD"},"countryName":"United States","fcodeName":"populated place","adminName1":"South Dakota","lat":"44.23631","fcode":"PPL"},{"adminCode1":"ME","lng":"-69.64922","geonameId":4968909,"toponymName":"Kingsbury","countryId":"6252001","fcl":"P","population":9,"countryCode":"US","name":"Kingsbury","fclName":"city, village,...","adminCodes1":{"ISO3166_2":"ME"},"countryName":"United States","fcodeName":"populated place","adminName1":"Maine","lat":"45.1195","fcode":"PPL"},{"adminCode1":"PA","lng":"-76.27355","geonameId":5196238,"toponymName":"Kingsbury Brook","countryId":"6252001","fcl":"H","population":0,"countryCode":"US","name":"Kingsbury Brook","fclName":"stream, lake, ...","adminCodes1":{"ISO3166_2":"PA"},"countryName":"United States","fcodeName":"stream","adminName1":"Pennsylvania","lat":"41.13397","fcode":"STM"},{"adminCode1":"OH","lng":"-81.6768","geonameId":5159750,"toponymName":"Kingsbury Run","countryId":"6252001","fcl":"H","population":0,"countryCode":"US","name":"Kingsbury Run","fclName":"stream, lake, ...","adminCodes1":{"ISO3166_2":"OH"},"countryName":"United States","fcodeName":"stream","adminName1":"Ohio","lat":"41.48116","fcode":"STM"},{"adminCode1":"NY","lng":"-73.564","geonameId":5142252,"toponymName":"Vaughns Corners","countryId":"6252001","fcl":"P","population":0,"countryCode":"US","name":"Vaughns Corners","fclName":"city, village,...","adminCodes1":{"ISO3166_2":"NY"},"countryName":"United States","fcodeName":"populated place","adminName1":"New York","lat":"43.37202","fcode":"PPL"},{"adminCode1":"OR","lng":"-118.12741","geonameId":5735111,"toponymName":"Kingsbury Gulch","countryId":"6252001","fcl":"T","population":0,"countryCode":"US","name":"Kingsbury Gulch","fclName":"mountain,hill,rock,... ","adminCodes1":{"ISO3166_2":"OR"},"countryName":"United States","fcodeName":"valley","adminName1":"Oregon","lat":"43.77238","fcode":"VAL"},{"adminCode1":"MT","lng":"-112.48755","geonameId":5660847,"toponymName":"Kingsbury Colony","countryId":"6252001","fcl":"P","population":0,"countryCode":"US","name":"Kingsbury Colony","fclName":"city, village,...","adminCodes1":{"ISO3166_2":"MT"},"countryName":"United States","fcodeName":"populated place","adminName1":"Montana","lat":"48.30275","fcode":"PPL"},{"adminCode1":"VA","lng":"-78.94253","geonameId":4767878,"toponymName":"Kingsbury Manor","countryId":"6252001","fcl":"P","population":0,"countryCode":"US","name":"Kingsbury Manor","fclName":"city, village,...","adminCodes1":{"ISO3166_2":"VA"},"countryName":"United States","fcodeName":"populated place","adminName1":"Virginia","lat":"38.08763","fcode":"PPL"},{"adminCode1":"NV","lng":"-119.91907","geonameId":5506728,"toponymName":"Kingsbury Meadows","countryId":"6252001","fcl":"P","population":0,"countryCode":"US","name":"Kingsbury Meadows","fclName":"city, village,...","adminCodes1":{"ISO3166_2":"NV"},"countryName":"United States","fcodeName":"populated place","adminName1":"Nevada","lat":"38.97352","fcode":"PPL"},{"adminCode1":"NV","lng":"-119.89268","geonameId":5506729,"toponymName":"Kingsbury Village","countryId":"6252001","fcl":"P","population":0,"countryCode":"US","name":"Kingsbury Village","fclName":"city, village,...","adminCodes1":{"ISO3166_2":"NV"},"countryName":"United States","fcodeName":"populated place","adminName1":"Nevada","lat":"38.98546","fcode":"PPL"},{"adminCode1":"AZ","lng":"-112.92824","geonameId":5301082,"toponymName":"Kingsbury Mountain","countryId":"6252001","fcl":"T","population":0,"countryCode":"US","name":"Kingsbury Mountain","fclName":"mountain,hill,rock,... ","adminCodes1":{"ISO3166_2":"AZ"},"countryName":"United States","fcodeName":"mountain","adminName1":"Arizona","lat":"34.45586","fcode":"MT"},{"adminCode1":"MA","lng":"-70.00446","geonameId":4941370,"toponymName":"Kingsbury Beach","countryId":"6252001","fcl":"T","population":0,"countryCode":"US","name":"Kingsbury Beach","fclName":"mountain,hill,rock,... ","adminCodes1":{"ISO3166_2":"MA"},"countryName":"United States","fcodeName":"beach","adminName1":"Massachusetts","lat":"41.83733","fcode":"BCH"},{"adminCode1":"MA","lng":"-70.00363","geonameId":4941371,"toponymName":"Kingsbury Beach","countryId":"6252001","fcl":"P","population":0,"countryCode":"US","name":"Kingsbury Beach","fclName":"city, village,...","adminCodes1":{"ISO3166_2":"MA"},"countryName":"United States","fcodeName":"populated place","adminName1":"Massachusetts","lat":"41.83761","fcode":"PPL"},{"adminCode1":"MA","lng":"-73.14261","geonameId":4941372,"toponymName":"Kingsbury Mountain","countryId":"6252001","fcl":"T","population":0,"countryCode":"US","name":"Kingsbury Mountain","fclName":"mountain,hill,rock,... ","adminCodes1":{"ISO3166_2":"MA"},"countryName":"United States","fcodeName":"mountain","adminName1":"Massachusetts","lat":"42.21814","fcode":"MT"},{"adminCode1":"MT","lng":"-111.7322","geonameId":5660840,"toponymName":"Kingsberry Gulch","countryId":"6252001","fcl":"T","population":0,"countryCode":"US","name":"Kingsberry Gulch","fclName":"mountain,hill,rock,... ","adminCodes1":{"ISO3166_2":"MT"},"countryName":"United States","fcodeName":"valley","adminName1":"Montana","lat":"46.71383","fcode":"VAL"},{"adminCode1":"ME","lng":"-69.54417","geonameId":4974002,"toponymName":"Oak Hill","countryId":"6252001","fcl":"T","population":0,"countryCode":"US","name":"Oak Hill","fclName":"mountain,hill,rock,... ","adminCodes1":{"ISO3166_2":"ME"},"countryName":"United States","fcodeName":"mountain","adminName1":"Maine","lat":"45.15792","fcode":"MT"}]}
