{"totalResultsCount":184,"geonames":[{"adminCode1":"NC","lng":"-81.40176","geonameId":4474370,"toponymName":"Kings Creek","countryId":"6252001","fcl":"P","population":0,"countryCode":"US","name":"Kings Creek","fclName":"city, village,...","adminCodes1":{"ISO3166_2":"NC"},"countryName":"United States","fcodeName":"populated place","adminName1":"North Carolina","lat":"35.99235","fcode":"PPL"},{"adminCode1":"NC","lng":"-81.41253","geonameId":4474378,"toponymName":"Township of Kings Creek","countryId":"6252001","fcl":"A","population":0,"countryCode":"US","name":"Kings Creek Township","fclName":"country, state, region,...","adminCodes1":{"ISO3166_2":"NC"},"countryName":"United States","fcodeName":"third-order administrative division","adminName1":"North Carolina","lat":"36.00965","fcode":"ADM3"},{"adminCode1":"NV","lng":"-118.32349","geonameId":5701569,"toponymName":"Bilk Creek Mountains","countryId":"6252001","fcl":"T","population":0,"countryCode":"US","name":"Bilk Creek Mountains","fclName":"mountain,hill,rock,... ","adminCodes1":{"ISO3166_2":"NV"},"countryName":"United States","fcodeName":"mountains","adminName1":"Nevada","lat":"41.67434","fcode":"MTS"},{"adminCode1":"WV","lng":"-80.59618","geonameId":5280412,"toponymName":"Kings Creek","countryId":"6252001","fcl":"P","population":0,"countryCode":"US","name":"Kings Creek","fclName":"city, village,...","adminCodes1":{"ISO3166_2":"WV"},"countryName":"United States","fcodeName":"populated place","adminName1":"West Virginia","lat":"40.44812","fcode":"PPL"},{"adminCode1":"SC","lng":"-81.43675","geonameId":4584085,"toponymName":"Kings Creek","countryId":"6252001","fcl":"P","population":0,"countryCode":"US","name":"Kings Creek","fclName":"city, village,...","adminCodes1":{"ISO3166_2":"SC"},"countryName":"United States","fcodeName":"populated place","adminName1":"South Carolina","lat":"35.07402","fcode":"PPL"},{"adminCode1":"MD","lng":"-75.72937","geonameId":4359939,"toponymName":"Kings Creek","countryId":"6252001","fcl":"H","population":0,"countryCode":"US","name":"Kings Creek","fclName":"stream, lake, ...","adminCodes1":{"ISO3166_2":"MD"},"countryName":"United States","fcodeName":"stream","adminName1":"Maryland","lat":"38.17068","fcode":"STM"},{"adminCode1":"OH","lng":"-83.78743","geonameId":5159739,"toponymName":"Kings Creek","countryId":"6252001","fcl":"H","population":0,"countryCode":"US","name":"Kings Creek","fclName":"stream, lake, ...","adminCodes1":{"ISO3166_2":"OH"},"countryName":"United States","fcodeName":"stream","adminName1":"Ohio","lat":"40.15645","fcode":"STM"},{"adminCode1":"OH","lng":"-83.72493","geonameId":5159831,"toponymName":"Kingscreek","countryId":"6252001","fcl":"P","population":0,"countryCode":"US","name":"Kingscreek","fclName":"city, village,...","adminCodes1":{"ISO3166_2":"OH"},"countryName":"United States","fcodeName":"populated place","adminName1":"Ohio","lat":"40.16117","fcode":"PPL"},{"adminCode1":"CA","lng":"-120.07458","geonameId":5325333,"toponymName":"Avenal Creek","countryId":"6252001","fcl":"H","population":0,"countryCode":"US","name":"Avenal Creek","fclName":"stream, lake, ...","adminCodes1":{"ISO3166_2":"CA"},"countryName":"United States","fcodeName":"stream","adminName1":"California","lat":"35.77496","fcode":"STM"},{"adminCode1":"NY","lng":"-73.96292","geonameId":5128712,"toponymName":"Newtown Creek","countryId":"6252001","fcl":"H","population":0,"countryCode":"US","name":"Newtown Creek","fclName":"stream, lake, ...","adminCodes1":{"ISO3166_2":"NY"},"countryName":"United States","fcodeName":"stream","adminName1":"New York","lat":"40.73621","fcode":"STM"},{"adminCode1":"NY","lng":"-73.88611","geonameId":7159668,"toponymName":"Fresh Creek Nature Preserve","countryId":"6252001","fcl":"L","population":0,"countryCode":"US","name":"Fresh Creek Nature Preserve","fclName":"parks,area, ...","adminCodes1":{"ISO3166_2":"NY"},"countryName":"United States","fcodeName":"park","adminName1":"New York","lat":"40.64583","fcode":"PRK"},{"adminCode1":"NY","lng":"-73.8768","geonameId":5139252,"toponymName":"Spring Creek Park","countryId":"6252001","fcl":"L","population":0,"countryCode":"US","name":"Spring Creek Park","fclName":"parks,area, ...","adminCodes1":{"ISO3166_2":"NY"},"countryName":"United States","fcodeName":"park","adminName1":"New York","lat":"40.64094","fcode":"PRK"},{"adminCode1":"NY","lng":"-73.8746","geonameId":11838943,"toponymName":"Spring Creek","countryId":"6252001","fcl":"P","population":0,"countryCode":"US","name":"Spring Creek","fclName":"city, village,...","adminCodes1":{"ISO3166_2":"NY"},"countryName":"United States","fcodeName":"section of populated place","adminName1":"New York","lat":"40.65873","fcode":"PPLX"},{"adminCode1":"AK","lng":"-148.75361","geonameId":5866360,"toponymName":"Kings River","countryId":"6252001","fcl":"H","population":0,"countryCode":"US","name":"Kings River","fclName":"stream, lake, ...","adminCodes1":{"ISO3166_2":"AK"},"countryName":"United States","fcodeName":"stream","adminName1":"Alaska","lat":"61.73306","fcode":"STM"},{"adminCode1":"CA","lng":"-121.45109","geonameId":5567324,"toponymName":"Lower Kings Creek Meadow","countryId":"6252001","fcl":"T","population":0,"countryCode":"US","name":"Lower Kings Creek Meadow","fclName":"mountain,hill,rock,... ","adminCodes1":{"ISO3166_2":"CA"},"countryName":"United States","fcodeName":"plain(s)","adminName1":"California","lat":"40.45822","fcode":"PLN"},{"adminCode1":"VA","lng":"-76.95664","geonameId":4772033,"toponymName":"Mattox Creek","countryId":"6252001","fcl":"H","population":0,"countryCode":"US","name":"Mattox Creek","fclName":"stream, lake, ...","adminCodes1":{"ISO3166_2":"VA"},"countryName":"United States","fcodeName":"stream","adminName1":"Virginia","lat":"38.21152","fcode":"STM"},{"adminCode1":"CA","lng":"-121.46776","geonameId":5573172,"toponymName":"Upper Kings Creek Meadow","countryId":"6252001","fcl":"T","population":0,"countryCode":"US","name":"Upper Kings Creek Meadow","fclName":"mountain,hill,rock,... ","adminCodes1":{"ISO3166_2":"CA"},"countryName":"United States","fcodeName":"plain(s)","adminName1":"California","lat":"40.46099","fcode":"PLN"},{"adminCode1":"SC","lng":"-81.55983","geonameId":4584124,"toponymName":"Kings Creek Church","countryId":"6252001","fcl":"S","population":0,"countryCode":"US","name":"Kings Creek Church","fclName":"spot, building, farm","adminCodes1":{"ISO3166_2":"SC"},"countryName":"United States","fcodeName":"church","adminName1":"South Carolina","lat":"34.40347","fcode":"CH"},{"adminCode1":"VA","lng":"-76.0141","geonameId":4767835,"toponymName":"Kings Creek","countryId":"6252001","fcl":"H","population":0,"countryCode":"US","name":"Kings Creek","fclName":"stream, lake, ...","adminCodes1":{"ISO3166_2":"VA"},"countryName":"United States","fcodeName":"stream","adminName1":"Virginia","lat":"37.28153","fcode":"STM"},{"adminCode1":"VA","lng":"-76.85469","geonameId":4773089,"toponymName":"Mill Creek","countryId":"6252001","fcl":"H","population":0,"countryCode":"US","name":"Mill Creek","fclName":"stream, lake, ...","adminCodes1":{"ISO3166_2":"VA"},"countryName":"United States","fcodeName":"stream","adminName1":"Virginia","lat":"37.86847","fcode":"STM"},{"adminCode1":"VA","lng":"-75.63021","geonameId":4779326,"toponymName":"Pitts Creek","countryId":"6252001","fcl":"H","population":0,"countryCode":"US","name":"Pitts Creek","fclName":"stream, lake, ...","adminCodes1":{"ISO3166_2":"VA"},"countryName":"United States","fcodeName":"stream","adminName1":"Virginia","lat":"37.98068","fcode":"STM"},{"adminCode1":"MD","lng":"-75.68965","geonameId":4359938,"toponymName":"Kings Creek","countryId":"6252001","fcl":"S","population":0,"countryCode":"US","name":"Kings Creek","fclName":"spot, building, farm","adminCodes1":{"ISO3166_2":"MD"},"countryName":"United States","fcodeName":"","adminName1":"Maryland","lat":"38.16262"},{"adminCode1":"AL","lng":"-87.35695","geonameId":4079846,"toponymName":"New Jagger","countryId":"6252001","fcl":"P","population":0,"countryCode":"US","name":"New Jagger","fclName":"city, village,...","adminCodes1":{"ISO3166_2":"AL"},"countryName":"United States","fcodeName":"populated place","adminName1":"Alabama","lat":"33.81539","fcode":"PPL"},{"adminCode1":"NY","lng":"-73.88028","geonameId":7187708,"toponymName":"Spring Creek Towers","countryId":"6252001","fcl":"P","population":0,"countryCode":"US","name":"Spring Creek Towers","fclName":"city, village,...","adminCodes1":{"ISO3166_2":"NY"},"countryName":"United States","fcodeName":"populated place","adminName1":"New York","lat":"40.64833","fcode":"PPL"},{"adminCode1":"NY","lng":"-73.98986","geonameId":5113486,"toponymName":"Coney Island Creek","countryId":"6252001","fcl":"H","population":0,"countryCode":"US","name":"Coney Island Creek","fclName":"stream, lake, ...","adminCodes1":{"ISO3166_2":"NY"},"countryName":"United States","fcodeName":"stream","adminName1":"New York","lat":"40.57983","fcode":"STM"},{"adminCode1":"NY","lng":"-73.9093","geonameId":5118464,"toponymName":"Gerritsen Creek","countryId":"6252001","fcl":"H","population":0,"countryCode":"US","name":"Gerritsen Creek","fclName":"stream, lake, ...","adminCodes1":{"ISO3166_2":"NY"},"countryName":"United States","fcodeName":"stream","adminName1":"New York","lat":"40.58344","fcode":"STM"},{"adminCode1":"AR","lng":"-93.99798","geonameId":4135269,"toponymName":"War Eagle Creek","countryId":"6252001","fcl":"H","population":0,"countryCode":"US","name":"War Eagle Creek","fclName":"stream, lake, ...","adminCodes1":{"ISO3166_2":"AR"},"countryName":"United States","fcodeName":"stream","adminName1":"Arkansas","lat":"36.2298","fcode":"STM"},{"adminCode1":"SC","lng":"-83.11126","geonameId":4584090,"toponymName":"Kings Creek Falls","countryId":"6252001","fcl":"H","population":0,"countryCode":"US","name":"Kings Creek Falls","fclName":"stream, lake, ...","adminCodes1":{"ISO3166_2":"SC"},"countryName":"United States","fcodeName":"overfalls","adminName1":"South Carolina","lat":"34.9662","fcode":"OVF"},{"adminCode1":"NY","lng":"-73.99792","geonameId":5118959,"toponymName":"Gowanus Canal","countryId":"6252001","fcl":"H","population":0,"countryCode":"US","name":"Gowanus Canal","fclName":"stream, lake, ...","adminCodes1":{"ISO3166_2":"NY"},"countryName":"United States","fcodeName":"canal","adminName1":"New York","lat":"40.6726","fcode":"CNL"},{"adminCode1":"KY","lng":"-82.91461","geonameId":4297057,"toponymName":"Kings Creek","countryId":"6252001","fcl":"P","population":0,"countryCode":"US","name":"Kings Creek","fclName":"city, village,...","adminCodes1":{"ISO3166_2":"KY"},"countryName":"United States","fcodeName":"populated place","adminName1":"Kentucky","lat":"37.05176","fcode":"PPL"},{"adminCode1":"CA","lng":"-119.56124","geonameId":5373014,"toponymName":"Mill Creek","countryId":"6252001","fcl":"H","population":0,"countryCode":"US","name":"Mill Creek","fclName":"stream, lake, ...","adminCodes1":{"ISO3166_2":"CA"},"countryName":"United States","fcodeName":"stream","adminName1":"California","lat":"36.26384","fcode":"STM"},{"adminCode1":"CA","lng":"-122.13413","geonameId":5363398,"toponymName":"Kings Creek","countryId":"6252001","fcl":"H","population":0,"countryCode":"US","name":"Kings Creek","fclName":"stream, lake, ...","adminCodes1":{"ISO3166_2":"CA"},"countryName":"United States","fcodeName":"stream","adminName1":"California","lat":"37.15522","fcode":"STM"},{"adminCode1":"CA","lng":"-119.74624","geonameId":5375979,"toponymName":"Mussel Slough","countryId":"6252001","fcl":"H","population":0,"countryCode":"US","name":"Mussel Slough","fclName":"stream, lake, ...","adminCodes1":{"ISO3166_2":"CA"},"countryName":"United States","fcodeName":"inlet","adminName1":"California","lat":"36.24384","fcode":"INLT"},{"adminCode1":"NV","lng":"-119.78268","geonameId":5506725,"toponymName":"Kings Canyon Creek","countryId":"6252001","fcl":"H","population":0,"countryCode":"US","name":"Kings Canyon Creek","fclName":"stream, lake, ...","adminCodes1":{"ISO3166_2":"NV"},"countryName":"United States","fcodeName":"stream","adminName1":"Nevada","lat":"39.16408","fcode":"STM"},{"adminCode1":"SC","lng":"-81.48815","geonameId":4584086,"toponymName":"Kings Creek","countryId":"6252001","fcl":"H","population":0,"countryCode":"US","name":"Kings Creek","fclName":"stream, lake, ...","adminCodes1":{"ISO3166_2":"SC"},"countryName":"United States","fcodeName":"stream","adminName1":"South Carolina","lat":"35.02819","fcode":"STM"},{"adminCode1":"GA","lng":"-85.42051","geonameId":4203963,"toponymName":"Kings Creek","countryId":"6252001","fcl":"H","population":0,"countryCode":"US","name":"Kings Creek","fclName":"stream, lake, ...","adminCodes1":{"ISO3166_2":"GA"},"countryName":"United States","fcodeName":"stream","adminName1":"Georgia","lat":"34.23343","fcode":"STM"},{"adminCode1":"NC","lng":"-81.32399","geonameId":4474366,"toponymName":"Kings Creek","countryId":"6252001","fcl":"P","population":0,"countryCode":"US","name":"Kings Creek","fclName":"city, village,...","adminCodes1":{"ISO3166_2":"NC"},"countryName":"United States","fcodeName":"populated place","adminName1":"North Carolina","lat":"36.53068","fcode":"PPL"},{"adminCode1":"AK","lng":"-148.71056","geonameId":5878525,"toponymName":"Young Creek","countryId":"6252001","fcl":"H","population":0,"countryCode":"US","name":"Young Creek","fclName":"stream, lake, ...","adminCodes1":{"ISO3166_2":"AK"},"countryName":"United States","fcodeName":"stream","adminName1":"Alaska","lat":"61.74722","fcode":"STM"},{"adminCode1":"MS","lng":"-89.05062","geonameId":4432361,"toponymName":"King Creek","countryId":"6252001","fcl":"H","population":0,"countryCode":"US","name":"King Creek","fclName":"stream, lake, ...","adminCodes1":{"ISO3166_2":"MS"},"countryName":"United States","fcodeName":"stream","adminName1":"Mississippi","lat":"34.46566","fcode":"STM"},{"adminCode1":"KY","lng":"-82.33653","geonameId":4308460,"toponymName":"Sims Creek","countryId":"6252001","fcl":"H","population":0,"countryCode":"US","name":"Sims Creek","fclName":"stream, lake, ...","adminCodes1":{"ISO3166_2":"KY"},"countryName":"United States","fcodeName":"stream","adminName1":"Kentucky","lat":"37.40038","fcode":"STM"},{"adminCode1":"TN","lng":"-84.67355","geonameId":4634577,"toponymName":"King Creek (historical)","countryId":"6252001","fcl":"P","population":0,"countryCode":"US","name":"King Creek (historical)","fclName":"city, village,...","adminCodes1":{"ISO3166_2":"TN"},"countryName":"United States","fcodeName":"abandoned populated place","adminName1":"Tennessee","lat":"35.81813","fcode":"PPLQ"},{"adminCode1":"NY","lng":"-73.87541","geonameId":5118000,"toponymName":"Fresh Creek","countryId":"6252001","fcl":"H","population":0,"countryCode":"US","name":"Fresh Creek","fclName":"stream, lake, ...","adminCodes1":{"ISO3166_2":"NY"},"countryName":"United States","fcodeName":"stream","adminName1":"New York","lat":"40.63594","fcode":"STM"},{"adminCode1":"TX","lng":"-96.18886","geonameId":4703350,"toponymName":"Kings Creek","countryId":"6252001","fcl":"H","population":0,"countryCode":"US","name":"Kings Creek","fclName":"stream, lake, ...","adminCodes1":{"ISO3166_2":"TX"},"countryName":"United States","fcodeName":"stream","adminName1":"Texas","lat":"32.38348","fcode":"STM"},{"adminCode1":"OH","lng":"-83.72493","geonameId":5159741,"toponymName":"Kings Creek Post Office (historical)","countryId":"6252001","fcl":"S","population":0,"countryCode":"US","name":"Kings Creek Post Office (historical)","fclName":"spot, building, farm","adminCodes1":{"ISO3166_2":"OH"},"countryName":"United States","fcodeName":"post office","adminName1":"Ohio","lat":"40.16117","fcode":"PO"},{"adminCode1":"MD","lng":"-75.95272","geonameId":4359974,"toponymName":"Kings Creek Church","countryId":"6252001","fcl":"S","population":0,"countryCode":"US","name":"Kings Creek Church","fclName":"spot, building, farm","adminCodes1":{"ISO3166_2":"MD"},"countryName":"United States","fcodeName":"church","adminName1":"Maryland","lat":"38.81678","fcode":"CH"},{"adminCode1":"VA","lng":"-76.71802","geonameId":4745634,"toponymName":"Barnes Creek","countryId":"6252001","fcl":"H","population":0,"countryCode":"US","name":"Barnes Creek","fclName":"stream, lake, ...","adminCodes1":{"ISO3166_2":"VA"},"countryName":"United States","fcodeName":"stream","adminName1":"Virginia","lat":"38.11207","fcode":"STM"},{"adminCode1":"MO","lng":"-90.73512","geonameId":4401793,"toponymName":"Old Kings Lake Creek","countryId":"6252001","fcl":"H","population":0,"countryCode":"US","name":"Old Kings Lake Creek","fclName":"stream, lake, ...","adminCodes1":{"ISO3166_2":"MO"},"countryName":"United States","fcodeName":"stream","adminName1":"Missouri","lat":"39.08172","fcode":"STM"},{"adminCode1":"NC","lng":"-81.44871","geonameId":4489122,"toponymName":"Round Top","countryId":"6252001","fcl":"T","population":0,"countryCode":"US","name":"Round Top","fclName":"mountain,hill,rock,... ","adminCodes1":{"ISO3166_2":"NC"},"countryName":"United States","fcodeName":"mountain","adminName1":"North Carolina","lat":"36.0418","fcode":"MT"},{"adminCode1":"NC","lng":"-81.4262","geonameId":4458379,"toponymName":"Butte Mountain","countryId":"6252001","fcl":"T","population":0,"countryCode":"US","name":"Butte Mountain","fclName":"mountain,hill,rock,... ","adminCodes1":{"ISO3166_2":"NC"},"countryName":"United States","fcodeName":"mountain","adminName1":"North Carolina","lat":"36.02569","fcode":"MT"},{"adminCode1":"NC","lng":"-81.45871","geonameId":4498626,"toponymName":"White Mountain","countryId":"6252001","fcl":"T","population":0,"countryCode":"US","name":"White Mountain","fclName":"mountain,hill,rock,... ","adminCodes1":{"ISO3166_2":"NC"},"countryName":"United States","fcodeName":"mountain","adminName1":"North Carolina","lat":"36.01096","fcode":"MT"},{"adminCode1":"NC","lng":"-81.41593","geonameId":4468569,"toponymName":"Grandin","countryId":"6252001","fcl":"P","population":0,"countryCode":"US","name":"Grandin","fclName":"city, village,...","adminCodes1":{"ISO3166_2":"NC"},"countryName":"United States","fcodeName":"populated place","adminName1":"North Carolina","lat":"36.04402","fcode":"PPL"},{"adminCode1":"NC","lng":"-81.43065","geonameId":4453176,"toponymName":"Auld Farm","countryId":"6252001","fcl":"P","population":0,"countryCode":"US","name":"Auld Farm","fclName":"city, village,...","adminCodes1":{"ISO3166_2":"NC"},"countryName":"United States","fcodeName":"populated place","adminName1":"North Carolina","lat":"35.97124","fcode":"PPL"},{"adminCode1":"NC","lng":"-81.44315","geonameId":4455040,"toponymName":"Berkshire Hills","countryId":"6252001","fcl":"P","population":0,"countryCode":"US","name":"Berkshire Hills","fclName":"city, village,...","adminCodes1":{"ISO3166_2":"NC"},"countryName":"United States","fcodeName":"populated place","adminName1":"North Carolina","lat":"35.96624","fcode":"PPL"},{"adminCode1":"NC","lng":"-81.43759","geonameId":4459911,"toponymName":"Cedar Rock Estates","countryId":"6252001","fcl":"P","population":0,"countryCode":"US","name":"Cedar Rock Estates","fclName":"city, village,...","adminCodes1":{"ISO3166_2":"NC"},"countryName":"United States","fcodeName":"populated place","adminName1":"North Carolina","lat":"35.96263","fcode":"PPL"},{"adminCode1":"NC","lng":"-81.43982","geonameId":4049812,"toponymName":"Little Mountain","countryId":"6252001","fcl":"T","population":0,"countryCode":"US","name":"Little Mountain","fclName":"mountain,hill,rock,... ","adminCodes1":{"ISO3166_2":"NC"},"countryName":"United States","fcodeName":"mountain","adminName1":"North Carolina","lat":"36.05402","fcode":"MT"},{"adminCode1":"VA","lng":"-76.21327","geonameId":4767836,"toponymName":"Kings Creek","countryId":"6252001","fcl":"H","population":0,"countryCode":"US","name":"Kings Creek","fclName":"stream, lake, ...","adminCodes1":{"ISO3166_2":"VA"},"countryName":"United States","fcodeName":"stream","adminName1":"Virginia","lat":"36.83043","fcode":"STM"},{"adminCode1":"MD","lng":"-76.26746","geonameId":4359935,"toponymName":"Kings Creek","countryId":"6252001","fcl":"H","population":0,"countryCode":"US","name":"Kings Creek","fclName":"stream, lake, ...","adminCodes1":{"ISO3166_2":"MD"},"countryName":"United States","fcodeName":"stream","adminName1":"Maryland","lat":"39.39039","fcode":"STM"},{"adminCode1":"CA","lng":"-121.34775","geonameId":5566315,"toponymName":"Kings Creek","countryId":"6252001","fcl":"H","population":0,"countryCode":"US","name":"Kings Creek","fclName":"stream, lake, ...","adminCodes1":{"ISO3166_2":"CA"},"countryName":"United States","fcodeName":"stream","adminName1":"California","lat":"40.42683","fcode":"STM"},{"adminCode1":"CA","lng":"-121.47359","geonameId":5566320,"toponymName":"Kings Creek Campground (historical)","countryId":"6252001","fcl":"S","population":0,"countryCode":"US","name":"Kings Creek Campground (historical)","fclName":"spot, building, farm","adminCodes1":{"ISO3166_2":"CA"},"countryName":"United States","fcodeName":"abandoned camp","adminName1":"California","lat":"40.46044","fcode":"CMPQ"},{"adminCode1":"TX","lng":"-98.53946","geonameId":4703348,"toponymName":"Kings Branch","countryId":"6252001","fcl":"H","population":0,"countryCode":"US","name":"Kings Branch","fclName":"stream, lake, ...","adminCodes1":{"ISO3166_2":"TX"},"countryName":"United States","fcodeName":"stream","adminName1":"Texas","lat":"28.32361","fcode":"STM"},{"adminCode1":"AR","lng":"-94.19188","geonameId":4117543,"toponymName":"Kings Creek (historical)","countryId":"6252001","fcl":"P","population":0,"countryCode":"US","name":"Kings Creek (historical)","fclName":"city, village,...","adminCodes1":{"ISO3166_2":"AR"},"countryName":"United States","fcodeName":"abandoned populated place","adminName1":"Arkansas","lat":"35.01871","fcode":"PPLQ"},{"adminCode1":"RI","lng":"-71.70118","geonameId":5221324,"toponymName":"Cedar Swamp Brook","countryId":"6252001","fcl":"H","population":0,"countryCode":"US","name":"Cedar Swamp Brook","fclName":"stream, lake, ...","adminCodes1":{"ISO3166_2":"RI"},"countryName":"United States","fcodeName":"stream","adminName1":"Rhode Island","lat":"41.43038","fcode":"STM"},{"adminCode1":"GA","lng":"-84.65048","geonameId":4186132,"toponymName":"Cane Creek Church","countryId":"6252001","fcl":"S","population":0,"countryCode":"US","name":"Cane Creek Church","fclName":"spot, building, farm","adminCodes1":{"ISO3166_2":"GA"},"countryName":"United States","fcodeName":"church","adminName1":"Georgia","lat":"32.97652","fcode":"CH"},{"adminCode1":"PA","lng":"-79.27087","geonameId":4558975,"toponymName":"Kings Bridge","countryId":"6252001","fcl":"S","population":0,"countryCode":"US","name":"Kings Bridge","fclName":"spot, building, farm","adminCodes1":{"ISO3166_2":"PA"},"countryName":"United States","fcodeName":"","adminName1":"Pennsylvania","lat":"39.93758"},{"adminCode1":"NC","lng":"-81.45648","geonameId":4480345,"toponymName":"Moss Lake","countryId":"6252001","fcl":"H","population":0,"countryCode":"US","name":"Moss Lake","fclName":"stream, lake, ...","adminCodes1":{"ISO3166_2":"NC"},"countryName":"United States","fcodeName":"reservoir(s)","adminName1":"North Carolina","lat":"35.2768","fcode":"RSV"},{"adminCode1":"SC","lng":"-81.5651","geonameId":4585362,"toponymName":"Little Kings Creek","countryId":"6252001","fcl":"H","population":0,"countryCode":"US","name":"Little Kings Creek","fclName":"stream, lake, ...","adminCodes1":{"ISO3166_2":"SC"},"countryName":"United States","fcodeName":"stream","adminName1":"South Carolina","lat":"34.38708","fcode":"STM"},{"adminCode1":"WV","lng":"-80.56313","geonameId":5280413,"toponymName":"Kings Creek Chapel","countryId":"6252001","fcl":"S","population":0,"countryCode":"US","name":"Kings Creek Chapel","fclName":"spot, building, farm","adminCodes1":{"ISO3166_2":"WV"},"countryName":"United States","fcodeName":"church","adminName1":"West Virginia","lat":"40.43868","fcode":"CH"},{"adminCode1":"NY","lng":"-73.94861","geonameId":6352935,"toponymName":"Newtown Creek Water Pollution Control Plant","countryId":"6252001","fcl":"S","population":0,"countryCode":"US","name":"Newtown Creek Water Pollution Control Plant","fclName":"spot, building, farm","adminCodes1":{"ISO3166_2":"NY"},"countryName":"United States","fcodeName":"","adminName1":"New York","lat":"40.73278"},{"adminCode1":"NC","lng":"-81.41287","geonameId":4474369,"toponymName":"Kings Creek","countryId":"6252001","fcl":"H","population":0,"countryCode":"US","name":"Kings Creek","fclName":"stream, lake, ...","adminCodes1":{"ISO3166_2":"NC"},"countryName":"United States","fcodeName":"stream","adminName1":"North Carolina","lat":"36.05624","fcode":"STM"},{"adminCode1":"NC","lng":"-77.49219","geonameId":4474373,"toponymName":"Kings Creek","countryId":"6252001","fcl":"H","population":0,"countryCode":"US","name":"Kings Creek","fclName":"stream, lake, ...","adminCodes1":{"ISO3166_2":"NC"},"countryName":"United States","fcodeName":"stream","adminName1":"North Carolina","lat":"34.47683","fcode":"STM"},{"adminCode1":"NY","lng":"-73.9143","geonameId":5137882,"toponymName":"Shell Bank Creek","countryId":"6252001","fcl":"H","population":0,"countryCode":"US","name":"Shell Bank Creek","fclName":"stream, lake, ...","adminCodes1":{"ISO3166_2":"NY"},"countryName":"United States","fcodeName":"stream","adminName1":"New York","lat":"40.58761","fcode":"STM"},{"adminCode1":"TN","lng":"-84.67299","geonameId":4634572,"toponymName":"King Creek","countryId":"6252001","fcl":"H","population":0,"countryCode":"US","name":"King Creek","fclName":"stream, lake, ...","adminCodes1":{"ISO3166_2":"TN"},"countryName":"United States","fcodeName":"stream","adminName1":"Tennessee","lat":"35.81868","fcode":"STM"},{"adminCode1":"VA","lng":"-76.41884","geonameId":4767767,"toponymName":"King Creek","countryId":"6252001","fcl":"H","population":0,"countryCode":"US","name":"King Creek","fclName":"stream, lake, ...","adminCodes1":{"ISO3166_2":"VA"},"countryName":"United States","fcodeName":"stream","adminName1":"Virginia","lat":"37.30764","fcode":"STM"},{"adminCode1":"KY","lng":"-86.99666","geonameId":4291037,"toponymName":"Elk Lick Creek","countryId":"6252001","fcl":"H","population":0,"countryCode":"US","name":"Elk Lick Creek","fclName":"stream, lake, ...","adminCodes1":{"ISO3166_2":"KY"},"countryName":"United States","fcodeName":"stream","adminName1":"Kentucky","lat":"36.98227","fcode":"STM"},{"adminCode1":"WI","lng":"-91.26794","geonameId":5258598,"toponymName":"King Creek","countryId":"6252001","fcl":"H","population":0,"countryCode":"US","name":"King Creek","fclName":"stream, lake, ...","adminCodes1":{"ISO3166_2":"WI"},"countryName":"United States","fcodeName":"stream","adminName1":"Wisconsin","lat":"44.57302","fcode":"STM"},{"adminCode1":"NC","lng":"-81.3376","geonameId":4474376,"toponymName":"Kings Creek Ford","countryId":"6252001","fcl":"R","population":0,"countryCode":"US","name":"Kings Creek Ford","fclName":"road, railroad ","adminCodes1":{"ISO3166_2":"NC"},"countryName":"United States","fcodeName":"road junction","adminName1":"North Carolina","lat":"36.52707","fcode":"RDJCT"},{"adminCode1":"CA","lng":"-119.0918","geonameId":5363207,"toponymName":"King Creek","countryId":"6252001","fcl":"H","population":0,"countryCode":"US","name":"King Creek","fclName":"stream, lake, ...","adminCodes1":{"ISO3166_2":"CA"},"countryName":"United States","fcodeName":"stream","adminName1":"California","lat":"37.60133","fcode":"STM"},{"adminCode1":"NC","lng":"-81.42815","geonameId":4481821,"toponymName":"New Hope Church","countryId":"6252001","fcl":"S","population":0,"countryCode":"US","name":"New Hope Church","fclName":"spot, building, farm","adminCodes1":{"ISO3166_2":"NC"},"countryName":"United States","fcodeName":"church","adminName1":"North Carolina","lat":"36.01208","fcode":"CH"},{"adminCode1":"NC","lng":"-81.37787","geonameId":4476750,"toponymName":"Livingston Memorial Church","countryId":"6252001","fcl":"S","population":0,"countryCode":"US","name":"Livingston Memorial Church","fclName":"spot, building, farm","adminCodes1":{"ISO3166_2":"NC"},"countryName":"United States","fcodeName":"church","adminName1":"North Carolina","lat":"36.00652","fcode":"CH"},{"adminCode1":"CA","lng":"-119.67013","geonameId":5407865,"toponymName":"West Branch Cross Creek","countryId":"6252001","fcl":"H","population":0,"countryCode":"US","name":"West Branch Cross Creek","fclName":"stream, lake, ...","adminCodes1":{"ISO3166_2":"CA"},"countryName":"United States","fcodeName":"stream","adminName1":"California","lat":"36.10106","fcode":"STM"},{"adminCode1":"CA","lng":"-120.08181","geonameId":5339960,"toponymName":"Cottonwood Creek","countryId":"6252001","fcl":"H","population":0,"countryCode":"US","name":"Cottonwood Creek","fclName":"stream, lake, ...","adminCodes1":{"ISO3166_2":"CA"},"countryName":"United States","fcodeName":"stream","adminName1":"California","lat":"35.80746","fcode":"STM"},{"adminCode1":"CA","lng":"-119.63513","geonameId":5340819,"toponymName":"Cross Creek","countryId":"6252001","fcl":"H","population":0,"countryCode":"US","name":"Cross Creek","fclName":"stream, lake, ...","adminCodes1":{"ISO3166_2":"CA"},"countryName":"United States","fcodeName":"stream","adminName1":"California","lat":"36.13106","fcode":"STM"},{"adminCode1":"CA","lng":"-119.60124","geonameId":5340820,"toponymName":"Cross Creek School (historical)","countryId":"6252001","fcl":"S","population":0,"countryCode":"US","name":"Cross Creek School (historical)","fclName":"spot, building, farm","adminCodes1":{"ISO3166_2":"CA"},"countryName":"United States","fcodeName":"school","adminName1":"California","lat":"36.31412","fcode":"SCH"},{"adminCode1":"CA","lng":"-119.54846","geonameId":5375004,"toponymName":"Mosquito Creek","countryId":"6252001","fcl":"H","population":0,"countryCode":"US","name":"Mosquito Creek","fclName":"stream, lake, ...","adminCodes1":{"ISO3166_2":"CA"},"countryName":"United States","fcodeName":"stream","adminName1":"California","lat":"36.29467","fcode":"STM"},{"adminCode1":"CA","lng":"-119.61707","geonameId":5372679,"toponymName":"Middle Branch Cross Creek","countryId":"6252001","fcl":"H","population":0,"countryCode":"US","name":"Middle Branch Cross Creek","fclName":"stream, lake, ...","adminCodes1":{"ISO3166_2":"CA"},"countryName":"United States","fcodeName":"stream","adminName1":"California","lat":"36.04356","fcode":"STM"},{"adminCode1":"CA","lng":"-120.1832","geonameId":5366742,"toponymName":"Little Avenal Creek","countryId":"6252001","fcl":"H","population":0,"countryCode":"US","name":"Little Avenal Creek","fclName":"stream, lake, ...","adminCodes1":{"ISO3166_2":"CA"},"countryName":"United States","fcodeName":"stream","adminName1":"California","lat":"35.86191","fcode":"STM"},{"adminCode1":"CA","lng":"-120.14069","geonameId":5325476,"toponymName":"Baby King Creek","countryId":"6252001","fcl":"H","population":0,"countryCode":"US","name":"Baby King Creek","fclName":"stream, lake, ...","adminCodes1":{"ISO3166_2":"CA"},"countryName":"United States","fcodeName":"stream","adminName1":"California","lat":"35.98968","fcode":"STM"},{"adminCode1":"CA","lng":"-120.0918","geonameId":5328568,"toponymName":"Big Tar Creek","countryId":"6252001","fcl":"H","population":0,"countryCode":"US","name":"Big Tar Creek","fclName":"stream, lake, ...","adminCodes1":{"ISO3166_2":"CA"},"countryName":"United States","fcodeName":"stream","adminName1":"California","lat":"35.95301","fcode":"STM"},{"adminCode1":"CA","lng":"-119.6079","geonameId":5344764,"toponymName":"East Branch Cross Creek","countryId":"6252001","fcl":"H","population":0,"countryCode":"US","name":"East Branch Cross Creek","fclName":"stream, lake, ...","adminCodes1":{"ISO3166_2":"CA"},"countryName":"United States","fcodeName":"stream","adminName1":"California","lat":"36.04301","fcode":"STM"},{"adminCode1":"CA","lng":"-119.53068","geonameId":5344765,"toponymName":"East Branch Cross Creek","countryId":"6252001","fcl":"H","population":0,"countryCode":"US","name":"East Branch Cross Creek","fclName":"stream, lake, ...","adminCodes1":{"ISO3166_2":"CA"},"countryName":"United States","fcodeName":"stream","adminName1":"California","lat":"36.33051","fcode":"STM"},{"adminCode1":"RI","lng":"-71.41756","geonameId":5222523,"toponymName":"Halls Creek","countryId":"6252001","fcl":"H","population":0,"countryCode":"US","name":"Halls Creek","fclName":"stream, lake, ...","adminCodes1":{"ISO3166_2":"RI"},"countryName":"United States","fcodeName":"stream","adminName1":"Rhode Island","lat":"41.60871","fcode":"STM"},{"adminCode1":"RI","lng":"-71.41756","geonameId":5221975,"toponymName":"Eldridge Creek (historical)","countryId":"6252001","fcl":"H","population":0,"countryCode":"US","name":"Eldridge Creek (historical)","fclName":"stream, lake, ...","adminCodes1":{"ISO3166_2":"RI"},"countryName":"United States","fcodeName":"stream","adminName1":"Rhode Island","lat":"41.60288","fcode":"STM"},{"adminCode1":"RI","lng":"-71.42311","geonameId":5222519,"toponymName":"Hall Creek","countryId":"6252001","fcl":"H","population":0,"countryCode":"US","name":"Hall Creek","fclName":"stream, lake, ...","adminCodes1":{"ISO3166_2":"RI"},"countryName":"United States","fcodeName":"stream","adminName1":"Rhode Island","lat":"41.60538","fcode":"STM"},{"adminCode1":"OH","lng":"-80.60646","geonameId":5159066,"toponymName":"Jeddo Run","countryId":"6252001","fcl":"H","population":0,"countryCode":"US","name":"Jeddo Run","fclName":"stream, lake, ...","adminCodes1":{"ISO3166_2":"OH"},"countryName":"United States","fcodeName":"stream","adminName1":"Ohio","lat":"40.44923","fcode":"STM"},{"adminCode1":"PA","lng":"-80.51185","geonameId":5178707,"toponymName":"Aunt Clara Fork","countryId":"6252001","fcl":"H","population":0,"countryCode":"US","name":"Aunt Clara Fork","fclName":"stream, lake, ...","adminCodes1":{"ISO3166_2":"PA"},"countryName":"United States","fcodeName":"stream","adminName1":"Pennsylvania","lat":"40.42723","fcode":"STM"},{"adminCode1":"SC","lng":"-83.11987","geonameId":4584059,"toponymName":"King Creek","countryId":"6252001","fcl":"H","population":0,"countryCode":"US","name":"King Creek","fclName":"stream, lake, ...","adminCodes1":{"ISO3166_2":"SC"},"countryName":"United States","fcodeName":"stream","adminName1":"South Carolina","lat":"34.96898","fcode":"STM"},{"adminCode1":"NC","lng":"-82.71207","geonameId":4474328,"toponymName":"King Creek","countryId":"6252001","fcl":"H","population":0,"countryCode":"US","name":"King Creek","fclName":"stream, lake, ...","adminCodes1":{"ISO3166_2":"NC"},"countryName":"United States","fcodeName":"stream","adminName1":"North Carolina","lat":"35.23678","fcode":"STM"},{"adminCode1":"RI","lng":"-71.49589","geonameId":5224793,"toponymName":"Scrabbletown Brook","countryId":"6252001","fcl":"H","population":0,"countryCode":"US","name":"Scrabbletown Brook","fclName":"stream, lake, ...","adminCodes1":{"ISO3166_2":"RI"},"countryName":"United States","fcodeName":"stream","adminName1":"Rhode Island","lat":"41.59371","fcode":"STM"},{"adminCode1":"GA","lng":"-84.66715","geonameId":4203982,"toponymName":"Kings Mill Creek","countryId":"6252001","fcl":"H","population":0,"countryCode":"US","name":"Kings Mill Creek","fclName":"stream, lake, ...","adminCodes1":{"ISO3166_2":"GA"},"countryName":"United States","fcodeName":"stream","adminName1":"Georgia","lat":"32.5257","fcode":"STM"},{"adminCode1":"GA","lng":"-84.35048","geonameId":4203983,"toponymName":"Kings Creek Shopping Center","countryId":"6252001","fcl":"S","population":0,"countryCode":"US","name":"Kings Creek Shopping Center","fclName":"spot, building, farm","adminCodes1":{"ISO3166_2":"GA"},"countryName":"United States","fcodeName":"mall","adminName1":"Georgia","lat":"34.03177","fcode":"MALL"}]}
