{"totalResultsCount":305,"geonames":[{"adminCode1":"OH","lng":"-83.41853","geonameId":5159789,"toponymName":"Kirby","countryId":"6252001","fcl":"P","population":116,"countryCode":"US","name":"Kirby","fclName":"city, village,...","adminCodes1":{"ISO3166_2":"OH"},"countryName":"United States","fcodeName":"populated place","adminName1":"Ohio","lat":"40.81311","fcode":"PPL"},{"adminCode1":"MN","lng":"-94.1896","geonameId":5033333,"toponymName":"Kirby Lake","countryId":"6252001","fcl":"H","population":0,"countryCode":"US","name":"Kirby Lake","fclName":"stream, lake, ...","adminCodes1":{"ISO3166_2":"MN"},"countryName":"United States","fcodeName":"lake","adminName1":"Minnesota","lat":"44.62623","fcode":"LK"},{"adminCode1":"AR","lng":"-93.6413","geonameId":4117585,"toponymName":"Kirby","countryId":"6252001","fcl":"P","population":786,"countryCode":"US","name":"Kirby","fclName":"city, village,...","adminCodes1":{"ISO3166_2":"AR"},"countryName":"United States","fcodeName":"populated place","adminName1":"Arkansas","lat":"34.25038","fcode":"PPL"},{"adminCode1":"TX","lng":"-98.38557","geonameId":4703415,"toponymName":"Kirby","countryId":"6252001","fcl":"P","population":8550,"countryCode":"US","name":"Kirby","fclName":"city, village,...","adminCodes1":{"ISO3166_2":"TX"},"countryName":"United States","fcodeName":"populated place","adminName1":"Texas","lat":"29.46329","fcode":"PPL"},{"adminCode1":"AR","lng":"-93.69226","geonameId":4117589,"toponymName":"Kirby Landing Public Use Area","countryId":"6252001","fcl":"L","population":0,"countryCode":"US","name":"Kirby Landing Public Use Area","fclName":"parks,area, ...","adminCodes1":{"ISO3166_2":"AR"},"countryName":"United States","fcodeName":"park","adminName1":"Arkansas","lat":"34.23458","fcode":"PRK"},{"adminCode1":"MI","lng":"-83.54594","geonameId":4998239,"toponymName":"Kirby Lake","countryId":"6252001","fcl":"H","population":0,"countryCode":"US","name":"Kirby Lake","fclName":"stream, lake, ...","adminCodes1":{"ISO3166_2":"MI"},"countryName":"United States","fcodeName":"lake","adminName1":"Michigan","lat":"42.75532","fcode":"LK"},{"adminCode1":"VT","lng":"-71.91512","geonameId":5237724,"toponymName":"Town of Kirby","countryId":"6252001","fcl":"A","population":497,"countryCode":"US","name":"Town of Kirby","fclName":"country, state, region,...","adminCodes1":{"ISO3166_2":"VT"},"countryName":"United States","fcodeName":"third-order administrative division","adminName1":"Vermont","lat":"44.50284","fcode":"ADM3"},{"adminCode1":"WY","lng":"-108.18149","geonameId":5829672,"toponymName":"Kirby","countryId":"6252001","fcl":"P","population":92,"countryCode":"US","name":"Kirby","fclName":"city, village,...","adminCodes1":{"ISO3166_2":"WY"},"countryName":"United States","fcodeName":"populated place","adminName1":"Wyoming","lat":"43.8044","fcode":"PPL"},{"adminCode1":"TX","lng":"-98.38595","geonameId":11788323,"toponymName":"City of Kirby","countryId":"6252001","fcl":"A","population":0,"countryCode":"US","name":"City of Kirby","fclName":"country, state, region,...","adminCodes1":{"ISO3166_2":"TX"},"countryName":"United States","fcodeName":"third-order administrative division","adminName1":"Texas","lat":"29.4611","fcode":"ADM3"},{"adminCode1":"MT","lng":"-106.98173","geonameId":5660904,"toponymName":"Kirby","countryId":"6252001","fcl":"P","population":0,"countryCode":"US","name":"Kirby","fclName":"city, village,...","adminCodes1":{"ISO3166_2":"MT"},"countryName":"United States","fcodeName":"populated place","adminName1":"Montana","lat":"45.33248","fcode":"PPL"},{"adminCode1":"MO","lng":"-92.11462","geonameId":4393759,"toponymName":"Kirby","countryId":"6252001","fcl":"P","population":0,"countryCode":"US","name":"Kirby","fclName":"city, village,...","adminCodes1":{"ISO3166_2":"MO"},"countryName":"United States","fcodeName":"populated place","adminName1":"Missouri","lat":"39.84559","fcode":"PPL"},{"adminCode1":"IN","lng":"-86.61","geonameId":4259925,"toponymName":"Kirby","countryId":"6252001","fcl":"P","population":0,"countryCode":"US","name":"Kirby","fclName":"city, village,...","adminCodes1":{"ISO3166_2":"IN"},"countryName":"United States","fcodeName":"populated place","adminName1":"Indiana","lat":"39.13671","fcode":"PPL"},{"adminCode1":"WI","lng":"-90.5393","geonameId":5258696,"toponymName":"Kirby","countryId":"6252001","fcl":"P","population":0,"countryCode":"US","name":"Kirby","fclName":"city, village,...","adminCodes1":{"ISO3166_2":"WI"},"countryName":"United States","fcodeName":"populated place","adminName1":"Wisconsin","lat":"44.09052","fcode":"PPL"},{"adminCode1":"NC","lng":"-77.22886","geonameId":4461704,"toponymName":"Conway","countryId":"6252001","fcl":"P","population":772,"countryCode":"US","name":"Conway","fclName":"city, village,...","adminCodes1":{"ISO3166_2":"NC"},"countryName":"United States","fcodeName":"populated place","adminName1":"North Carolina","lat":"36.4371","fcode":"PPL"},{"adminCode1":"NC","lng":"-77.18969","geonameId":4490873,"toponymName":"Severn","countryId":"6252001","fcl":"P","population":258,"countryCode":"US","name":"Severn","fclName":"city, village,...","adminCodes1":{"ISO3166_2":"NC"},"countryName":"United States","fcodeName":"populated place","adminName1":"North Carolina","lat":"36.51515","fcode":"PPL"},{"adminCode1":"NC","lng":"-77.19858","geonameId":4484513,"toponymName":"Pendleton","countryId":"6252001","fcl":"P","population":0,"countryCode":"US","name":"Pendleton","fclName":"city, village,...","adminCodes1":{"ISO3166_2":"NC"},"countryName":"United States","fcodeName":"populated place","adminName1":"North Carolina","lat":"36.47154","fcode":"PPL"},{"adminCode1":"OH","lng":"-83.41941","geonameId":7166087,"toponymName":"Village of Kirby","countryId":"6252001","fcl":"A","population":118,"countryCode":"US","name":"Village of Kirby","fclName":"country, state, region,...","adminCodes1":{"ISO3166_2":"OH"},"countryName":"United States","fcodeName":"administrative division","adminName1":"Ohio","lat":"40.81349","fcode":"ADMD"},{"adminCode1":"MS","lng":"-90.97649","geonameId":4432448,"toponymName":"Kirby Oil Field","countryId":"6252001","fcl":"L","population":0,"countryCode":"US","name":"Kirby Oil Field","fclName":"parks,area, ...","adminCodes1":{"ISO3166_2":"MS"},"countryName":"United States","fcodeName":"oilfield","adminName1":"Mississippi","lat":"31.48545","fcode":"OILF"},{"adminCode1":"TN","lng":"-84.12093","geonameId":4634727,"toponymName":"Kirby Lake","countryId":"6252001","fcl":"H","population":0,"countryCode":"US","name":"Kirby Lake","fclName":"stream, lake, ...","adminCodes1":{"ISO3166_2":"TN"},"countryName":"United States","fcodeName":"lake","adminName1":"Tennessee","lat":"35.92046","fcode":"LK"},{"adminCode1":"TN","lng":"-89.33979","geonameId":4634730,"toponymName":"Kirby Pocket Day Use Area","countryId":"6252001","fcl":"L","population":0,"countryCode":"US","name":"Kirby Pocket Day Use Area","fclName":"parks,area, ...","adminCodes1":{"ISO3166_2":"TN"},"countryName":"United States","fcodeName":"park","adminName1":"Tennessee","lat":"36.3959","fcode":"PRK"},{"adminCode1":"VA","lng":"-77.17831","geonameId":4767934,"toponymName":"Kirby Park","countryId":"6252001","fcl":"L","population":0,"countryCode":"US","name":"Kirby Park","fclName":"parks,area, ...","adminCodes1":{"ISO3166_2":"VA"},"countryName":"United States","fcodeName":"park","adminName1":"Virginia","lat":"38.91261","fcode":"PRK"},{"adminCode1":"TX","lng":"-94.41242","geonameId":4701204,"toponymName":"John H Kirby State Forest","countryId":"6252001","fcl":"L","population":0,"countryCode":"US","name":"John H Kirby State Forest","fclName":"parks,area, ...","adminCodes1":{"ISO3166_2":"TX"},"countryName":"United States","fcodeName":"park","adminName1":"Texas","lat":"30.57659","fcode":"PRK"},{"adminCode1":"TX","lng":"-98.37807","geonameId":4703419,"toponymName":"Kirby City Park","countryId":"6252001","fcl":"L","population":0,"countryCode":"US","name":"Kirby City Park","fclName":"parks,area, ...","adminCodes1":{"ISO3166_2":"TX"},"countryName":"United States","fcodeName":"park","adminName1":"Texas","lat":"29.46412","fcode":"PRK"},{"adminCode1":"TX","lng":"-97.00667","geonameId":4703424,"toponymName":"Kirby Creek Park","countryId":"6252001","fcl":"L","population":0,"countryCode":"US","name":"Kirby Creek Park","fclName":"parks,area, ...","adminCodes1":{"ISO3166_2":"TX"},"countryName":"United States","fcodeName":"park","adminName1":"Texas","lat":"32.69124","fcode":"PRK"},{"adminCode1":"TX","lng":"-99.7262","geonameId":4703435,"toponymName":"Kirby Park","countryId":"6252001","fcl":"L","population":0,"countryCode":"US","name":"Kirby Park","fclName":"parks,area, ...","adminCodes1":{"ISO3166_2":"TX"},"countryName":"United States","fcodeName":"park","adminName1":"Texas","lat":"32.42957","fcode":"PRK"},{"adminCode1":"AL","lng":"-87.72087","geonameId":4065787,"toponymName":"Hal Kirby Junior Park","countryId":"6252001","fcl":"L","population":0,"countryCode":"US","name":"Hal Kirby Junior Park","fclName":"parks,area, ...","adminCodes1":{"ISO3166_2":"AL"},"countryName":"United States","fcodeName":"park","adminName1":"Alabama","lat":"34.51259","fcode":"PRK"},{"adminCode1":"CO","lng":"-105.74862","geonameId":5427501,"toponymName":"Kirby Gulch","countryId":"6252001","fcl":"T","population":0,"countryCode":"US","name":"Kirby Gulch","fclName":"mountain,hill,rock,... ","adminCodes1":{"ISO3166_2":"CO"},"countryName":"United States","fcodeName":"valley","adminName1":"Colorado","lat":"39.54554","fcode":"VAL"},{"adminCode1":"VT","lng":"-71.91559","geonameId":5237723,"toponymName":"Kirby Pond","countryId":"6252001","fcl":"H","population":0,"countryCode":"US","name":"Kirby Pond","fclName":"stream, lake, ...","adminCodes1":{"ISO3166_2":"VT"},"countryName":"United States","fcodeName":"lake","adminName1":"Vermont","lat":"44.50877","fcode":"LK"},{"adminCode1":"WI","lng":"-92.06611","geonameId":5258691,"toponymName":"Kirby Lake","countryId":"6252001","fcl":"H","population":0,"countryCode":"US","name":"Kirby Lake","fclName":"stream, lake, ...","adminCodes1":{"ISO3166_2":"WI"},"countryName":"United States","fcodeName":"lake","adminName1":"Wisconsin","lat":"45.6011","fcode":"LK"},{"adminCode1":"WI","lng":"-91.87392","geonameId":5258692,"toponymName":"Kirby Lake","countryId":"6252001","fcl":"H","population":0,"countryCode":"US","name":"Kirby Lake","fclName":"stream, lake, ...","adminCodes1":{"ISO3166_2":"WI"},"countryName":"United States","fcodeName":"lake","adminName1":"Wisconsin","lat":"45.61639","fcode":"LK"},{"adminCode1":"WI","lng":"-88.12072","geonameId":5258693,"toponymName":"Kirby Lake","countryId":"6252001","fcl":"H","population":0,"countryCode":"US","name":"Kirby Lake","fclName":"stream, lake, ...","adminCodes1":{"ISO3166_2":"WI"},"countryName":"United States","fcodeName":"lake","adminName1":"Wisconsin","lat":"45.22857","fcode":"LK"},{"adminCode1":"IL","lng":"-89.20925","geonameId":4898622,"toponymName":"Kirby Park","countryId":"6252001","fcl":"L","population":0,"countryCode":"US","name":"Kirby Park","fclName":"parks,area, ...","adminCodes1":{"ISO3166_2":"IL"},"countryName":"United States","fcodeName":"park","adminName1":"Illinois","lat":"41.32281","fcode":"PRK"},{"adminCode1":"MI","lng":"-85.27173","geonameId":4998237,"toponymName":"Kirby Lake","countryId":"6252001","fcl":"H","population":0,"countryCode":"US","name":"Kirby Lake","fclName":"stream, lake, ...","adminCodes1":{"ISO3166_2":"MI"},"countryName":"United States","fcodeName":"lake","adminName1":"Michigan","lat":"42.38722","fcode":"LK"},{"adminCode1":"MI","lng":"-85.08511","geonameId":4998238,"toponymName":"Kirby Lake","countryId":"6252001","fcl":"H","population":0,"countryCode":"US","name":"Kirby Lake","fclName":"stream, lake, ...","adminCodes1":{"ISO3166_2":"MI"},"countryName":"United States","fcodeName":"lake","adminName1":"Michigan","lat":"43.44814","fcode":"LK"},{"adminCode1":"NC","lng":"-77.18484","geonameId":4474456,"toponymName":"Township of Kirby","countryId":"6252001","fcl":"A","population":0,"countryCode":"US","name":"Kirby Township","fclName":"country, state, region,...","adminCodes1":{"ISO3166_2":"NC"},"countryName":"United States","fcodeName":"third-order administrative division","adminName1":"North Carolina","lat":"36.46063","fcode":"ADM3"},{"adminCode1":"WV","lng":"-78.72613","geonameId":4811020,"toponymName":"Kirby","countryId":"6252001","fcl":"P","population":0,"countryCode":"US","name":"Kirby","fclName":"city, village,...","adminCodes1":{"ISO3166_2":"WV"},"countryName":"United States","fcodeName":"populated place","adminName1":"West Virginia","lat":"39.18288","fcode":"PPL"},{"adminCode1":"PA","lng":"-80.11701","geonameId":4558988,"toponymName":"Kirby","countryId":"6252001","fcl":"P","population":0,"countryCode":"US","name":"Kirby","fclName":"city, village,...","adminCodes1":{"ISO3166_2":"PA"},"countryName":"United States","fcodeName":"populated place","adminName1":"Pennsylvania","lat":"39.80286","fcode":"PPL"},{"adminCode1":"TX","lng":"-99.73346","geonameId":4703429,"toponymName":"Kirby Lake","countryId":"6252001","fcl":"H","population":0,"countryCode":"US","name":"Kirby Lake","fclName":"stream, lake, ...","adminCodes1":{"ISO3166_2":"TX"},"countryName":"United States","fcodeName":"reservoir(s)","adminName1":"Texas","lat":"32.37463","fcode":"RSV"},{"adminCode1":"IL","lng":"-90.05094","geonameId":4250154,"toponymName":"Smith - Kirby Cemetery","countryId":"6252001","fcl":"S","population":0,"countryCode":"US","name":"Smith - Kirby Cemetery","fclName":"spot, building, farm","adminCodes1":{"ISO3166_2":"IL"},"countryName":"United States","fcodeName":"cemetery","adminName1":"Illinois","lat":"39.26088","fcode":"CMTY"},{"adminCode1":"MA","lng":"-71.0856","geonameId":4941401,"toponymName":"Kirby Corner","countryId":"6252001","fcl":"P","population":0,"countryCode":"US","name":"Kirby Corner","fclName":"city, village,...","adminCodes1":{"ISO3166_2":"MA"},"countryName":"United States","fcodeName":"populated place","adminName1":"Massachusetts","lat":"41.60288","fcode":"PPL"},{"adminCode1":"MI","lng":"-85.2517","geonameId":5004452,"toponymName":"Oliverda Lake","countryId":"6252001","fcl":"H","population":0,"countryCode":"US","name":"Oliverda Lake","fclName":"stream, lake, ...","adminCodes1":{"ISO3166_2":"MI"},"countryName":"United States","fcodeName":"lake","adminName1":"Michigan","lat":"42.04172","fcode":"LK"},{"adminCode1":"WY","lng":"-107.90398","geonameId":5829673,"toponymName":"Kirby Creek Oil Field","countryId":"6252001","fcl":"L","population":0,"countryCode":"US","name":"Kirby Creek Oil Field","fclName":"parks,area, ...","adminCodes1":{"ISO3166_2":"WY"},"countryName":"United States","fcodeName":"oilfield","adminName1":"Wyoming","lat":"43.68634","fcode":"OILF"},{"adminCode1":"WY","lng":"-108.18104","geonameId":7175253,"toponymName":"Town of Kirby","countryId":"6252001","fcl":"A","population":92,"countryCode":"US","name":"Town of Kirby","fclName":"country, state, region,...","adminCodes1":{"ISO3166_2":"WY"},"countryName":"United States","fcodeName":"administrative division","adminName1":"Wyoming","lat":"43.8032","fcode":"ADMD"},{"adminCode1":"CA","lng":"-121.74412","geonameId":5363487,"toponymName":"Kirby Park","countryId":"6252001","fcl":"L","population":0,"countryCode":"US","name":"Kirby Park","fclName":"parks,area, ...","adminCodes1":{"ISO3166_2":"CA"},"countryName":"United States","fcodeName":"park","adminName1":"California","lat":"36.8419","fcode":"PRK"},{"adminCode1":"PA","lng":"-75.89381","geonameId":5196313,"toponymName":"Kirby Park","countryId":"6252001","fcl":"L","population":0,"countryCode":"US","name":"Kirby Park","fclName":"parks,area, ...","adminCodes1":{"ISO3166_2":"PA"},"countryName":"United States","fcodeName":"park","adminName1":"Pennsylvania","lat":"41.24814","fcode":"PRK"},{"adminCode1":"NC","lng":"-77.23219","geonameId":4479663,"toponymName":"Milwaukee","countryId":"6252001","fcl":"P","population":0,"countryCode":"US","name":"Milwaukee","fclName":"city, village,...","adminCodes1":{"ISO3166_2":"NC"},"countryName":"United States","fcodeName":"populated place","adminName1":"North Carolina","lat":"36.40543","fcode":"PPL"},{"adminCode1":"TN","lng":"-89.84592","geonameId":4634725,"toponymName":"Kirby High School","countryId":"6252001","fcl":"S","population":0,"countryCode":"US","name":"Kirby High School","fclName":"spot, building, farm","adminCodes1":{"ISO3166_2":"TN"},"countryName":"United States","fcodeName":"school","adminName1":"Tennessee","lat":"35.03787","fcode":"SCH"},{"adminCode1":"AR","lng":"-93.64019","geonameId":4117588,"toponymName":"Kirby High School","countryId":"6252001","fcl":"S","population":0,"countryCode":"US","name":"Kirby High School","fclName":"spot, building, farm","adminCodes1":{"ISO3166_2":"AR"},"countryName":"United States","fcodeName":"school","adminName1":"Arkansas","lat":"34.24841","fcode":"SCH"},{"adminCode1":"CO","lng":"-106.73448","geonameId":5427499,"toponymName":"Kirby Gulch","countryId":"6252001","fcl":"T","population":0,"countryCode":"US","name":"Kirby Gulch","fclName":"mountain,hill,rock,... ","adminCodes1":{"ISO3166_2":"CO"},"countryName":"United States","fcodeName":"valley","adminName1":"Colorado","lat":"38.80888","fcode":"VAL"},{"adminCode1":"LA","lng":"-91.81224","geonameId":11862218,"toponymName":"Kirby House","countryId":"6252001","fcl":"S","population":0,"countryCode":"US","name":"Kirby House","fclName":"spot, building, farm","adminCodes1":{"ISO3166_2":"LA"},"countryName":"United States","fcodeName":"house(s)","adminName1":"Louisiana","lat":"31.63155","fcode":"HSE"},{"adminCode1":"NY","lng":"-73.72889","geonameId":7249448,"toponymName":"Kirby Plaza","countryId":"6252001","fcl":"L","population":0,"countryCode":"US","name":"Kirby Plaza","fclName":"parks,area, ...","adminCodes1":{"ISO3166_2":"NY"},"countryName":"United States","fcodeName":"park","adminName1":"New York","lat":"41.20889","fcode":"PRK"},{"adminCode1":"NY","lng":"-76.36355","geonameId":5123512,"toponymName":"Kirby Park","countryId":"6252001","fcl":"L","population":0,"countryCode":"US","name":"Kirby Park","fclName":"parks,area, ...","adminCodes1":{"ISO3166_2":"NY"},"countryName":"United States","fcodeName":"park","adminName1":"New York","lat":"42.02202","fcode":"PRK"},{"adminCode1":"NY","lng":"-73.66596","geonameId":5123513,"toponymName":"Kirby Pond","countryId":"6252001","fcl":"H","population":0,"countryCode":"US","name":"Kirby Pond","fclName":"stream, lake, ...","adminCodes1":{"ISO3166_2":"NY"},"countryName":"United States","fcodeName":"lake","adminName1":"New York","lat":"40.98038","fcode":"LK"},{"adminCode1":"MD","lng":"-75.87549","geonameId":4359995,"toponymName":"Kirby Landing","countryId":"6252001","fcl":"P","population":0,"countryCode":"US","name":"Kirby Landing","fclName":"city, village,...","adminCodes1":{"ISO3166_2":"MD"},"countryName":"United States","fcodeName":"populated place","adminName1":"Maryland","lat":"39.24928","fcode":"PPL"},{"adminCode1":"GA","lng":"-82.33457","geonameId":4204051,"toponymName":"Kirby","countryId":"6252001","fcl":"P","population":0,"countryCode":"US","name":"Kirby","fclName":"city, village,...","adminCodes1":{"ISO3166_2":"GA"},"countryName":"United States","fcodeName":"populated place","adminName1":"Georgia","lat":"32.51128","fcode":"PPL"},{"adminCode1":"GA","lng":"-83.82962","geonameId":4204052,"toponymName":"Kirby Cove","countryId":"6252001","fcl":"T","population":0,"countryCode":"US","name":"Kirby Cove","fclName":"mountain,hill,rock,... ","adminCodes1":{"ISO3166_2":"GA"},"countryName":"United States","fcodeName":"depression(s)","adminName1":"Georgia","lat":"34.92315","fcode":"DPR"},{"adminCode1":"IL","lng":"-88.55882","geonameId":4898621,"toponymName":"Kirby Medical Center","countryId":"6252001","fcl":"S","population":0,"countryCode":"US","name":"Kirby Medical Center","fclName":"spot, building, farm","adminCodes1":{"ISO3166_2":"IL"},"countryName":"United States","fcodeName":"hospital","adminName1":"Illinois","lat":"40.06033","fcode":"HSP"},{"adminCode1":"PA","lng":"-75.21028","geonameId":7127015,"toponymName":"Allan P Kirby Sports Center","countryId":"6252001","fcl":"S","population":0,"countryCode":"US","name":"Allan P Kirby Sports Center","fclName":"spot, building, farm","adminCodes1":{"ISO3166_2":"PA"},"countryName":"United States","fcodeName":"building(s)","adminName1":"Pennsylvania","lat":"40.70167","fcode":"BLDG"},{"adminCode1":"CA","lng":"-122.48997","geonameId":5363484,"toponymName":"Kirby Cove Campground","countryId":"6252001","fcl":"S","population":0,"countryCode":"US","name":"Kirby Cove Campground","fclName":"spot, building, farm","adminCodes1":{"ISO3166_2":"CA"},"countryName":"United States","fcodeName":"camp(s)","adminName1":"California","lat":"37.82743","fcode":"CMP"},{"adminCode1":"VT","lng":"-71.93898","geonameId":5239207,"toponymName":"North Kirby","countryId":"6252001","fcl":"P","population":0,"countryCode":"US","name":"North Kirby","fclName":"city, village,...","adminCodes1":{"ISO3166_2":"VT"},"countryName":"United States","fcodeName":"populated place","adminName1":"Vermont","lat":"44.51589","fcode":"PPL"},{"adminCode1":"VT","lng":"-71.90232","geonameId":5241293,"toponymName":"South Kirby","countryId":"6252001","fcl":"P","population":0,"countryCode":"US","name":"South Kirby","fclName":"city, village,...","adminCodes1":{"ISO3166_2":"VT"},"countryName":"United States","fcodeName":"populated place","adminName1":"Vermont","lat":"44.47034","fcode":"PPL"},{"adminCode1":"VT","lng":"-71.90704","geonameId":5237731,"toponymName":"Kirby Mountain","countryId":"6252001","fcl":"T","population":0,"countryCode":"US","name":"Kirby Mountain","fclName":"mountain,hill,rock,... ","adminCodes1":{"ISO3166_2":"VT"},"countryName":"United States","fcodeName":"mountain","adminName1":"Vermont","lat":"44.552","fcode":"MT"},{"adminCode1":"FL","lng":"-82.509","geonameId":7218236,"toponymName":"Kirby Creek","countryId":"6252001","fcl":"P","population":0,"countryCode":"US","name":"Kirby Creek","fclName":"city, village,...","adminCodes1":{"ISO3166_2":"FL"},"countryName":"United States","fcodeName":"populated place","adminName1":"Florida","lat":"28.019","fcode":"PPL"},{"adminCode1":"CA","lng":"-122.03995","geonameId":7229620,"toponymName":"Georgiana Bruce Kirby Preparatory School","countryId":"6252001","fcl":"S","population":0,"countryCode":"US","name":"Georgiana Bruce Kirby Preparatory School","fclName":"spot, building, farm","adminCodes1":{"ISO3166_2":"CA"},"countryName":"United States","fcodeName":"school","adminName1":"California","lat":"36.98743","fcode":"SCH"},{"adminCode1":"AL","lng":"-87.51947","geonameId":4071013,"toponymName":"Kirby Bridge (historical)","countryId":"6252001","fcl":"S","population":0,"countryCode":"US","name":"Kirby Bridge (historical)","fclName":"spot, building, farm","adminCodes1":{"ISO3166_2":"AL"},"countryName":"United States","fcodeName":"bridge","adminName1":"Alabama","lat":"34.56759","fcode":"BDG"},{"adminCode1":"AL","lng":"-85.9597","geonameId":4071016,"toponymName":"Kirby Creek","countryId":"6252001","fcl":"H","population":0,"countryCode":"US","name":"Kirby Creek","fclName":"stream, lake, ...","adminCodes1":{"ISO3166_2":"AL"},"countryName":"United States","fcodeName":"stream","adminName1":"Alabama","lat":"34.50231","fcode":"STM"},{"adminCode1":"MT","lng":"-107.76844","geonameId":5679342,"toponymName":"South Kirby Coulee","countryId":"6252001","fcl":"T","population":0,"countryCode":"US","name":"South Kirby Coulee","fclName":"mountain,hill,rock,... ","adminCodes1":{"ISO3166_2":"MT"},"countryName":"United States","fcodeName":"valley","adminName1":"Montana","lat":"47.27472","fcode":"VAL"},{"adminCode1":"MT","lng":"-107.76622","geonameId":5669417,"toponymName":"North Kirby Coulee","countryId":"6252001","fcl":"T","population":0,"countryCode":"US","name":"North Kirby Coulee","fclName":"mountain,hill,rock,... ","adminCodes1":{"ISO3166_2":"MT"},"countryName":"United States","fcodeName":"valley","adminName1":"Montana","lat":"47.28","fcode":"VAL"},{"adminCode1":"MT","lng":"-115.50378","geonameId":5660907,"toponymName":"Kirby Gulch","countryId":"6252001","fcl":"T","population":0,"countryCode":"US","name":"Kirby Gulch","fclName":"mountain,hill,rock,... ","adminCodes1":{"ISO3166_2":"MT"},"countryName":"United States","fcodeName":"valley","adminName1":"Montana","lat":"47.80188","fcode":"VAL"},{"adminCode1":"ID","lng":"-116.4807","geonameId":5597836,"toponymName":"Kirby Bar","countryId":"6252001","fcl":"T","population":0,"countryCode":"US","name":"Kirby Bar","fclName":"mountain,hill,rock,... ","adminCodes1":{"ISO3166_2":"ID"},"countryName":"United States","fcodeName":"bar","adminName1":"Idaho","lat":"45.58238","fcode":"BAR"},{"adminCode1":"ID","lng":"-116.3447","geonameId":5597840,"toponymName":"Kirby Mountain","countryId":"6252001","fcl":"T","population":0,"countryCode":"US","name":"Kirby Mountain","fclName":"mountain,hill,rock,... ","adminCodes1":{"ISO3166_2":"ID"},"countryName":"United States","fcodeName":"mountain","adminName1":"Idaho","lat":"48.32647","fcode":"MT"},{"adminCode1":"WY","lng":"-108.27899","geonameId":5829677,"toponymName":"Kirby Draw","countryId":"6252001","fcl":"T","population":0,"countryCode":"US","name":"Kirby Draw","fclName":"mountain,hill,rock,... ","adminCodes1":{"ISO3166_2":"WY"},"countryName":"United States","fcodeName":"valley","adminName1":"Wyoming","lat":"43.1119","fcode":"VAL"},{"adminCode1":"MS","lng":"-90.98094","geonameId":4432443,"toponymName":"Kirby","countryId":"6252001","fcl":"P","population":0,"countryCode":"US","name":"Kirby","fclName":"city, village,...","adminCodes1":{"ISO3166_2":"MS"},"countryName":"United States","fcodeName":"populated place","adminName1":"Mississippi","lat":"31.51156","fcode":"PPL"},{"adminCode1":"TN","lng":"-85.90832","geonameId":4634717,"toponymName":"Kirby","countryId":"6252001","fcl":"P","population":0,"countryCode":"US","name":"Kirby","fclName":"city, village,...","adminCodes1":{"ISO3166_2":"TN"},"countryName":"United States","fcodeName":"populated place","adminName1":"Tennessee","lat":"36.47894","fcode":"PPL"},{"adminCode1":"TN","lng":"-84.41354","geonameId":4634726,"toponymName":"Kirby Knob","countryId":"6252001","fcl":"T","population":0,"countryCode":"US","name":"Kirby Knob","fclName":"mountain,hill,rock,... ","adminCodes1":{"ISO3166_2":"TN"},"countryName":"United States","fcodeName":"mountain","adminName1":"Tennessee","lat":"35.36396","fcode":"MT"},{"adminCode1":"TN","lng":"-85.86525","geonameId":4634731,"toponymName":"Kirby Smith Point","countryId":"6252001","fcl":"T","population":0,"countryCode":"US","name":"Kirby Smith Point","fclName":"mountain,hill,rock,... ","adminCodes1":{"ISO3166_2":"TN"},"countryName":"United States","fcodeName":"cape","adminName1":"Tennessee","lat":"35.18536","fcode":"CAPE"},{"adminCode1":"MO","lng":"-91.26432","geonameId":4393722,"toponymName":"Kirby Ridge","countryId":"6252001","fcl":"T","population":0,"countryCode":"US","name":"Kirby Ridge","fclName":"mountain,hill,rock,... ","adminCodes1":{"ISO3166_2":"MO"},"countryName":"United States","fcodeName":"ridge(s)","adminName1":"Missouri","lat":"38.80616","fcode":"RDGE"},{"adminCode1":"AR","lng":"-93.62463","geonameId":4117591,"toponymName":"Kirby Mountain","countryId":"6252001","fcl":"T","population":0,"countryCode":"US","name":"Kirby Mountain","fclName":"mountain,hill,rock,... ","adminCodes1":{"ISO3166_2":"AR"},"countryName":"United States","fcodeName":"ridge(s)","adminName1":"Arkansas","lat":"34.2226","fcode":"RDGE"},{"adminCode1":"KY","lng":"-83.94826","geonameId":4297087,"toponymName":"Kirby Mountain","countryId":"6252001","fcl":"T","population":0,"countryCode":"US","name":"Kirby Mountain","fclName":"mountain,hill,rock,... ","adminCodes1":{"ISO3166_2":"KY"},"countryName":"United States","fcodeName":"mountain","adminName1":"Kentucky","lat":"36.98815","fcode":"MT"},{"adminCode1":"KY","lng":"-82.76405","geonameId":4048628,"toponymName":"Kirby Flats","countryId":"6252001","fcl":"T","population":0,"countryCode":"US","name":"Kirby Flats","fclName":"mountain,hill,rock,... ","adminCodes1":{"ISO3166_2":"KY"},"countryName":"United States","fcodeName":"plain(s)","adminName1":"Kentucky","lat":"38.42036","fcode":"PLN"},{"adminCode1":"VT","lng":"-73.12318","geonameId":5237718,"toponymName":"Kirby Corner","countryId":"6252001","fcl":"P","population":0,"countryCode":"US","name":"Kirby Corner","fclName":"city, village,...","adminCodes1":{"ISO3166_2":"VT"},"countryName":"United States","fcodeName":"populated place","adminName1":"Vermont","lat":"44.45505","fcode":"PPL"},{"adminCode1":"VT","lng":"-73.09816","geonameId":5237719,"toponymName":"Kirby Hollow","countryId":"6252001","fcl":"T","population":0,"countryCode":"US","name":"Kirby Hollow","fclName":"mountain,hill,rock,... ","adminCodes1":{"ISO3166_2":"VT"},"countryName":"United States","fcodeName":"valley","adminName1":"Vermont","lat":"43.26563","fcode":"VAL"},{"adminCode1":"VT","lng":"-72.94456","geonameId":5237722,"toponymName":"Kirby Peak","countryId":"6252001","fcl":"T","population":0,"countryCode":"US","name":"Kirby Peak","fclName":"mountain,hill,rock,... ","adminCodes1":{"ISO3166_2":"VT"},"countryName":"United States","fcodeName":"mountain","adminName1":"Vermont","lat":"43.96312","fcode":"MT"},{"adminCode1":"FL","lng":"-82.31844","geonameId":4160963,"toponymName":"Kirby-Smith School (historical)","countryId":"6252001","fcl":"S","population":0,"countryCode":"US","name":"Kirby-Smith School (historical)","fclName":"spot, building, farm","adminCodes1":{"ISO3166_2":"FL"},"countryName":"United States","fcodeName":"school","adminName1":"Florida","lat":"29.65247","fcode":"SCH"},{"adminCode1":"WA","lng":"-117.39073","geonameId":5799833,"toponymName":"Kirby","countryId":"6252001","fcl":"P","population":0,"countryCode":"US","name":"Kirby","fclName":"city, village,...","adminCodes1":{"ISO3166_2":"WA"},"countryName":"United States","fcodeName":"populated place","adminName1":"Washington","lat":"46.51321","fcode":"PPL"},{"adminCode1":"WA","lng":"-118.38971","geonameId":5799835,"toponymName":"Kirby Draw","countryId":"6252001","fcl":"T","population":0,"countryCode":"US","name":"Kirby Draw","fclName":"mountain,hill,rock,... ","adminCodes1":{"ISO3166_2":"WA"},"countryName":"United States","fcodeName":"valley","adminName1":"Washington","lat":"47.84516","fcode":"VAL"},{"adminCode1":"WA","lng":"-122.75402","geonameId":5799843,"toponymName":"Kirby Island","countryId":"6252001","fcl":"T","population":0,"countryCode":"US","name":"Kirby Island","fclName":"mountain,hill,rock,... ","adminCodes1":{"ISO3166_2":"WA"},"countryName":"United States","fcodeName":"island","adminName1":"Washington","lat":"47.01676","fcode":"ISL"},{"adminCode1":"PA","lng":"-75.6025","geonameId":7148243,"toponymName":"Kirby Woods","countryId":"6252001","fcl":"P","population":0,"countryCode":"US","name":"Kirby Woods","fclName":"city, village,...","adminCodes1":{"ISO3166_2":"PA"},"countryName":"United States","fcodeName":"populated place","adminName1":"Pennsylvania","lat":"39.9762","fcode":"PPL"},{"adminCode1":"CA","lng":"-122.48997","geonameId":5363480,"toponymName":"Kirby Beach","countryId":"6252001","fcl":"T","population":0,"countryCode":"US","name":"Kirby Beach","fclName":"mountain,hill,rock,... ","adminCodes1":{"ISO3166_2":"CA"},"countryName":"United States","fcodeName":"beach","adminName1":"California","lat":"37.82659","fcode":"BCH"},{"adminCode1":"CA","lng":"-118.2273","geonameId":5363482,"toponymName":"Kirby Canyon","countryId":"6252001","fcl":"T","population":0,"countryCode":"US","name":"Kirby Canyon","fclName":"mountain,hill,rock,... ","adminCodes1":{"ISO3166_2":"CA"},"countryName":"United States","fcodeName":"valley","adminName1":"California","lat":"34.17195","fcode":"VAL"},{"adminCode1":"CA","lng":"-121.92024","geonameId":5363486,"toponymName":"Kirby Hill","countryId":"6252001","fcl":"T","population":0,"countryCode":"US","name":"Kirby Hill","fclName":"mountain,hill,rock,... ","adminCodes1":{"ISO3166_2":"CA"},"countryName":"United States","fcodeName":"mountain","adminName1":"California","lat":"38.16742","fcode":"MT"},{"adminCode1":"CA","lng":"-119.79711","geonameId":5363488,"toponymName":"Kirby Peak","countryId":"6252001","fcl":"T","population":0,"countryCode":"US","name":"Kirby Peak","fclName":"mountain,hill,rock,... ","adminCodes1":{"ISO3166_2":"CA"},"countryName":"United States","fcodeName":"mountain","adminName1":"California","lat":"37.5216","fcode":"MT"},{"adminCode1":"AL","lng":"-85.82761","geonameId":10338043,"toponymName":"The Victoria Inn","countryId":"6252001","fcl":"S","population":0,"countryCode":"US","name":"The Victoria Inn","fclName":"spot, building, farm","adminCodes1":{"ISO3166_2":"AL"},"countryName":"United States","fcodeName":"hotel","adminName1":"Alabama","lat":"33.66537","fcode":"HTL"},{"adminCode1":"TX","lng":"-96.79945","geonameId":4677726,"toponymName":"Busch Building","countryId":"6252001","fcl":"S","population":0,"countryCode":"US","name":"Busch Building","fclName":"spot, building, farm","adminCodes1":{"ISO3166_2":"TX"},"countryName":"United States","fcodeName":"building(s)","adminName1":"Texas","lat":"32.78096","fcode":"BLDG"},{"adminCode1":"VA","lng":"-76.60724","geonameId":4768276,"toponymName":"Lake Kilby","countryId":"6252001","fcl":"H","population":0,"countryCode":"US","name":"Lake Kilby","fclName":"stream, lake, ...","adminCodes1":{"ISO3166_2":"VA"},"countryName":"United States","fcodeName":"reservoir(s)","adminName1":"Virginia","lat":"36.72368","fcode":"RSV"},{"adminCode1":"VT","lng":"-71.94509","geonameId":5241693,"toponymName":"Sugar Hill","countryId":"6252001","fcl":"T","population":0,"countryCode":"US","name":"Sugar Hill","fclName":"mountain,hill,rock,... ","adminCodes1":{"ISO3166_2":"VT"},"countryName":"United States","fcodeName":"mountain","adminName1":"Vermont","lat":"44.48811","fcode":"MT"},{"adminCode1":"VT","lng":"-71.93037","geonameId":5241695,"toponymName":"Sugar Hill","countryId":"6252001","fcl":"T","population":0,"countryCode":"US","name":"Sugar Hill","fclName":"mountain,hill,rock,... ","adminCodes1":{"ISO3166_2":"VT"},"countryName":"United States","fcodeName":"mountain","adminName1":"Vermont","lat":"44.50978","fcode":"MT"},{"adminCode1":"OR","lng":"-117.61132","geonameId":5735168,"toponymName":"Kirby Reservoir","countryId":"6252001","fcl":"H","population":0,"countryCode":"US","name":"Kirby Reservoir","fclName":"stream, lake, ...","adminCodes1":{"ISO3166_2":"OR"},"countryName":"United States","fcodeName":"reservoir(s)","adminName1":"Oregon","lat":"44.59558","fcode":"RSV"},{"adminCode1":"TN","lng":"-85.895","geonameId":6351219,"toponymName":"Wakefield - Kirby Cemetery","countryId":"6252001","fcl":"S","population":0,"countryCode":"US","name":"Wakefield - Kirby Cemetery","fclName":"spot, building, farm","adminCodes1":{"ISO3166_2":"TN"},"countryName":"United States","fcodeName":"cemetery","adminName1":"Tennessee","lat":"36.45528","fcode":"CMTY"},{"adminCode1":"MO","lng":"-90.2332","geonameId":7206654,"toponymName":"Kirby Middle School","countryId":"6252001","fcl":"S","population":0,"countryCode":"US","name":"Kirby Middle School","fclName":"spot, building, farm","adminCodes1":{"ISO3166_2":"MO"},"countryName":"United States","fcodeName":"school","adminName1":"Missouri","lat":"38.7715","fcode":"SCH"}]}
