{"totalResultsCount":43,"geonames":[{"adminCode1":"MN","lng":"-93.60928","geonameId":5018250,"toponymName":"Big Dick Lake","countryId":"6252001","fcl":"H","population":0,"countryCode":"US","name":"Big Dick Lake","fclName":"stream, lake, ...","adminCodes1":{"ISO3166_2":"MN"},"countryName":"United States","fcodeName":"lake","adminName1":"Minnesota","lat":"47.61054","fcode":"LK"},{"adminCode1":"AR","lng":"-91.83874","geonameId":4117891,"toponymName":"Lake Dick","countryId":"6252001","fcl":"P","population":0,"countryCode":"US","name":"Lake Dick","fclName":"city, village,...","adminCodes1":{"ISO3166_2":"AR"},"countryName":"United States","fcodeName":"populated place","adminName1":"Arkansas","lat":"34.25204","fcode":"PPL"},{"adminCode1":"IN","lng":"-85.245","geonameId":4922246,"toponymName":"Dick's Strip","countryId":"6252001","fcl":"S","population":0,"countryCode":"US","name":"Dick's Strip","fclName":"spot, building, farm","adminCodes1":{"ISO3166_2":"IN"},"countryName":"United States","fcodeName":"airport","adminName1":"Indiana","lat":"41.09861","fcode":"AIRP"},{"adminCode1":"IL","lng":"-88.01253","geonameId":4237038,"toponymName":"Dick Pond","countryId":"6252001","fcl":"H","population":0,"countryCode":"US","name":"Dick Pond","fclName":"stream, lake, ...","adminCodes1":{"ISO3166_2":"IL"},"countryName":"United States","fcodeName":"lake","adminName1":"Illinois","lat":"38.1181","fcode":"LK"},{"adminCode1":"WY","lng":"-110.73355","geonameId":5840128,"toponymName":"String Lake","countryId":"6252001","fcl":"H","population":0,"countryCode":"US","name":"String Lake","fclName":"stream, lake, ...","adminCodes1":{"ISO3166_2":"WY"},"countryName":"United States","fcodeName":"lake","adminName1":"Wyoming","lat":"43.78771","fcode":"LK"},{"adminCode1":"MT","lng":"-109.91954","geonameId":5648618,"toponymName":"Dick Lake","countryId":"6252001","fcl":"H","population":0,"countryCode":"US","name":"Dick Lake","fclName":"stream, lake, ...","adminCodes1":{"ISO3166_2":"MT"},"countryName":"United States","fcodeName":"lake","adminName1":"Montana","lat":"45.08536","fcode":"LK"},{"adminCode1":"AK","lng":"-154.49278","geonameId":5860672,"toponymName":"Dick McCarthy Lake","countryId":"6252001","fcl":"H","population":0,"countryCode":"US","name":"Dick McCarthy Lake","fclName":"stream, lake, ...","adminCodes1":{"ISO3166_2":"AK"},"countryName":"United States","fcodeName":"lake","adminName1":"Alaska","lat":"63.135","fcode":"LK"},{"adminCode1":"AR","lng":"-91.84252","geonameId":4108192,"toponymName":"Lake Dick","countryId":"6252001","fcl":"H","population":0,"countryCode":"US","name":"Lake Dick","fclName":"stream, lake, ...","adminCodes1":{"ISO3166_2":"AR"},"countryName":"United States","fcodeName":"lake","adminName1":"Arkansas","lat":"34.2535","fcode":"LK"},{"adminCode1":"FL","lng":"-82.27737","geonameId":4153251,"toponymName":"Dick Lake","countryId":"6252001","fcl":"H","population":0,"countryCode":"US","name":"Dick Lake","fclName":"stream, lake, ...","adminCodes1":{"ISO3166_2":"FL"},"countryName":"United States","fcodeName":"lake","adminName1":"Florida","lat":"28.27397","fcode":"LK"},{"adminCode1":"MN","lng":"-93.61946","geonameId":5034951,"toponymName":"Little Dick Lake","countryId":"6252001","fcl":"H","population":0,"countryCode":"US","name":"Little Dick Lake","fclName":"stream, lake, ...","adminCodes1":{"ISO3166_2":"MN"},"countryName":"United States","fcodeName":"lake","adminName1":"Minnesota","lat":"47.61159","fcode":"LK"},{"adminCode1":"MN","lng":"-94.49635","geonameId":5024307,"toponymName":"Dick Lake","countryId":"6252001","fcl":"H","population":0,"countryCode":"US","name":"Dick Lake","fclName":"stream, lake, ...","adminCodes1":{"ISO3166_2":"MN"},"countryName":"United States","fcodeName":"lake","adminName1":"Minnesota","lat":"46.75615","fcode":"LK"},{"adminCode1":"MN","lng":"-90.49193","geonameId":5024308,"toponymName":"Dick Lake","countryId":"6252001","fcl":"H","population":0,"countryCode":"US","name":"Dick Lake","fclName":"stream, lake, ...","adminCodes1":{"ISO3166_2":"MN"},"countryName":"United States","fcodeName":"lake","adminName1":"Minnesota","lat":"47.86473","fcode":"LK"},{"adminCode1":"AK","lng":"-145.47417","geonameId":8096609,"toponymName":"Dick Lake","countryId":"6252001","fcl":"H","population":0,"countryCode":"US","name":"Dick Lake","fclName":"stream, lake, ...","adminCodes1":{"ISO3166_2":"AK"},"countryName":"United States","fcodeName":"lake","adminName1":"Alaska","lat":"62.86139","fcode":"LK"},{"adminCode1":"OR","lng":"-120.60858","geonameId":5723235,"toponymName":"Dicks Pond","countryId":"6252001","fcl":"H","population":0,"countryCode":"US","name":"Dicks Pond","fclName":"stream, lake, ...","adminCodes1":{"ISO3166_2":"OR"},"countryName":"United States","fcodeName":"lake","adminName1":"Oregon","lat":"42.40349","fcode":"LK"},{"adminCode1":"WY","lng":"-109.18181","geonameId":5823205,"toponymName":"Dick Creek Lakes","countryId":"6252001","fcl":"H","population":0,"countryCode":"US","name":"Dick Creek Lakes","fclName":"stream, lake, ...","adminCodes1":{"ISO3166_2":"WY"},"countryName":"United States","fcodeName":"lake","adminName1":"Wyoming","lat":"43.9869","fcode":"LK"},{"adminCode1":"TN","lng":"-85.90961","geonameId":4618023,"toponymName":"Dick Pond","countryId":"6252001","fcl":"H","population":0,"countryCode":"US","name":"Dick Pond","fclName":"stream, lake, ...","adminCodes1":{"ISO3166_2":"TN"},"countryName":"United States","fcodeName":"lake","adminName1":"Tennessee","lat":"35.55277","fcode":"LK"},{"adminCode1":"FL","lng":"-84.95469","geonameId":4147876,"toponymName":"Bill Dick Pond","countryId":"6252001","fcl":"H","population":0,"countryCode":"US","name":"Bill Dick Pond","fclName":"stream, lake, ...","adminCodes1":{"ISO3166_2":"FL"},"countryName":"United States","fcodeName":"lake","adminName1":"Florida","lat":"30.24471","fcode":"LK"},{"adminCode1":"ME","lng":"-69.08014","geonameId":4981229,"toponymName":"Tumbledown Dick Pond","countryId":"6252001","fcl":"H","population":0,"countryCode":"US","name":"Tumbledown Dick Pond","fclName":"stream, lake, ...","adminCodes1":{"ISO3166_2":"ME"},"countryName":"United States","fcodeName":"lake","adminName1":"Maine","lat":"45.69699","fcode":"LK"},{"adminCode1":"MI","lng":"-84.90329","geonameId":4990837,"toponymName":"Dick Pond","countryId":"6252001","fcl":"H","population":0,"countryCode":"US","name":"Dick Pond","fclName":"stream, lake, ...","adminCodes1":{"ISO3166_2":"MI"},"countryName":"United States","fcodeName":"lake","adminName1":"Michigan","lat":"46.33431","fcode":"LK"},{"adminCode1":"MS","lng":"-90.60868","geonameId":4424900,"toponymName":"Dump Lake","countryId":"6252001","fcl":"H","population":0,"countryCode":"US","name":"Dump Lake","fclName":"stream, lake, ...","adminCodes1":{"ISO3166_2":"MS"},"countryName":"United States","fcodeName":"lake","adminName1":"Mississippi","lat":"32.64008","fcode":"LK"},{"adminCode1":"WI","lng":"-89.23184","geonameId":5249341,"toponymName":"Cook Lake","countryId":"6252001","fcl":"H","population":0,"countryCode":"US","name":"Cook Lake","fclName":"stream, lake, ...","adminCodes1":{"ISO3166_2":"WI"},"countryName":"United States","fcodeName":"lake","adminName1":"Wisconsin","lat":"45.76136","fcode":"LK"},{"adminCode1":"WA","lng":"-119.91898","geonameId":5801156,"toponymName":"Little Dick Lake","countryId":"6252001","fcl":"H","population":0,"countryCode":"US","name":"Little Dick Lake","fclName":"stream, lake, ...","adminCodes1":{"ISO3166_2":"WA"},"countryName":"United States","fcodeName":"lake","adminName1":"Washington","lat":"47.98567","fcode":"LK"},{"adminCode1":"WA","lng":"-119.57409","geonameId":5792407,"toponymName":"Dick Price Lake","countryId":"6252001","fcl":"H","population":0,"countryCode":"US","name":"Dick Price Lake","fclName":"stream, lake, ...","adminCodes1":{"ISO3166_2":"WA"},"countryName":"United States","fcodeName":"lake","adminName1":"Washington","lat":"48.55906","fcode":"LK"},{"adminCode1":"WA","lng":"-121.47672","geonameId":5813712,"toponymName":"Tom Dick and Harry Lakes","countryId":"6252001","fcl":"H","population":0,"countryCode":"US","name":"Tom Dick and Harry Lakes","fclName":"stream, lake, ...","adminCodes1":{"ISO3166_2":"WA"},"countryName":"United States","fcodeName":"lake","adminName1":"Washington","lat":"47.84798","fcode":"LK"},{"adminCode1":"SC","lng":"-78.95345","geonameId":4576632,"toponymName":"Dick Pond","countryId":"6252001","fcl":"H","population":0,"countryCode":"US","name":"Dick Pond","fclName":"stream, lake, ...","adminCodes1":{"ISO3166_2":"SC"},"countryName":"United States","fcodeName":"lake","adminName1":"South Carolina","lat":"33.62801","fcode":"LK"},{"adminCode1":"AK","lng":"-145.82806","geonameId":8096982,"toponymName":"Dicks Pond","countryId":"6252001","fcl":"H","population":0,"countryCode":"US","name":"Dicks Pond","fclName":"stream, lake, ...","adminCodes1":{"ISO3166_2":"AK"},"countryName":"United States","fcodeName":"lake","adminName1":"Alaska","lat":"63.68889","fcode":"LK"},{"adminCode1":"OK","lng":"-95.13024","geonameId":4535081,"toponymName":"Dick Melendy Dam","countryId":"6252001","fcl":"S","population":0,"countryCode":"US","name":"Dick Melendy Dam","fclName":"spot, building, farm","adminCodes1":{"ISO3166_2":"OK"},"countryName":"United States","fcodeName":"dam","adminName1":"Oklahoma","lat":"36.77674","fcode":"DAM"},{"adminCode1":"MI","lng":"-84.83145","geonameId":4990834,"toponymName":"Dick","countryId":"6252001","fcl":"P","population":0,"countryCode":"US","name":"Dick","fclName":"city, village,...","adminCodes1":{"ISO3166_2":"MI"},"countryName":"United States","fcodeName":"populated place","adminName1":"Michigan","lat":"46.19085","fcode":"PPL"},{"adminCode1":"MO","lng":"-93.11687","geonameId":4406578,"toponymName":"Rubydo Lake Dam","countryId":"6252001","fcl":"S","population":0,"countryCode":"US","name":"Rubydo Lake Dam","fclName":"spot, building, farm","adminCodes1":{"ISO3166_2":"MO"},"countryName":"United States","fcodeName":"dam","adminName1":"Missouri","lat":"38.70335","fcode":"DAM"},{"adminCode1":"MO","lng":"-93.16687","geonameId":4390235,"toponymName":"Hermora Lake Dam","countryId":"6252001","fcl":"S","population":0,"countryCode":"US","name":"Hermora Lake Dam","fclName":"spot, building, farm","adminCodes1":{"ISO3166_2":"MO"},"countryName":"United States","fcodeName":"dam","adminName1":"Missouri","lat":"38.68168","fcode":"DAM"},{"adminCode1":"MI","lng":"-84.83139","geonameId":7270387,"toponymName":"Dick Station","countryId":"6252001","fcl":"S","population":0,"countryCode":"US","name":"Dick Station","fclName":"spot, building, farm","adminCodes1":{"ISO3166_2":"MI"},"countryName":"United States","fcodeName":"","adminName1":"Michigan","lat":"46.19083"},{"adminCode1":"MN","lng":"-93.14272","geonameId":5015909,"toponymName":"Aetna Cemetery","countryId":"6252001","fcl":"S","population":0,"countryCode":"US","name":"Aetna Cemetery","fclName":"spot, building, farm","adminCodes1":{"ISO3166_2":"MN"},"countryName":"United States","fcodeName":"cemetery","adminName1":"Minnesota","lat":"45.4283","fcode":"CMTY"},{"adminCode1":"UT","lng":"-111.8554","geonameId":7185002,"toponymName":"Dick Science Building","countryId":"6252001","fcl":"S","population":0,"countryCode":"US","name":"Dick Science Building","fclName":"spot, building, farm","adminCodes1":{"ISO3166_2":"UT"},"countryName":"United States","fcodeName":"building(s)","adminName1":"Utah","lat":"40.7315","fcode":"BLDG"},{"adminCode1":"MS","lng":"-90.60843","geonameId":4432743,"toponymName":"Lake Dick Dam","countryId":"6252001","fcl":"S","population":0,"countryCode":"US","name":"Lake Dick Dam","fclName":"spot, building, farm","adminCodes1":{"ISO3166_2":"MS"},"countryName":"United States","fcodeName":"dam","adminName1":"Mississippi","lat":"32.6418","fcode":"DAM"},{"adminCode1":"MS","lng":"-90.62426","geonameId":4432744,"toponymName":"Lake Dick Landing","countryId":"6252001","fcl":"S","population":0,"countryCode":"US","name":"Lake Dick Landing","fclName":"spot, building, farm","adminCodes1":{"ISO3166_2":"MS"},"countryName":"United States","fcodeName":"","adminName1":"Mississippi","lat":"32.65764"},{"adminCode1":"TX","lng":"-97.86219","geonameId":4686141,"toponymName":"Dick Kleberg Park Lake","countryId":"6252001","fcl":"H","population":0,"countryCode":"US","name":"Dick Kleberg Park Lake","fclName":"stream, lake, ...","adminCodes1":{"ISO3166_2":"TX"},"countryName":"United States","fcodeName":"reservoir(s)","adminName1":"Texas","lat":"27.46822","fcode":"RSV"},{"adminCode1":"AR","lng":"-91.81819","geonameId":4117892,"toponymName":"Lake Dick Church (historical)","countryId":"6252001","fcl":"S","population":0,"countryCode":"US","name":"Lake Dick Church (historical)","fclName":"spot, building, farm","adminCodes1":{"ISO3166_2":"AR"},"countryName":"United States","fcodeName":"church","adminName1":"Arkansas","lat":"34.2526","fcode":"CH"},{"adminCode1":"MI","lng":"-84.83139","geonameId":7151491,"toponymName":"Dick Post Office (historical)","countryId":"6252001","fcl":"S","population":0,"countryCode":"US","name":"Dick Post Office (historical)","fclName":"spot, building, farm","adminCodes1":{"ISO3166_2":"MI"},"countryName":"United States","fcodeName":"post office","adminName1":"Michigan","lat":"46.19083","fcode":"PO"},{"adminCode1":"MI","lng":"-84.91645","geonameId":5004388,"toponymName":"Old Dick (historical)","countryId":"6252001","fcl":"S","population":0,"countryCode":"US","name":"Old Dick (historical)","fclName":"spot, building, farm","adminCodes1":{"ISO3166_2":"MI"},"countryName":"United States","fcodeName":"","adminName1":"Michigan","lat":"46.19585"},{"adminCode1":"MI","lng":"-84.89534","geonameId":4990835,"toponymName":"Dick Campground","countryId":"6252001","fcl":"S","population":0,"countryCode":"US","name":"Dick Campground","fclName":"spot, building, farm","adminCodes1":{"ISO3166_2":"MI"},"countryName":"United States","fcodeName":"camp(s)","adminName1":"Michigan","lat":"46.23113","fcode":"CMP"},{"adminCode1":"IN","lng":"-87.14835","geonameId":4266641,"toponymName":"Water Works Lake Dam","countryId":"6252001","fcl":"S","population":0,"countryCode":"US","name":"Water Works Lake Dam","fclName":"spot, building, farm","adminCodes1":{"ISO3166_2":"IN"},"countryName":"United States","fcodeName":"dam","adminName1":"Indiana","lat":"39.52171","fcode":"DAM"},{"adminCode1":"CA","lng":"-124.16552","geonameId":7722607,"toponymName":"Fort Dick Fire Protection District Lake Earl Station","countryId":"6252001","fcl":"S","population":0,"countryCode":"US","name":"Fort Dick Fire Protection District Lake Earl Station","fclName":"spot, building, farm","adminCodes1":{"ISO3166_2":"CA"},"countryName":"United States","fcodeName":"building(s)","adminName1":"California","lat":"41.82059","fcode":"BLDG"},{"adminCode1":"WV","lng":"-80.22481","geonameId":4804016,"toponymName":"Dick Harbert Lake Dam","countryId":"6252001","fcl":"S","population":0,"countryCode":"US","name":"Dick Harbert Lake Dam","fclName":"spot, building, farm","adminCodes1":{"ISO3166_2":"WV"},"countryName":"United States","fcodeName":"dam","adminName1":"West Virginia","lat":"39.42175","fcode":"DAM"}]}
