{"totalResultsCount":778,"geonames":[{"adminCode1":"FL","lng":"-81.31784","geonameId":4161373,"toponymName":"Lake Mary","countryId":"6252001","fcl":"P","population":16021,"countryCode":"US","name":"Lake Mary","fclName":"city, village,...","adminCodes1":{"ISO3166_2":"FL"},"countryName":"United States","fcodeName":"populated place","adminName1":"Florida","lat":"28.75888","fcode":"PPL"},{"adminCode1":"WI","lng":"-88.25624","geonameId":5262028,"toponymName":"Lake Mary","countryId":"6252001","fcl":"H","population":0,"countryCode":"US","name":"Lake Mary","fclName":"stream, lake, ...","adminCodes1":{"ISO3166_2":"WI"},"countryName":"United States","fcodeName":"lake","adminName1":"Wisconsin","lat":"42.52368","fcode":"LK"},{"adminCode1":"FL","lng":"-81.17927","geonameId":4163606,"toponymName":"Lake Mary Jane","countryId":"6252001","fcl":"H","population":0,"countryCode":"US","name":"Lake Mary Jane","fclName":"stream, lake, ...","adminCodes1":{"ISO3166_2":"FL"},"countryName":"United States","fcodeName":"lake","adminName1":"Florida","lat":"28.37308","fcode":"LK"},{"adminCode1":"ME","lng":"-68.97044","geonameId":4968338,"toponymName":"Jo-Mary Lake","countryId":"6252001","fcl":"H","population":0,"countryCode":"US","name":"Jo-Mary Lake","fclName":"stream, lake, ...","adminCodes1":{"ISO3166_2":"ME"},"countryName":"United States","fcodeName":"lake","adminName1":"Maine","lat":"45.67608","fcode":"LK"},{"adminCode1":"LA","lng":"-91.40817","geonameId":4326190,"toponymName":"Grand Lake","countryId":"6252001","fcl":"H","population":0,"countryCode":"US","name":"Grand Lake","fclName":"stream, lake, ...","adminCodes1":{"ISO3166_2":"LA"},"countryName":"United States","fcodeName":"lake","adminName1":"Louisiana","lat":"29.9427","fcode":"LK"},{"adminCode1":"MT","lng":"-113.52518","geonameId":5675898,"toponymName":"Saint Mary Lake","countryId":"6252001","fcl":"H","population":0,"countryCode":"US","name":"Saint Mary Lake","fclName":"stream, lake, ...","adminCodes1":{"ISO3166_2":"MT"},"countryName":"United States","fcodeName":"lake","adminName1":"Montana","lat":"48.68673","fcode":"LK"},{"adminCode1":"LA","lng":"-91.13815","geonameId":4336454,"toponymName":"Lake Palourde","countryId":"6252001","fcl":"H","population":0,"countryCode":"US","name":"Lake Palourde","fclName":"stream, lake, ...","adminCodes1":{"ISO3166_2":"LA"},"countryName":"United States","fcodeName":"lake","adminName1":"Louisiana","lat":"29.72142","fcode":"LK"},{"adminCode1":"MI","lng":"-83.30508","geonameId":4998839,"toponymName":"Lantern Lake","countryId":"6252001","fcl":"H","population":0,"countryCode":"US","name":"Lantern Lake","fclName":"stream, lake, ...","adminCodes1":{"ISO3166_2":"MI"},"countryName":"United States","fcodeName":"lake","adminName1":"Michigan","lat":"42.69492","fcode":"LK"},{"adminCode1":"GA","lng":"-81.90186","geonameId":4211540,"toponymName":"Mud Lake","countryId":"6252001","fcl":"H","population":0,"countryCode":"US","name":"Mud Lake","fclName":"stream, lake, ...","adminCodes1":{"ISO3166_2":"GA"},"countryName":"United States","fcodeName":"lake","adminName1":"Georgia","lat":"31.05617","fcode":"LK"},{"adminCode1":"AK","lng":"-134.01434","geonameId":5844563,"toponymName":"Bart Lake","countryId":"6252001","fcl":"H","population":0,"countryCode":"US","name":"Bart Lake","fclName":"stream, lake, ...","adminCodes1":{"ISO3166_2":"AK"},"countryName":"United States","fcodeName":"lake","adminName1":"Alaska","lat":"58.22819","fcode":"LK"},{"adminCode1":"MT","lng":"-114.39457","geonameId":5661429,"toponymName":"Lake Mary Ronan","countryId":"6252001","fcl":"P","population":65,"countryCode":"US","name":"Lake Mary Ronan","fclName":"city, village,...","adminCodes1":{"ISO3166_2":"MT"},"countryName":"United States","fcodeName":"populated place","adminName1":"Montana","lat":"47.943","fcode":"PPL"},{"adminCode1":"WI","lng":"-88.26926","geonameId":5251688,"toponymName":"Elizabeth Lake","countryId":"6252001","fcl":"H","population":0,"countryCode":"US","name":"Elizabeth Lake","fclName":"stream, lake, ...","adminCodes1":{"ISO3166_2":"WI"},"countryName":"United States","fcodeName":"lake","adminName1":"Wisconsin","lat":"42.5078","fcode":"LK"},{"adminCode1":"MT","lng":"-113.77057","geonameId":5662449,"toponymName":"Lincoln Lake","countryId":"6252001","fcl":"H","population":0,"countryCode":"US","name":"Lincoln Lake","fclName":"stream, lake, ...","adminCodes1":{"ISO3166_2":"MT"},"countryName":"United States","fcodeName":"lake","adminName1":"Montana","lat":"48.59078","fcode":"LK"},{"adminCode1":"MA","lng":"-70.71365","geonameId":4943289,"toponymName":"Marys Lake","countryId":"6252001","fcl":"H","population":0,"countryCode":"US","name":"Marys Lake","fclName":"stream, lake, ...","adminCodes1":{"ISO3166_2":"MA"},"countryName":"United States","fcodeName":"lake","adminName1":"Massachusetts","lat":"41.5061","fcode":"LK"},{"adminCode1":"LA","lng":"-91.78049","geonameId":4332720,"toponymName":"Mary Cane Lake","countryId":"6252001","fcl":"H","population":0,"countryCode":"US","name":"Mary Cane Lake","fclName":"stream, lake, ...","adminCodes1":{"ISO3166_2":"LA"},"countryName":"United States","fcodeName":"lake","adminName1":"Louisiana","lat":"30.51366","fcode":"LK"},{"adminCode1":"MN","lng":"-95.47826","geonameId":5036817,"toponymName":"Lake Mary","countryId":"6252001","fcl":"H","population":0,"countryCode":"US","name":"Lake Mary","fclName":"stream, lake, ...","adminCodes1":{"ISO3166_2":"MN"},"countryName":"United States","fcodeName":"lake","adminName1":"Minnesota","lat":"45.8267","fcode":"LK"},{"adminCode1":"MD","lng":"-76.32847","geonameId":4365300,"toponymName":"Peters Pond","countryId":"6252001","fcl":"H","population":0,"countryCode":"US","name":"Peters Pond","fclName":"stream, lake, ...","adminCodes1":{"ISO3166_2":"MD"},"countryName":"United States","fcodeName":"lake","adminName1":"Maryland","lat":"38.13204","fcode":"LK"},{"adminCode1":"MD","lng":"-76.38578","geonameId":4356446,"toponymName":"Goose Creek","countryId":"6252001","fcl":"H","population":0,"countryCode":"US","name":"Goose Creek","fclName":"stream, lake, ...","adminCodes1":{"ISO3166_2":"MD"},"countryName":"United States","fcodeName":"lake","adminName1":"Maryland","lat":"38.29401","fcode":"LK"},{"adminCode1":"MD","lng":"-76.36921","geonameId":4348783,"toponymName":"Biscoe Pond","countryId":"6252001","fcl":"H","population":0,"countryCode":"US","name":"Biscoe Pond","fclName":"stream, lake, ...","adminCodes1":{"ISO3166_2":"MD"},"countryName":"United States","fcodeName":"lake","adminName1":"Maryland","lat":"38.1962","fcode":"LK"},{"adminCode1":"MD","lng":"-76.3914","geonameId":4049064,"toponymName":"Norris Pond","countryId":"6252001","fcl":"H","population":0,"countryCode":"US","name":"Norris Pond","fclName":"stream, lake, ...","adminCodes1":{"ISO3166_2":"MD"},"countryName":"United States","fcodeName":"lake","adminName1":"Maryland","lat":"38.22644","fcode":"LK"},{"adminCode1":"MD","lng":"-77.30187","geonameId":4360887,"toponymName":"Little Seneca Lake","countryId":"6252001","fcl":"H","population":0,"countryCode":"US","name":"Little Seneca Lake","fclName":"stream, lake, ...","adminCodes1":{"ISO3166_2":"MD"},"countryName":"United States","fcodeName":"lake","adminName1":"Maryland","lat":"39.1922","fcode":"LK"},{"adminCode1":"GA","lng":"-81.91039","geonameId":4183827,"toponymName":"Boons Lake","countryId":"6252001","fcl":"H","population":0,"countryCode":"US","name":"Boons Lake","fclName":"stream, lake, ...","adminCodes1":{"ISO3166_2":"GA"},"countryName":"United States","fcodeName":"lake","adminName1":"Georgia","lat":"31.04717","fcode":"LK"},{"adminCode1":"MD","lng":"-76.88803","geonameId":4356857,"toponymName":"Greenbelt Lake Park","countryId":"6252001","fcl":"L","population":0,"countryCode":"US","name":"Buddy Attick Lake Park","fclName":"parks,area, ...","adminCodes1":{"ISO3166_2":"MD"},"countryName":"United States","fcodeName":"park","adminName1":"Maryland","lat":"39.00483","fcode":"PRK"},{"adminCode1":"WY","lng":"-110.63853","geonameId":5831631,"toponymName":"Mary Lake","countryId":"6252001","fcl":"H","population":0,"countryCode":"US","name":"Mary Lake","fclName":"stream, lake, ...","adminCodes1":{"ISO3166_2":"WY"},"countryName":"United States","fcodeName":"lake","adminName1":"Wyoming","lat":"44.60341","fcode":"LK"},{"adminCode1":"WI","lng":"-89.33599","geonameId":5262031,"toponymName":"Lake Mary","countryId":"6252001","fcl":"H","population":0,"countryCode":"US","name":"Lake Mary","fclName":"stream, lake, ...","adminCodes1":{"ISO3166_2":"WI"},"countryName":"United States","fcodeName":"lake","adminName1":"Wisconsin","lat":"45.91416","fcode":"LK"},{"adminCode1":"SD","lng":"-97.18109","geonameId":5229592,"toponymName":"Lake Mary","countryId":"6252001","fcl":"H","population":0,"countryCode":"US","name":"Lake Mary","fclName":"stream, lake, ...","adminCodes1":{"ISO3166_2":"SD"},"countryName":"United States","fcodeName":"lake","adminName1":"South Dakota","lat":"44.58427","fcode":"LK"},{"adminCode1":"MA","lng":"-70.79057","geonameId":4943290,"toponymName":"Marys Pond","countryId":"6252001","fcl":"H","population":0,"countryCode":"US","name":"Marys Pond","fclName":"stream, lake, ...","adminCodes1":{"ISO3166_2":"MA"},"countryName":"United States","fcodeName":"lake","adminName1":"Massachusetts","lat":"41.75531","fcode":"LK"},{"adminCode1":"AZ","lng":"-111.5996","geonameId":5301399,"toponymName":"Lake Mary Valley","countryId":"6252001","fcl":"T","population":0,"countryCode":"US","name":"Lake Mary Valley","fclName":"mountain,hill,rock,... ","adminCodes1":{"ISO3166_2":"AZ"},"countryName":"United States","fcodeName":"valley","adminName1":"Arizona","lat":"35.15057","fcode":"VAL"},{"adminCode1":"MD","lng":"-76.48496","geonameId":4360201,"toponymName":"Lake Shore","countryId":"6252001","fcl":"P","population":19477,"countryCode":"US","name":"Lake Shore","fclName":"city, village,...","adminCodes1":{"ISO3166_2":"MD"},"countryName":"United States","fcodeName":"populated place","adminName1":"Maryland","lat":"39.10705","fcode":"PPL"},{"adminCode1":"LA","lng":"-91.30622","geonameId":4341683,"toponymName":"Sixmile Lake","countryId":"6252001","fcl":"H","population":0,"countryCode":"US","name":"Sixmile Lake","fclName":"stream, lake, ...","adminCodes1":{"ISO3166_2":"LA"},"countryName":"United States","fcodeName":"lake","adminName1":"Louisiana","lat":"29.75382","fcode":"LK"},{"adminCode1":"MD","lng":"-75.90686","geonameId":4368900,"toponymName":"Savannah Lake","countryId":"6252001","fcl":"H","population":0,"countryCode":"US","name":"Savannah Lake","fclName":"stream, lake, ...","adminCodes1":{"ISO3166_2":"MD"},"countryName":"United States","fcodeName":"lake","adminName1":"Maryland","lat":"38.36954","fcode":"LK"},{"adminCode1":"WI","lng":"-89.79017","geonameId":5269504,"toponymName":"Rosalind Lake","countryId":"6252001","fcl":"H","population":0,"countryCode":"US","name":"Rosalind Lake","fclName":"stream, lake, ...","adminCodes1":{"ISO3166_2":"WI"},"countryName":"United States","fcodeName":"lake","adminName1":"Wisconsin","lat":"46.18191","fcode":"LK"},{"adminCode1":"MN","lng":"-95.45048","geonameId":5033866,"toponymName":"Township of Lake Mary","countryId":"6252001","fcl":"A","population":0,"countryCode":"US","name":"Lake Mary Township","fclName":"country, state, region,...","adminCodes1":{"ISO3166_2":"MN"},"countryName":"United States","fcodeName":"third-order administrative division","adminName1":"Minnesota","lat":"45.80144","fcode":"ADM3"},{"adminCode1":"MT","lng":"-114.4005","geonameId":5664863,"toponymName":"Lake Mary Ronan","countryId":"6252001","fcl":"H","population":0,"countryCode":"US","name":"Lake Mary Ronan","fclName":"stream, lake, ...","adminCodes1":{"ISO3166_2":"MT"},"countryName":"United States","fcodeName":"lake","adminName1":"Montana","lat":"47.9258","fcode":"LK"},{"adminCode1":"FL","lng":"-81.67764","geonameId":4163618,"toponymName":"Lake Mary","countryId":"6252001","fcl":"H","population":0,"countryCode":"US","name":"Lake Mary","fclName":"stream, lake, ...","adminCodes1":{"ISO3166_2":"FL"},"countryName":"United States","fcodeName":"lake","adminName1":"Florida","lat":"28.92482","fcode":"LK"},{"adminCode1":"MT","lng":"-114.38624","geonameId":5661431,"toponymName":"Lake Mary Ronan State Park","countryId":"6252001","fcl":"L","population":0,"countryCode":"US","name":"Lake Mary Ronan State Park","fclName":"parks,area, ...","adminCodes1":{"ISO3166_2":"MT"},"countryName":"United States","fcodeName":"park","adminName1":"Montana","lat":"47.93189","fcode":"PRK"},{"adminCode1":"CA","lng":"-119.00276","geonameId":5550312,"toponymName":"Lake Mary","countryId":"6252001","fcl":"H","population":0,"countryCode":"US","name":"Lake Mary","fclName":"stream, lake, ...","adminCodes1":{"ISO3166_2":"CA"},"countryName":"United States","fcodeName":"lake","adminName1":"California","lat":"37.60291","fcode":"LK"},{"adminCode1":"MA","lng":"-70.55804","geonameId":4944461,"toponymName":"Morey Hole","countryId":"6252001","fcl":"H","population":0,"countryCode":"US","name":"Morey Hole","fclName":"stream, lake, ...","adminCodes1":{"ISO3166_2":"MA"},"countryName":"United States","fcodeName":"lake","adminName1":"Massachusetts","lat":"41.86828","fcode":"LK"},{"adminCode1":"MD","lng":"-79.38171","geonameId":4363282,"toponymName":"Mountain Lake Park","countryId":"6252001","fcl":"P","population":2111,"countryCode":"US","name":"Mountain Lake Park","fclName":"city, village,...","adminCodes1":{"ISO3166_2":"MD"},"countryName":"United States","fcodeName":"populated place","adminName1":"Maryland","lat":"39.39843","fcode":"PPL"},{"adminCode1":"MA","lng":"-70.27781","geonameId":4943267,"toponymName":"Mary Dunn Pond","countryId":"6252001","fcl":"H","population":0,"countryCode":"US","name":"Mary Dunn Pond","fclName":"stream, lake, ...","adminCodes1":{"ISO3166_2":"MA"},"countryName":"United States","fcodeName":"lake","adminName1":"Massachusetts","lat":"41.67484","fcode":"LK"},{"adminCode1":"MD","lng":"-76.82969","geonameId":4360138,"toponymName":"Lake Arbor","countryId":"6252001","fcl":"P","population":9776,"countryCode":"US","name":"Lake Arbor","fclName":"city, village,...","adminCodes1":{"ISO3166_2":"MD"},"countryName":"United States","fcodeName":"populated place","adminName1":"Maryland","lat":"38.90789","fcode":"PPL"},{"adminCode1":"MD","lng":"-76.50329","geonameId":4348668,"toponymName":"Beverly Lake","countryId":"6252001","fcl":"H","population":0,"countryCode":"US","name":"Beverly Lake","fclName":"stream, lake, ...","adminCodes1":{"ISO3166_2":"MD"},"countryName":"United States","fcodeName":"lake","adminName1":"Maryland","lat":"38.87834","fcode":"LK"},{"adminCode1":"MD","lng":"-76.32856","geonameId":4352163,"toponymName":"Lake Conoy","countryId":"6252001","fcl":"H","population":0,"countryCode":"US","name":"Lake Conoy","fclName":"stream, lake, ...","adminCodes1":{"ISO3166_2":"MD"},"countryName":"United States","fcodeName":"lake","adminName1":"Maryland","lat":"38.05902","fcode":"LK"},{"adminCode1":"MD","lng":"-76.33155","geonameId":4358279,"toponymName":"Hollis Lake","countryId":"6252001","fcl":"H","population":0,"countryCode":"US","name":"Hollis Lake","fclName":"stream, lake, ...","adminCodes1":{"ISO3166_2":"MD"},"countryName":"United States","fcodeName":"lake","adminName1":"Maryland","lat":"38.0822","fcode":"LK"},{"adminCode1":"FL","lng":"-81.36547","geonameId":4156647,"toponymName":"Lake Gem Mary","countryId":"6252001","fcl":"H","population":0,"countryCode":"US","name":"Lake Gem Mary","fclName":"stream, lake, ...","adminCodes1":{"ISO3166_2":"FL"},"countryName":"United States","fcodeName":"lake","adminName1":"Florida","lat":"28.49544","fcode":"LK"},{"adminCode1":"FL","lng":"-81.37764","geonameId":4163620,"toponymName":"Lake Mary","countryId":"6252001","fcl":"H","population":0,"countryCode":"US","name":"Lake Mary","fclName":"stream, lake, ...","adminCodes1":{"ISO3166_2":"FL"},"countryName":"United States","fcodeName":"lake","adminName1":"Florida","lat":"28.47625","fcode":"LK"},{"adminCode1":"AK","lng":"-132.51028","geonameId":5555602,"toponymName":"Lake Mary","countryId":"6252001","fcl":"H","population":0,"countryCode":"US","name":"Lake Mary","fclName":"stream, lake, ...","adminCodes1":{"ISO3166_2":"AK"},"countryName":"United States","fcodeName":"lake","adminName1":"Alaska","lat":"55.44528","fcode":"LK"},{"adminCode1":"MD","lng":"-76.58552","geonameId":4351811,"toponymName":"Lake Clifton (historical)","countryId":"6252001","fcl":"H","population":0,"countryCode":"US","name":"Lake Clifton (historical)","fclName":"stream, lake, ...","adminCodes1":{"ISO3166_2":"MD"},"countryName":"United States","fcodeName":"lake","adminName1":"Maryland","lat":"39.31761","fcode":"LK"},{"adminCode1":"MD","lng":"-76.40341","geonameId":4362299,"toponymName":"Mezick Ponds","countryId":"6252001","fcl":"H","population":0,"countryCode":"US","name":"Mezick Ponds","fclName":"stream, lake, ...","adminCodes1":{"ISO3166_2":"MD"},"countryName":"United States","fcodeName":"lake","adminName1":"Maryland","lat":"39.01279","fcode":"LK"},{"adminCode1":"FL","lng":"-81.336","geonameId":7170301,"toponymName":"City of Lake Mary","countryId":"6252001","fcl":"A","population":13822,"countryCode":"US","name":"City of Lake Mary","fclName":"country, state, region,...","adminCodes1":{"ISO3166_2":"FL"},"countryName":"United States","fcodeName":"third-order administrative division","adminName1":"Florida","lat":"28.75908","fcode":"ADM3"},{"adminCode1":"CA","lng":"-119.00124","geonameId":5364588,"toponymName":"Lake Mary","countryId":"6252001","fcl":"P","population":0,"countryCode":"US","name":"Lake Mary","fclName":"city, village,...","adminCodes1":{"ISO3166_2":"CA"},"countryName":"United States","fcodeName":"populated place","adminName1":"California","lat":"37.59994","fcode":"PPL"},{"adminCode1":"CO","lng":"-107.57418","geonameId":5425022,"toponymName":"Highland Mary Lakes","countryId":"6252001","fcl":"H","population":0,"countryCode":"US","name":"Highland Mary Lakes","fclName":"stream, lake, ...","adminCodes1":{"ISO3166_2":"CO"},"countryName":"United States","fcodeName":"lake","adminName1":"Colorado","lat":"37.7615","fcode":"LK"},{"adminCode1":"CO","lng":"-105.65505","geonameId":5582864,"toponymName":"Triangle Lake","countryId":"6252001","fcl":"H","population":0,"countryCode":"US","name":"Triangle Lake","fclName":"stream, lake, ...","adminCodes1":{"ISO3166_2":"CO"},"countryName":"United States","fcodeName":"lake","adminName1":"Colorado","lat":"40.06631","fcode":"LK"},{"adminCode1":"MI","lng":"-89.27115","geonameId":4989051,"toponymName":"Clear Lake","countryId":"6252001","fcl":"H","population":0,"countryCode":"US","name":"Clear Lake","fclName":"stream, lake, ...","adminCodes1":{"ISO3166_2":"MI"},"countryName":"United States","fcodeName":"lake","adminName1":"Michigan","lat":"46.24855","fcode":"LK"},{"adminCode1":"MD","lng":"-76.38908","geonameId":4371439,"toponymName":"Tippitt Pond","countryId":"6252001","fcl":"H","population":0,"countryCode":"US","name":"Tippitt Pond","fclName":"stream, lake, ...","adminCodes1":{"ISO3166_2":"MD"},"countryName":"United States","fcodeName":"lake","adminName1":"Maryland","lat":"38.2227","fcode":"LK"},{"adminCode1":"MD","lng":"-76.38553","geonameId":4364793,"toponymName":"Page Pond","countryId":"6252001","fcl":"H","population":0,"countryCode":"US","name":"Page Pond","fclName":"stream, lake, ...","adminCodes1":{"ISO3166_2":"MD"},"countryName":"United States","fcodeName":"lake","adminName1":"Maryland","lat":"38.21479","fcode":"LK"},{"adminCode1":"MD","lng":"-76.46884","geonameId":4354425,"toponymName":"Esperanza Pond","countryId":"6252001","fcl":"H","population":0,"countryCode":"US","name":"Esperanza Pond","fclName":"stream, lake, ...","adminCodes1":{"ISO3166_2":"MD"},"countryName":"United States","fcodeName":"lake","adminName1":"Maryland","lat":"38.30512","fcode":"LK"},{"adminCode1":"MD","lng":"-76.32325","geonameId":4354887,"toponymName":"Filbert Pond","countryId":"6252001","fcl":"H","population":0,"countryCode":"US","name":"Filbert Pond","fclName":"stream, lake, ...","adminCodes1":{"ISO3166_2":"MD"},"countryName":"United States","fcodeName":"lake","adminName1":"Maryland","lat":"38.13984","fcode":"LK"},{"adminCode1":"MD","lng":"-76.33434","geonameId":4355661,"toponymName":"Fresh Pond","countryId":"6252001","fcl":"H","population":0,"countryCode":"US","name":"Fresh Pond","fclName":"stream, lake, ...","adminCodes1":{"ISO3166_2":"MD"},"countryName":"United States","fcodeName":"lake","adminName1":"Maryland","lat":"38.10003","fcode":"LK"},{"adminCode1":"MD","lng":"-76.7008","geonameId":4355662,"toponymName":"Fresh Pond","countryId":"6252001","fcl":"H","population":0,"countryCode":"US","name":"Fresh Pond","fclName":"stream, lake, ...","adminCodes1":{"ISO3166_2":"MD"},"countryName":"United States","fcodeName":"lake","adminName1":"Maryland","lat":"38.2418","fcode":"LK"},{"adminCode1":"MD","lng":"-76.46392","geonameId":4356788,"toponymName":"Green Holly Pond","countryId":"6252001","fcl":"H","population":0,"countryCode":"US","name":"Green Holly Pond","fclName":"stream, lake, ...","adminCodes1":{"ISO3166_2":"MD"},"countryName":"United States","fcodeName":"lake","adminName1":"Maryland","lat":"38.29352","fcode":"LK"},{"adminCode1":"MD","lng":"-76.34922","geonameId":4357192,"toponymName":"Hall Pond","countryId":"6252001","fcl":"H","population":0,"countryCode":"US","name":"Hall Pond","fclName":"stream, lake, ...","adminCodes1":{"ISO3166_2":"MD"},"countryName":"United States","fcodeName":"lake","adminName1":"Maryland","lat":"38.05838","fcode":"LK"},{"adminCode1":"MD","lng":"-76.35647","geonameId":4350504,"toponymName":"Carroll Pond","countryId":"6252001","fcl":"H","population":0,"countryCode":"US","name":"Carroll Pond","fclName":"stream, lake, ...","adminCodes1":{"ISO3166_2":"MD"},"countryName":"United States","fcodeName":"lake","adminName1":"Maryland","lat":"38.17678","fcode":"LK"},{"adminCode1":"MD","lng":"-76.46318","geonameId":4351164,"toponymName":"Cherryfield Pond","countryId":"6252001","fcl":"H","population":0,"countryCode":"US","name":"Cherryfield Pond","fclName":"stream, lake, ...","adminCodes1":{"ISO3166_2":"MD"},"countryName":"United States","fcodeName":"lake","adminName1":"Maryland","lat":"38.13954","fcode":"LK"},{"adminCode1":"MD","lng":"-76.56023","geonameId":4360300,"toponymName":"Lane Pond","countryId":"6252001","fcl":"H","population":0,"countryCode":"US","name":"Lane Pond","fclName":"stream, lake, ...","adminCodes1":{"ISO3166_2":"MD"},"countryName":"United States","fcodeName":"lake","adminName1":"Maryland","lat":"38.19568","fcode":"LK"},{"adminCode1":"MD","lng":"-76.43383","geonameId":4360312,"toponymName":"Langley Hollow","countryId":"6252001","fcl":"H","population":0,"countryCode":"US","name":"Langley Hollow","fclName":"stream, lake, ...","adminCodes1":{"ISO3166_2":"MD"},"countryName":"United States","fcodeName":"lake","adminName1":"Maryland","lat":"38.14576","fcode":"LK"},{"adminCode1":"MD","lng":"-76.42745","geonameId":4373370,"toponymName":"Wherritts Pond","countryId":"6252001","fcl":"H","population":0,"countryCode":"US","name":"Wherritts Pond","fclName":"stream, lake, ...","adminCodes1":{"ISO3166_2":"MD"},"countryName":"United States","fcodeName":"lake","adminName1":"Maryland","lat":"38.19263","fcode":"LK"},{"adminCode1":"MD","lng":"-76.46319","geonameId":4366735,"toponymName":"Richardsons Pond","countryId":"6252001","fcl":"H","population":0,"countryCode":"US","name":"Richardsons Pond","fclName":"stream, lake, ...","adminCodes1":{"ISO3166_2":"MD"},"countryName":"United States","fcodeName":"lake","adminName1":"Maryland","lat":"38.45461","fcode":"LK"},{"adminCode1":"MD","lng":"-76.45659","geonameId":4371461,"toponymName":"Todds Pond","countryId":"6252001","fcl":"H","population":0,"countryCode":"US","name":"Todds Pond","fclName":"stream, lake, ...","adminCodes1":{"ISO3166_2":"MD"},"countryName":"United States","fcodeName":"lake","adminName1":"Maryland","lat":"38.45002","fcode":"LK"},{"adminCode1":"MD","lng":"-76.45936","geonameId":4353764,"toponymName":"Duncans Pond","countryId":"6252001","fcl":"H","population":0,"countryCode":"US","name":"Duncans Pond","fclName":"stream, lake, ...","adminCodes1":{"ISO3166_2":"MD"},"countryName":"United States","fcodeName":"lake","adminName1":"Maryland","lat":"38.45229","fcode":"LK"},{"adminCode1":"MD","lng":"-75.46012","geonameId":4348712,"toponymName":"Big Millpond","countryId":"6252001","fcl":"H","population":0,"countryCode":"US","name":"Big Millpond","fclName":"stream, lake, ...","adminCodes1":{"ISO3166_2":"MD"},"countryName":"United States","fcodeName":"lake","adminName1":"Maryland","lat":"38.02216","fcode":"LK"},{"adminCode1":"MD","lng":"-76.03594","geonameId":4347701,"toponymName":"Backgarden Pond","countryId":"6252001","fcl":"H","population":0,"countryCode":"US","name":"Backgarden Pond","fclName":"stream, lake, ...","adminCodes1":{"ISO3166_2":"MD"},"countryName":"United States","fcodeName":"lake","adminName1":"Maryland","lat":"38.40438","fcode":"LK"},{"adminCode1":"MD","lng":"-75.84632","geonameId":4373725,"toponymName":"Williston Lake","countryId":"6252001","fcl":"H","population":0,"countryCode":"US","name":"Williston Lake","fclName":"stream, lake, ...","adminCodes1":{"ISO3166_2":"MD"},"countryName":"United States","fcodeName":"lake","adminName1":"Maryland","lat":"38.83067","fcode":"LK"},{"adminCode1":"MT","lng":"-114.28027","geonameId":5675899,"toponymName":"Saint Mary Lake","countryId":"6252001","fcl":"H","population":0,"countryCode":"US","name":"Saint Mary Lake","fclName":"stream, lake, ...","adminCodes1":{"ISO3166_2":"MT"},"countryName":"United States","fcodeName":"lake","adminName1":"Montana","lat":"46.50548","fcode":"LK"},{"adminCode1":"OR","lng":"-121.76397","geonameId":5739254,"toponymName":"Lake Mary","countryId":"6252001","fcl":"H","population":0,"countryCode":"US","name":"Lake Mary","fclName":"stream, lake, ...","adminCodes1":{"ISO3166_2":"OR"},"countryName":"United States","fcodeName":"lake","adminName1":"Oregon","lat":"44.79333","fcode":"LK"},{"adminCode1":"MT","lng":"-113.42263","geonameId":5663948,"toponymName":"Lower Saint Mary Lake","countryId":"6252001","fcl":"H","population":0,"countryCode":"US","name":"Lower Saint Mary Lake","fclName":"stream, lake, ...","adminCodes1":{"ISO3166_2":"MT"},"countryName":"United States","fcodeName":"lake","adminName1":"Montana","lat":"48.79573","fcode":"LK"},{"adminCode1":"MT","lng":"-113.75654","geonameId":5664849,"toponymName":"Mary Baker Lake","countryId":"6252001","fcl":"H","population":0,"countryCode":"US","name":"Mary Baker Lake","fclName":"stream, lake, ...","adminCodes1":{"ISO3166_2":"MT"},"countryName":"United States","fcodeName":"lake","adminName1":"Montana","lat":"48.64918","fcode":"LK"},{"adminCode1":"MT","lng":"-115.37813","geonameId":5664855,"toponymName":"Mary Lake","countryId":"6252001","fcl":"H","population":0,"countryCode":"US","name":"Mary Lake","fclName":"stream, lake, ...","adminCodes1":{"ISO3166_2":"MT"},"countryName":"United States","fcodeName":"lake","adminName1":"Montana","lat":"47.2726","fcode":"LK"},{"adminCode1":"MT","lng":"-109.56442","geonameId":5664865,"toponymName":"Lake Mary","countryId":"6252001","fcl":"H","population":0,"countryCode":"US","name":"Lake Mary","fclName":"stream, lake, ...","adminCodes1":{"ISO3166_2":"MT"},"countryName":"United States","fcodeName":"lake","adminName1":"Montana","lat":"45.15199","fcode":"LK"},{"adminCode1":"ID","lng":"-116.23658","geonameId":5600281,"toponymName":"Mary Lake","countryId":"6252001","fcl":"H","population":0,"countryCode":"US","name":"Mary Lake","fclName":"stream, lake, ...","adminCodes1":{"ISO3166_2":"ID"},"countryName":"United States","fcodeName":"lake","adminName1":"Idaho","lat":"45.30737","fcode":"LK"},{"adminCode1":"ID","lng":"-114.43809","geonameId":5600286,"toponymName":"Mary Alice Lake","countryId":"6252001","fcl":"H","population":0,"countryCode":"US","name":"Mary Alice Lake","fclName":"stream, lake, ...","adminCodes1":{"ISO3166_2":"ID"},"countryName":"United States","fcodeName":"lake","adminName1":"Idaho","lat":"42.58943","fcode":"LK"},{"adminCode1":"AK","lng":"-148.22879","geonameId":5868378,"toponymName":"Mary Lake","countryId":"6252001","fcl":"H","population":0,"countryCode":"US","name":"Mary Lake","fclName":"stream, lake, ...","adminCodes1":{"ISO3166_2":"AK"},"countryName":"United States","fcodeName":"lake","adminName1":"Alaska","lat":"67.17695","fcode":"LK"},{"adminCode1":"WI","lng":"-89.90036","geonameId":6350501,"toponymName":"Mary Lake","countryId":"6252001","fcl":"H","population":0,"countryCode":"US","name":"Mary Lake","fclName":"stream, lake, ...","adminCodes1":{"ISO3166_2":"WI"},"countryName":"United States","fcodeName":"lake","adminName1":"Wisconsin","lat":"46.25073","fcode":"LK"},{"adminCode1":"LA","lng":"-91.587","geonameId":4334522,"toponymName":"Mud Lake","countryId":"6252001","fcl":"H","population":0,"countryCode":"US","name":"Mud Lake","fclName":"stream, lake, ...","adminCodes1":{"ISO3166_2":"LA"},"countryName":"United States","fcodeName":"lake","adminName1":"Louisiana","lat":"29.7542","fcode":"LK"},{"adminCode1":"LA","lng":"-91.80373","geonameId":4338093,"toponymName":"Prince Lake","countryId":"6252001","fcl":"H","population":0,"countryCode":"US","name":"Prince Lake","fclName":"stream, lake, ...","adminCodes1":{"ISO3166_2":"LA"},"countryName":"United States","fcodeName":"lake","adminName1":"Louisiana","lat":"29.73632","fcode":"LK"},{"adminCode1":"LA","lng":"-91.49567","geonameId":4327552,"toponymName":"Hog Bayou Lake","countryId":"6252001","fcl":"H","population":0,"countryCode":"US","name":"Hog Bayou Lake","fclName":"stream, lake, ...","adminCodes1":{"ISO3166_2":"LA"},"countryName":"United States","fcodeName":"lake","adminName1":"Louisiana","lat":"29.59659","fcode":"LK"},{"adminCode1":"MS","lng":"-91.53262","geonameId":4435114,"toponymName":"Lake Mary","countryId":"6252001","fcl":"H","population":0,"countryCode":"US","name":"Lake Mary","fclName":"stream, lake, ...","adminCodes1":{"ISO3166_2":"MS"},"countryName":"United States","fcodeName":"lake","adminName1":"Mississippi","lat":"31.19323","fcode":"LK"},{"adminCode1":"TN","lng":"-84.06053","geonameId":4639820,"toponymName":"Lake Mary Ella","countryId":"6252001","fcl":"H","population":0,"countryCode":"US","name":"Lake Mary Ella","fclName":"stream, lake, ...","adminCodes1":{"ISO3166_2":"TN"},"countryName":"United States","fcodeName":"lake","adminName1":"Tennessee","lat":"35.96729","fcode":"LK"},{"adminCode1":"TX","lng":"-97.02892","geonameId":4709466,"toponymName":"Mary Lake","countryId":"6252001","fcl":"H","population":0,"countryCode":"US","name":"Mary Lake","fclName":"stream, lake, ...","adminCodes1":{"ISO3166_2":"TX"},"countryName":"United States","fcodeName":"lake","adminName1":"Texas","lat":"28.69908","fcode":"LK"},{"adminCode1":"TX","lng":"-95.54634","geonameId":4709488,"toponymName":"Lake Mary","countryId":"6252001","fcl":"H","population":0,"countryCode":"US","name":"Lake Mary","fclName":"stream, lake, ...","adminCodes1":{"ISO3166_2":"TX"},"countryName":"United States","fcodeName":"lake","adminName1":"Texas","lat":"31.69212","fcode":"LK"},{"adminCode1":"AL","lng":"-86.00142","geonameId":4074886,"toponymName":"Lake Mary","countryId":"6252001","fcl":"H","population":0,"countryCode":"US","name":"Lake Mary","fclName":"stream, lake, ...","adminCodes1":{"ISO3166_2":"AL"},"countryName":"United States","fcodeName":"lake","adminName1":"Alabama","lat":"33.3999","fcode":"LK"},{"adminCode1":"IN","lng":"-86.42084","geonameId":4264191,"toponymName":"Saint Mary-of-the-Woods Lake","countryId":"6252001","fcl":"H","population":0,"countryCode":"US","name":"Saint Mary-of-the-Woods Lake","fclName":"stream, lake, ...","adminCodes1":{"ISO3166_2":"IN"},"countryName":"United States","fcodeName":"lake","adminName1":"Indiana","lat":"39.57313","fcode":"LK"},{"adminCode1":"FL","lng":"-82.49756","geonameId":4163609,"toponymName":"Mary Lou Lake","countryId":"6252001","fcl":"H","population":0,"countryCode":"US","name":"Mary Lou Lake","fclName":"stream, lake, ...","adminCodes1":{"ISO3166_2":"FL"},"countryName":"United States","fcodeName":"lake","adminName1":"Florida","lat":"28.1731","fcode":"LK"},{"adminCode1":"FL","lng":"-81.82905","geonameId":4163619,"toponymName":"Lake Mary","countryId":"6252001","fcl":"H","population":0,"countryCode":"US","name":"Lake Mary","fclName":"stream, lake, ...","adminCodes1":{"ISO3166_2":"FL"},"countryName":"United States","fcodeName":"lake","adminName1":"Florida","lat":"29.07598","fcode":"LK"},{"adminCode1":"FL","lng":"-81.31309","geonameId":4163621,"toponymName":"Lake Mary","countryId":"6252001","fcl":"H","population":0,"countryCode":"US","name":"Lake Mary","fclName":"stream, lake, ...","adminCodes1":{"ISO3166_2":"FL"},"countryName":"United States","fcodeName":"lake","adminName1":"Florida","lat":"28.75397","fcode":"LK"},{"adminCode1":"FL","lng":"-82.98402","geonameId":4163622,"toponymName":"Lake Mary","countryId":"6252001","fcl":"H","population":0,"countryCode":"US","name":"Lake Mary","fclName":"stream, lake, ...","adminCodes1":{"ISO3166_2":"FL"},"countryName":"United States","fcodeName":"lake","adminName1":"Florida","lat":"30.29162","fcode":"LK"},{"adminCode1":"FL","lng":"-84.1324","geonameId":4163637,"toponymName":"Mary Lake","countryId":"6252001","fcl":"H","population":0,"countryCode":"US","name":"Mary Lake","fclName":"stream, lake, ...","adminCodes1":{"ISO3166_2":"FL"},"countryName":"United States","fcodeName":"lake","adminName1":"Florida","lat":"30.3725","fcode":"LK"},{"adminCode1":"CO","lng":"-107.48943","geonameId":5430219,"toponymName":"Lake Mary Alice","countryId":"6252001","fcl":"H","population":0,"countryCode":"US","name":"Lake Mary Alice","fclName":"stream, lake, ...","adminCodes1":{"ISO3166_2":"CO"},"countryName":"United States","fcodeName":"lake","adminName1":"Colorado","lat":"37.60925","fcode":"LK"},{"adminCode1":"WI","lng":"-91.35923","geonameId":5262021,"toponymName":"Mary Jane Lake","countryId":"6252001","fcl":"H","population":0,"countryCode":"US","name":"Mary Jane Lake","fclName":"stream, lake, ...","adminCodes1":{"ISO3166_2":"WI"},"countryName":"United States","fcodeName":"lake","adminName1":"Wisconsin","lat":"45.16432","fcode":"LK"},{"adminCode1":"WI","lng":"-88.68427","geonameId":5262022,"toponymName":"Mary Lake","countryId":"6252001","fcl":"H","population":0,"countryCode":"US","name":"Mary Lake","fclName":"stream, lake, ...","adminCodes1":{"ISO3166_2":"WI"},"countryName":"United States","fcodeName":"lake","adminName1":"Wisconsin","lat":"45.29199","fcode":"LK"}]}
