{"totalResultsCount":2374,"geonames":[{"adminCode1":"KY","lng":"-84.47772","geonameId":4297983,"toponymName":"Lexington","countryId":"6252001","fcl":"P","population":225366,"countryCode":"US","name":"Lexington","fclName":"city, village,...","adminCodes1":{"ISO3166_2":"KY"},"countryName":"United States","fcodeName":"seat of a second-order administrative division","adminName1":"Kentucky","lat":"37.98869","fcode":"PPLA2"},{"adminCode1":"MA","lng":"-71.2245","geonameId":4941935,"toponymName":"Lexington","countryId":"6252001","fcl":"P","population":31394,"countryCode":"US","name":"Lexington","fclName":"city, village,...","adminCodes1":{"ISO3166_2":"MA"},"countryName":"United States","fcodeName":"populated place","adminName1":"Massachusetts","lat":"42.44732","fcode":"PPL"},{"adminCode1":"SC","lng":"-81.07398","geonameId":4600541,"toponymName":"West Columbia","countryId":"6252001","fcl":"P","population":16060,"countryCode":"US","name":"West Columbia","fclName":"city, village,...","adminCodes1":{"ISO3166_2":"SC"},"countryName":"United States","fcodeName":"populated place","adminName1":"South Carolina","lat":"33.99349","fcode":"PPL"},{"adminCode1":"SC","lng":"-81.23621","geonameId":4585000,"toponymName":"Lexington","countryId":"6252001","fcl":"P","population":20138,"countryCode":"US","name":"Lexington","fclName":"city, village,...","adminCodes1":{"ISO3166_2":"SC"},"countryName":"United States","fcodeName":"seat of a second-order administrative division","adminName1":"South Carolina","lat":"33.98154","fcode":"PPLA2"},{"adminCode1":"SC","lng":"-81.07398","geonameId":4573888,"toponymName":"Cayce","countryId":"6252001","fcl":"P","population":13619,"countryCode":"US","name":"Cayce","fclName":"city, village,...","adminCodes1":{"ISO3166_2":"SC"},"countryName":"United States","fcodeName":"populated place","adminName1":"South Carolina","lat":"33.96571","fcode":"PPL"},{"adminCode1":"KY","lng":"-84.45855","geonameId":4297999,"toponymName":"Lexington-Fayette","countryId":"6252001","fcl":"P","population":314488,"countryCode":"US","name":"Lexington-Fayette","fclName":"city, village,...","adminCodes1":{"ISO3166_2":"KY"},"countryName":"United States","fcodeName":"populated place","adminName1":"Kentucky","lat":"38.0498","fcode":"PPL"},{"adminCode1":"NC","lng":"-80.25338","geonameId":4475773,"toponymName":"Lexington","countryId":"6252001","fcl":"P","population":19326,"countryCode":"US","name":"Lexington","fclName":"city, village,...","adminCodes1":{"ISO3166_2":"NC"},"countryName":"United States","fcodeName":"seat of a second-order administrative division","adminName1":"North Carolina","lat":"35.82403","fcode":"PPLA2"},{"adminCode1":"SC","lng":"-81.12543","geonameId":4575330,"toponymName":"Columbia Metropolitan Airport","countryId":"6252001","fcl":"S","population":0,"countryCode":"US","name":"Columbia Metropolitan Airport","fclName":"spot, building, farm","adminCodes1":{"ISO3166_2":"SC"},"countryName":"United States","fcodeName":"airport","adminName1":"South Carolina","lat":"33.94502","fcode":"AIRP"},{"adminCode1":"SC","lng":"-81.27219","geonameId":4585002,"toponymName":"Lexington County","countryId":"6252001","fcl":"A","population":262391,"countryCode":"US","name":"Lexington","fclName":"country, state, region,...","adminCodes1":{"ISO3166_2":"SC"},"countryName":"United States","fcodeName":"second-order administrative division","adminName1":"South Carolina","lat":"33.90233","fcode":"ADM2"},{"adminCode1":"VA","lng":"-79.45244","geonameId":4769352,"toponymName":"City of Lexington","countryId":"6252001","fcl":"A","population":7042,"countryCode":"US","name":"Lexington","fclName":"country, state, region,...","adminCodes1":{"ISO3166_2":"VA"},"countryName":"United States","fcodeName":"second-order administrative division","adminName1":"Virginia","lat":"37.77309","fcode":"ADM2"},{"adminCode1":"SC","lng":"-81.34982","geonameId":4574280,"toponymName":"Chapin","countryId":"6252001","fcl":"P","population":1554,"countryCode":"US","name":"Chapin","fclName":"city, village,...","adminCodes1":{"ISO3166_2":"SC"},"countryName":"United States","fcodeName":"populated place","adminName1":"South Carolina","lat":"34.16598","fcode":"PPL"},{"adminCode1":"SC","lng":"-81.18315","geonameId":4583057,"toponymName":"Irmo","countryId":"6252001","fcl":"P","population":12056,"countryCode":"US","name":"Irmo","fclName":"city, village,...","adminCodes1":{"ISO3166_2":"SC"},"countryName":"United States","fcodeName":"populated place","adminName1":"South Carolina","lat":"34.08598","fcode":"PPL"},{"adminCode1":"VA","lng":"-79.44282","geonameId":4769339,"toponymName":"Lexington","countryId":"6252001","fcl":"P","population":7262,"countryCode":"US","name":"Lexington","fclName":"city, village,...","adminCodes1":{"ISO3166_2":"VA"},"countryName":"United States","fcodeName":"seat of a second-order administrative division","adminName1":"Virginia","lat":"37.78402","fcode":"PPLA2"},{"adminCode1":"NE","lng":"-99.77623","geonameId":5071054,"toponymName":"Jim Kelly Field","countryId":"6252001","fcl":"S","population":0,"countryCode":"US","name":"Jim Kelly Field","fclName":"spot, building, farm","adminCodes1":{"ISO3166_2":"NE"},"countryName":"United States","fcodeName":"airport","adminName1":"Nebraska","lat":"40.79028","fcode":"AIRP"},{"adminCode1":"MD","lng":"-76.45384","geonameId":4360592,"toponymName":"Lexington Park","countryId":"6252001","fcl":"P","population":11626,"countryCode":"US","name":"Lexington Park","fclName":"city, village,...","adminCodes1":{"ISO3166_2":"MD"},"countryName":"United States","fcodeName":"populated place","adminName1":"Maryland","lat":"38.26679","fcode":"PPL"},{"adminCode1":"SC","lng":"-81.14286","geonameId":7260518,"toponymName":"Oak Grove","countryId":"6252001","fcl":"P","population":10291,"countryCode":"US","name":"Oak Grove","fclName":"city, village,...","adminCodes1":{"ISO3166_2":"SC"},"countryName":"United States","fcodeName":"populated place","adminName1":"South Carolina","lat":"33.9809","fcode":"PPL"},{"adminCode1":"SC","lng":"-81.14648","geonameId":4595374,"toponymName":"Seven Oaks","countryId":"6252001","fcl":"P","population":15144,"countryCode":"US","name":"Seven Oaks","fclName":"city, village,...","adminCodes1":{"ISO3166_2":"SC"},"countryName":"United States","fcodeName":"populated place","adminName1":"South Carolina","lat":"34.04876","fcode":"PPL"},{"adminCode1":"SC","lng":"-81.51344","geonameId":4584885,"toponymName":"Leesville","countryId":"6252001","fcl":"P","population":2235,"countryCode":"US","name":"Leesville","fclName":"city, village,...","adminCodes1":{"ISO3166_2":"SC"},"countryName":"United States","fcodeName":"populated place","adminName1":"South Carolina","lat":"33.91653","fcode":"PPL"},{"adminCode1":"SC","lng":"-81.10093","geonameId":4579571,"toponymName":"Gaston","countryId":"6252001","fcl":"P","population":1658,"countryCode":"US","name":"Gaston","fclName":"city, village,...","adminCodes1":{"ISO3166_2":"SC"},"countryName":"United States","fcodeName":"populated place","adminName1":"South Carolina","lat":"33.8171","fcode":"PPL"},{"adminCode1":"SC","lng":"-81.39371","geonameId":4579757,"toponymName":"Gilbert","countryId":"6252001","fcl":"P","population":604,"countryCode":"US","name":"Gilbert","fclName":"city, village,...","adminCodes1":{"ISO3166_2":"SC"},"countryName":"United States","fcodeName":"populated place","adminName1":"South Carolina","lat":"33.92431","fcode":"PPL"},{"adminCode1":"SC","lng":"-81.54733","geonameId":4570111,"toponymName":"Batesburg","countryId":"6252001","fcl":"P","population":4380,"countryCode":"US","name":"Batesburg","fclName":"city, village,...","adminCodes1":{"ISO3166_2":"SC"},"countryName":"United States","fcodeName":"populated place","adminName1":"South Carolina","lat":"33.90792","fcode":"PPL"},{"adminCode1":"SC","lng":"-81.53733","geonameId":4570117,"toponymName":"Batesburg-Leesville","countryId":"6252001","fcl":"P","population":5441,"countryCode":"US","name":"Batesburg-Leesville","fclName":"city, village,...","adminCodes1":{"ISO3166_2":"SC"},"countryName":"United States","fcodeName":"populated place","adminName1":"South Carolina","lat":"33.91014","fcode":"PPL"},{"adminCode1":"IL","lng":"-88.7834","geonameId":4899670,"toponymName":"Lexington","countryId":"6252001","fcl":"P","population":2059,"countryCode":"US","name":"Lexington","fclName":"city, village,...","adminCodes1":{"ISO3166_2":"IL"},"countryName":"United States","fcodeName":"populated place","adminName1":"Illinois","lat":"40.64142","fcode":"PPL"},{"adminCode1":"IN","lng":"-85.62524","geonameId":4260324,"toponymName":"Lexington","countryId":"6252001","fcl":"P","population":0,"countryCode":"US","name":"Lexington","fclName":"city, village,...","adminCodes1":{"ISO3166_2":"IN"},"countryName":"United States","fcodeName":"populated place","adminName1":"Indiana","lat":"38.65228","fcode":"PPL"},{"adminCode1":"NE","lng":"-99.7415","geonameId":5071934,"toponymName":"Lexington","countryId":"6252001","fcl":"P","population":10075,"countryCode":"US","name":"Lexington","fclName":"city, village,...","adminCodes1":{"ISO3166_2":"NE"},"countryName":"United States","fcodeName":"seat of a second-order administrative division","adminName1":"Nebraska","lat":"40.78084","fcode":"PPLA2"},{"adminCode1":"OH","lng":"-82.58239","geonameId":5160635,"toponymName":"Lexington","countryId":"6252001","fcl":"P","population":4731,"countryCode":"US","name":"Lexington","fclName":"city, village,...","adminCodes1":{"ISO3166_2":"OH"},"countryName":"United States","fcodeName":"populated place","adminName1":"Ohio","lat":"40.67867","fcode":"PPL"},{"adminCode1":"MO","lng":"-93.87994","geonameId":4395035,"toponymName":"Lexington","countryId":"6252001","fcl":"P","population":4598,"countryCode":"US","name":"Lexington","fclName":"city, village,...","adminCodes1":{"ISO3166_2":"MO"},"countryName":"United States","fcodeName":"seat of a second-order administrative division","adminName1":"Missouri","lat":"39.18473","fcode":"PPLA2"},{"adminCode1":"MA","lng":"-71.23089","geonameId":4941936,"toponymName":"Lexington Battle Green","countryId":"6252001","fcl":"L","population":0,"countryCode":"US","name":"Lexington Battle Green","fclName":"parks,area, ...","adminCodes1":{"ISO3166_2":"MA"},"countryName":"United States","fcodeName":"park","adminName1":"Massachusetts","lat":"42.44926","fcode":"PRK"},{"adminCode1":"MI","lng":"-82.53076","geonameId":4999171,"toponymName":"Lexington","countryId":"6252001","fcl":"P","population":1128,"countryCode":"US","name":"Lexington","fclName":"city, village,...","adminCodes1":{"ISO3166_2":"MI"},"countryName":"United States","fcodeName":"populated place","adminName1":"Michigan","lat":"43.26808","fcode":"PPL"},{"adminCode1":"OH","lng":"-82.20848","geonameId":4519591,"toponymName":"New Lexington","countryId":"6252001","fcl":"P","population":4727,"countryCode":"US","name":"New Lexington","fclName":"city, village,...","adminCodes1":{"ISO3166_2":"OH"},"countryName":"United States","fcodeName":"seat of a second-order administrative division","adminName1":"Ohio","lat":"39.71396","fcode":"PPLA2"},{"adminCode1":"SC","lng":"-81.24659","geonameId":4575680,"toponymName":"Lexington County Airport at Pelion","countryId":"6252001","fcl":"S","population":0,"countryCode":"US","name":"Lexington County Airport at Pelion","fclName":"spot, building, farm","adminCodes1":{"ISO3166_2":"SC"},"countryName":"United States","fcodeName":"airport","adminName1":"South Carolina","lat":"33.79105","fcode":"AIRP"},{"adminCode1":"MN","lng":"-93.14722","geonameId":7118311,"toponymName":"Lexington Park","countryId":"6252001","fcl":"L","population":0,"countryCode":"US","name":"Lexington Park","fclName":"parks,area, ...","adminCodes1":{"ISO3166_2":"MN"},"countryName":"United States","fcodeName":"park","adminName1":"Minnesota","lat":"45.00556","fcode":"PRK"},{"adminCode1":"MS","lng":"-90.05314","geonameId":4433359,"toponymName":"Lexington","countryId":"6252001","fcl":"P","population":1609,"countryCode":"US","name":"Lexington","fclName":"city, village,...","adminCodes1":{"ISO3166_2":"MS"},"countryName":"United States","fcodeName":"seat of a second-order administrative division","adminName1":"Mississippi","lat":"33.11318","fcode":"PPLA2"},{"adminCode1":"OK","lng":"-97.33558","geonameId":4540932,"toponymName":"Lexington","countryId":"6252001","fcl":"P","population":2161,"countryCode":"US","name":"Lexington","fclName":"city, village,...","adminCodes1":{"ISO3166_2":"OK"},"countryName":"United States","fcodeName":"populated place","adminName1":"Oklahoma","lat":"35.01479","fcode":"PPL"},{"adminCode1":"TX","lng":"-97.01165","geonameId":4706068,"toponymName":"Lexington","countryId":"6252001","fcl":"P","population":1181,"countryCode":"US","name":"Lexington","fclName":"city, village,...","adminCodes1":{"ISO3166_2":"TX"},"countryName":"United States","fcodeName":"populated place","adminName1":"Texas","lat":"30.4191","fcode":"PPL"},{"adminCode1":"VA","lng":"-79.43587","geonameId":4791322,"toponymName":"Virginia Military Institute Historic District","countryId":"6252001","fcl":"L","population":0,"countryCode":"US","name":"Virginia Military Institute Historic District","fclName":"parks,area, ...","adminCodes1":{"ISO3166_2":"VA"},"countryName":"United States","fcodeName":"park","adminName1":"Virginia","lat":"37.79041","fcode":"PRK"},{"adminCode1":"VA","lng":"-79.44282","geonameId":4792364,"toponymName":"Washington and Lee University Historic District","countryId":"6252001","fcl":"L","population":0,"countryCode":"US","name":"Washington and Lee University Historic District","fclName":"parks,area, ...","adminCodes1":{"ISO3166_2":"VA"},"countryName":"United States","fcodeName":"park","adminName1":"Virginia","lat":"37.78791","fcode":"PRK"},{"adminCode1":"MN","lng":"-93.16328","geonameId":5034562,"toponymName":"Lexington","countryId":"6252001","fcl":"P","population":2049,"countryCode":"US","name":"Lexington","fclName":"city, village,...","adminCodes1":{"ISO3166_2":"MN"},"countryName":"United States","fcodeName":"populated place","adminName1":"Minnesota","lat":"45.14247","fcode":"PPL"},{"adminCode1":"SC","lng":"-81.24482","geonameId":4590739,"toponymName":"Pelion","countryId":"6252001","fcl":"P","population":704,"countryCode":"US","name":"Pelion","fclName":"city, village,...","adminCodes1":{"ISO3166_2":"SC"},"countryName":"United States","fcodeName":"populated place","adminName1":"South Carolina","lat":"33.76321","fcode":"PPL"},{"adminCode1":"SC","lng":"-81.10454","geonameId":4591304,"toponymName":"Pineridge","countryId":"6252001","fcl":"P","population":2064,"countryCode":"US","name":"Pineridge","fclName":"city, village,...","adminCodes1":{"ISO3166_2":"SC"},"countryName":"United States","fcodeName":"populated place","adminName1":"South Carolina","lat":"33.91043","fcode":"PPL"},{"adminCode1":"SC","lng":"-81.23843","geonameId":4592453,"toponymName":"Red Bank","countryId":"6252001","fcl":"P","population":9617,"countryCode":"US","name":"Red Bank","fclName":"city, village,...","adminCodes1":{"ISO3166_2":"SC"},"countryName":"United States","fcodeName":"populated place","adminName1":"South Carolina","lat":"33.93209","fcode":"PPL"},{"adminCode1":"SC","lng":"-81.13565","geonameId":4597044,"toponymName":"South Congaree","countryId":"6252001","fcl":"P","population":2388,"countryCode":"US","name":"South Congaree","fclName":"city, village,...","adminCodes1":{"ISO3166_2":"SC"},"countryName":"United States","fcodeName":"populated place","adminName1":"South Carolina","lat":"33.91099","fcode":"PPL"},{"adminCode1":"SC","lng":"-81.10898","geonameId":4597398,"toponymName":"Springdale","countryId":"6252001","fcl":"P","population":2783,"countryCode":"US","name":"Springdale","fclName":"city, village,...","adminCodes1":{"ISO3166_2":"SC"},"countryName":"United States","fcodeName":"populated place","adminName1":"South Carolina","lat":"33.95932","fcode":"PPL"},{"adminCode1":"SC","lng":"-81.09787","geonameId":4598098,"toponymName":"Swansea","countryId":"6252001","fcl":"P","population":891,"countryCode":"US","name":"Swansea","fclName":"city, village,...","adminCodes1":{"ISO3166_2":"SC"},"countryName":"United States","fcodeName":"populated place","adminName1":"South Carolina","lat":"33.73821","fcode":"PPL"},{"adminCode1":"SC","lng":"-81.09467","geonameId":4585003,"toponymName":"Gaston Airport","countryId":"6252001","fcl":"S","population":0,"countryCode":"US","name":"Gaston Airport","fclName":"spot, building, farm","adminCodes1":{"ISO3166_2":"SC"},"countryName":"United States","fcodeName":"airport","adminName1":"South Carolina","lat":"33.78662","fcode":"AIRP"},{"adminCode1":"KS","lng":"-99.59957","geonameId":4274384,"toponymName":"Lexington","countryId":"6252001","fcl":"P","population":0,"countryCode":"US","name":"Lexington","fclName":"city, village,...","adminCodes1":{"ISO3166_2":"KS"},"countryName":"United States","fcodeName":"populated place","adminName1":"Kansas","lat":"37.29391","fcode":"PPL"},{"adminCode1":"SC","lng":"-81.12926","geonameId":4593724,"toponymName":"Saint Andrews","countryId":"6252001","fcl":"P","population":21151,"countryCode":"US","name":"Saint Andrews","fclName":"city, village,...","adminCodes1":{"ISO3166_2":"SC"},"countryName":"United States","fcodeName":"populated place","adminName1":"South Carolina","lat":"34.04543","fcode":"PPL"},{"adminCode1":"SC","lng":"-81.05961","geonameId":4579616,"toponymName":"Geiger Pond","countryId":"6252001","fcl":"H","population":0,"countryCode":"US","name":"Geiger Pond","fclName":"stream, lake, ...","adminCodes1":{"ISO3166_2":"SC"},"countryName":"United States","fcodeName":"lake","adminName1":"South Carolina","lat":"33.87327","fcode":"LK"},{"adminCode1":"SC","lng":"-81.25121","geonameId":4579660,"toponymName":"Georges Pond","countryId":"6252001","fcl":"H","population":0,"countryCode":"US","name":"Georges Pond","fclName":"stream, lake, ...","adminCodes1":{"ISO3166_2":"SC"},"countryName":"United States","fcodeName":"lake","adminName1":"South Carolina","lat":"33.96598","fcode":"LK"},{"adminCode1":"SC","lng":"-81.38365","geonameId":4579762,"toponymName":"Gilbert International Airpark","countryId":"6252001","fcl":"S","population":0,"countryCode":"US","name":"Gilbert International Airpark","fclName":"spot, building, farm","adminCodes1":{"ISO3166_2":"SC"},"countryName":"United States","fcodeName":"airport","adminName1":"South Carolina","lat":"33.88305","fcode":"AIRP"},{"adminCode1":"SC","lng":"-81.42205","geonameId":4597943,"toponymName":"Summit","countryId":"6252001","fcl":"P","population":432,"countryCode":"US","name":"Summit","fclName":"city, village,...","adminCodes1":{"ISO3166_2":"SC"},"countryName":"United States","fcodeName":"populated place","adminName1":"South Carolina","lat":"33.92487","fcode":"PPL"},{"adminCode1":"OR","lng":"-119.68447","geonameId":5736471,"toponymName":"Lexington","countryId":"6252001","fcl":"P","population":236,"countryCode":"US","name":"Lexington","fclName":"city, village,...","adminCodes1":{"ISO3166_2":"OR"},"countryName":"United States","fcodeName":"populated place","adminName1":"Oregon","lat":"45.44513","fcode":"PPL"},{"adminCode1":"OR","lng":"-119.68561","geonameId":5736472,"toponymName":"Lexington Airport","countryId":"6252001","fcl":"S","population":0,"countryCode":"US","name":"Lexington Airport","fclName":"spot, building, farm","adminCodes1":{"ISO3166_2":"OR"},"countryName":"United States","fcodeName":"airport","adminName1":"Oregon","lat":"45.45192","fcode":"AIRP"},{"adminCode1":"TN","lng":"-88.39338","geonameId":4636463,"toponymName":"Lexington","countryId":"6252001","fcl":"P","population":7822,"countryCode":"US","name":"Lexington","fclName":"city, village,...","adminCodes1":{"ISO3166_2":"TN"},"countryName":"United States","fcodeName":"seat of a second-order administrative division","adminName1":"Tennessee","lat":"35.6509","fcode":"PPLA2"},{"adminCode1":"VA","lng":"-79.42532","geonameId":4756970,"toponymName":"East Lexington","countryId":"6252001","fcl":"P","population":1463,"countryCode":"US","name":"East Lexington","fclName":"city, village,...","adminCodes1":{"ISO3166_2":"VA"},"countryName":"United States","fcodeName":"populated place","adminName1":"Virginia","lat":"37.79291","fcode":"PPL"},{"adminCode1":"MO","lng":"-93.9261","geonameId":4395039,"toponymName":"Lexington Municipal Airport","countryId":"6252001","fcl":"S","population":0,"countryCode":"US","name":"Lexington Municipal Airport","fclName":"spot, building, farm","adminCodes1":{"ISO3166_2":"MO"},"countryName":"United States","fcodeName":"airport","adminName1":"Missouri","lat":"39.20796","fcode":"AIRP"},{"adminCode1":"AL","lng":"-87.37113","geonameId":4072339,"toponymName":"Lexington","countryId":"6252001","fcl":"P","population":723,"countryCode":"US","name":"Lexington","fclName":"city, village,...","adminCodes1":{"ISO3166_2":"AL"},"countryName":"United States","fcodeName":"populated place","adminName1":"Alabama","lat":"34.96925","fcode":"PPL"},{"adminCode1":"SC","lng":"-81.2209","geonameId":7318223,"toponymName":"Town of Lexington","countryId":"6252001","fcl":"A","population":17870,"countryCode":"US","name":"Town of Lexington","fclName":"country, state, region,...","adminCodes1":{"ISO3166_2":"SC"},"countryName":"United States","fcodeName":"administrative division","adminName1":"South Carolina","lat":"33.98768","fcode":"ADMD"},{"adminCode1":"OH","lng":"-83.91021","geonameId":4516531,"toponymName":"Lexington Avenue Park","countryId":"6252001","fcl":"L","population":0,"countryCode":"US","name":"Lexington Avenue Park","fclName":"parks,area, ...","adminCodes1":{"ISO3166_2":"OH"},"countryName":"United States","fcodeName":"park","adminName1":"Ohio","lat":"39.69034","fcode":"PRK"},{"adminCode1":"AL","lng":"-87.65751","geonameId":4079863,"toponymName":"New Lexington","countryId":"6252001","fcl":"P","population":0,"countryCode":"US","name":"New Lexington","fclName":"city, village,...","adminCodes1":{"ISO3166_2":"AL"},"countryName":"United States","fcodeName":"populated place","adminName1":"Alabama","lat":"33.56233","fcode":"PPL"},{"adminCode1":"AR","lng":"-92.41099","geonameId":4124744,"toponymName":"Old Lexington","countryId":"6252001","fcl":"P","population":0,"countryCode":"US","name":"Old Lexington","fclName":"city, village,...","adminCodes1":{"ISO3166_2":"AR"},"countryName":"United States","fcodeName":"populated place","adminName1":"Arkansas","lat":"35.7198","fcode":"PPL"},{"adminCode1":"GA","lng":"-83.11015","geonameId":7170344,"toponymName":"City of Lexington","countryId":"6252001","fcl":"A","population":228,"countryCode":"US","name":"City of Lexington","fclName":"country, state, region,...","adminCodes1":{"ISO3166_2":"GA"},"countryName":"United States","fcodeName":"third-order administrative division","adminName1":"Georgia","lat":"33.87007","fcode":"ADM3"},{"adminCode1":"GA","lng":"-83.11182","geonameId":4205541,"toponymName":"Lexington","countryId":"6252001","fcl":"P","population":227,"countryCode":"US","name":"Lexington","fclName":"city, village,...","adminCodes1":{"ISO3166_2":"GA"},"countryName":"United States","fcodeName":"seat of a second-order administrative division","adminName1":"Georgia","lat":"33.86984","fcode":"PPLA2"},{"adminCode1":"OH","lng":"-83.39547","geonameId":4506736,"toponymName":"Bloomingburg","countryId":"6252001","fcl":"P","population":921,"countryCode":"US","name":"Bloomingburg","fclName":"city, village,...","adminCodes1":{"ISO3166_2":"OH"},"countryName":"United States","fcodeName":"populated place","adminName1":"Ohio","lat":"39.60506","fcode":"PPL"},{"adminCode1":"OH","lng":"-83.55297","geonameId":4516446,"toponymName":"Leesburg","countryId":"6252001","fcl":"P","population":1294,"countryCode":"US","name":"Leesburg","fclName":"city, village,...","adminCodes1":{"ISO3166_2":"OH"},"countryName":"United States","fcodeName":"populated place","adminName1":"Ohio","lat":"39.34506","fcode":"PPL"},{"adminCode1":"SC","lng":"-81.34465","geonameId":7171499,"toponymName":"Town of Chapin","countryId":"6252001","fcl":"A","population":1445,"countryCode":"US","name":"Town of Chapin","fclName":"country, state, region,...","adminCodes1":{"ISO3166_2":"SC"},"countryName":"United States","fcodeName":"administrative division","adminName1":"South Carolina","lat":"34.16468","fcode":"ADMD"},{"adminCode1":"SC","lng":"-81.09975","geonameId":7171786,"toponymName":"Town of Gaston","countryId":"6252001","fcl":"A","population":1645,"countryCode":"US","name":"Town of Gaston","fclName":"country, state, region,...","adminCodes1":{"ISO3166_2":"SC"},"countryName":"United States","fcodeName":"administrative division","adminName1":"South Carolina","lat":"33.81797","fcode":"ADMD"},{"adminCode1":"SC","lng":"-81.39271","geonameId":7171805,"toponymName":"Town of Gilbert","countryId":"6252001","fcl":"A","population":565,"countryCode":"US","name":"Town of Gilbert","fclName":"country, state, region,...","adminCodes1":{"ISO3166_2":"SC"},"countryName":"United States","fcodeName":"administrative division","adminName1":"South Carolina","lat":"33.92445","fcode":"ADMD"},{"adminCode1":"SC","lng":"-81.42258","geonameId":7171919,"toponymName":"Town of Summit","countryId":"6252001","fcl":"A","population":402,"countryCode":"US","name":"Town of Summit","fclName":"country, state, region,...","adminCodes1":{"ISO3166_2":"SC"},"countryName":"United States","fcodeName":"administrative division","adminName1":"South Carolina","lat":"33.92464","fcode":"ADMD"},{"adminCode1":"SC","lng":"-81.10522","geonameId":7171932,"toponymName":"Town of Swansea","countryId":"6252001","fcl":"A","population":827,"countryCode":"US","name":"Town of Swansea","fclName":"country, state, region,...","adminCodes1":{"ISO3166_2":"SC"},"countryName":"United States","fcodeName":"administrative division","adminName1":"South Carolina","lat":"33.73974","fcode":"ADMD"},{"adminCode1":"SC","lng":"-81.26239","geonameId":7172309,"toponymName":"Town of Pelion","countryId":"6252001","fcl":"A","population":674,"countryCode":"US","name":"Town of Pelion","fclName":"country, state, region,...","adminCodes1":{"ISO3166_2":"SC"},"countryName":"United States","fcodeName":"administrative division","adminName1":"South Carolina","lat":"33.78885","fcode":"ADMD"},{"adminCode1":"SC","lng":"-81.09754","geonameId":7172337,"toponymName":"Town of Pine Ridge","countryId":"6252001","fcl":"A","population":2064,"countryCode":"US","name":"Town of Pine Ridge","fclName":"country, state, region,...","adminCodes1":{"ISO3166_2":"SC"},"countryName":"United States","fcodeName":"administrative division","adminName1":"South Carolina","lat":"33.90833","fcode":"ADMD"},{"adminCode1":"SC","lng":"-81.13751","geonameId":7172580,"toponymName":"Town of South Congaree","countryId":"6252001","fcl":"A","population":2306,"countryCode":"US","name":"Town of South Congaree","fclName":"country, state, region,...","adminCodes1":{"ISO3166_2":"SC"},"countryName":"United States","fcodeName":"administrative division","adminName1":"South Carolina","lat":"33.90937","fcode":"ADMD"},{"adminCode1":"SC","lng":"-81.11176","geonameId":7172597,"toponymName":"Town of Springdale","countryId":"6252001","fcl":"A","population":2636,"countryCode":"US","name":"Town of Springdale","fclName":"country, state, region,...","adminCodes1":{"ISO3166_2":"SC"},"countryName":"United States","fcodeName":"administrative division","adminName1":"South Carolina","lat":"33.96168","fcode":"ADMD"},{"adminCode1":"SC","lng":"-81.04314","geonameId":7317778,"toponymName":"City of Cayce","countryId":"6252001","fcl":"A","population":12528,"countryCode":"US","name":"City of Cayce","fclName":"country, state, region,...","adminCodes1":{"ISO3166_2":"SC"},"countryName":"United States","fcodeName":"administrative division","adminName1":"South Carolina","lat":"33.94577","fcode":"ADMD"},{"adminCode1":"SC","lng":"-81.06956","geonameId":7318190,"toponymName":"City of West Columbia","countryId":"6252001","fcl":"A","population":14988,"countryCode":"US","name":"City of West Columbia","fclName":"country, state, region,...","adminCodes1":{"ISO3166_2":"SC"},"countryName":"United States","fcodeName":"administrative division","adminName1":"South Carolina","lat":"33.99226","fcode":"ADMD"},{"adminCode1":"SC","lng":"-81.06315","geonameId":4592558,"toponymName":"Redmond Pond","countryId":"6252001","fcl":"H","population":0,"countryCode":"US","name":"Redmond Pond","fclName":"stream, lake, ...","adminCodes1":{"ISO3166_2":"SC"},"countryName":"United States","fcodeName":"lake","adminName1":"South Carolina","lat":"33.71349","fcode":"LK"},{"adminCode1":"SC","lng":"-81.08509","geonameId":4594704,"toponymName":"Saluda Factory Historic District","countryId":"6252001","fcl":"L","population":0,"countryCode":"US","name":"Saluda Factory Historic District","fclName":"parks,area, ...","adminCodes1":{"ISO3166_2":"SC"},"countryName":"United States","fcodeName":"park","adminName1":"South Carolina","lat":"34.00932","fcode":"PRK"},{"adminCode1":"SC","lng":"-81.14164","geonameId":4595169,"toponymName":"Schumpert Pond","countryId":"6252001","fcl":"H","population":0,"countryCode":"US","name":"Schumpert Pond","fclName":"stream, lake, ...","adminCodes1":{"ISO3166_2":"SC"},"countryName":"United States","fcodeName":"lake","adminName1":"South Carolina","lat":"33.87458","fcode":"LK"},{"adminCode1":"SC","lng":"-81.23538","geonameId":4595542,"toponymName":"Shealy Pond","countryId":"6252001","fcl":"H","population":0,"countryCode":"US","name":"Shealy Pond","fclName":"stream, lake, ...","adminCodes1":{"ISO3166_2":"SC"},"countryName":"United States","fcodeName":"lake","adminName1":"South Carolina","lat":"33.86209","fcode":"LK"},{"adminCode1":"SC","lng":"-81.20124","geonameId":4595544,"toponymName":"Shealy Pond","countryId":"6252001","fcl":"H","population":0,"countryCode":"US","name":"Shealy Pond","fclName":"stream, lake, ...","adminCodes1":{"ISO3166_2":"SC"},"countryName":"United States","fcodeName":"lake","adminName1":"South Carolina","lat":"33.87911","fcode":"LK"},{"adminCode1":"SC","lng":"-81.51149","geonameId":4584888,"toponymName":"Leesville College Historic District","countryId":"6252001","fcl":"L","population":0,"countryCode":"US","name":"Leesville College Historic District","fclName":"parks,area, ...","adminCodes1":{"ISO3166_2":"SC"},"countryName":"United States","fcodeName":"park","adminName1":"South Carolina","lat":"33.91764","fcode":"PRK"},{"adminCode1":"SC","lng":"-81.3076","geonameId":4585939,"toponymName":"Lucas Ponds","countryId":"6252001","fcl":"H","population":0,"countryCode":"US","name":"Lucas Ponds","fclName":"stream, lake, ...","adminCodes1":{"ISO3166_2":"SC"},"countryName":"United States","fcodeName":"lake","adminName1":"South Carolina","lat":"33.73571","fcode":"LK"},{"adminCode1":"SC","lng":"-81.05733","geonameId":4587616,"toponymName":"Moores Millpond","countryId":"6252001","fcl":"H","population":0,"countryCode":"US","name":"Moores Millpond","fclName":"stream, lake, ...","adminCodes1":{"ISO3166_2":"SC"},"countryName":"United States","fcodeName":"lake","adminName1":"South Carolina","lat":"33.79718","fcode":"LK"},{"adminCode1":"SC","lng":"-81.05676","geonameId":4588910,"toponymName":"New Brookland Historic District","countryId":"6252001","fcl":"L","population":0,"countryCode":"US","name":"New Brookland Historic District","fclName":"parks,area, ...","adminCodes1":{"ISO3166_2":"SC"},"countryName":"United States","fcodeName":"park","adminName1":"South Carolina","lat":"33.99182","fcode":"PRK"},{"adminCode1":"SC","lng":"-81.35399","geonameId":4589945,"toponymName":"Old Bay","countryId":"6252001","fcl":"H","population":0,"countryCode":"US","name":"Old Bay","fclName":"stream, lake, ...","adminCodes1":{"ISO3166_2":"SC"},"countryName":"United States","fcodeName":"lake","adminName1":"South Carolina","lat":"33.72571","fcode":"LK"},{"adminCode1":"SC","lng":"-81.2001","geonameId":4577591,"toponymName":"Edmund","countryId":"6252001","fcl":"P","population":0,"countryCode":"US","name":"Edmund","fclName":"city, village,...","adminCodes1":{"ISO3166_2":"SC"},"countryName":"United States","fcodeName":"populated place","adminName1":"South Carolina","lat":"33.86154","fcode":"PPL"},{"adminCode1":"SC","lng":"-81.5126","geonameId":4574700,"toponymName":"Church Street Historic District","countryId":"6252001","fcl":"L","population":0,"countryCode":"US","name":"Church Street Historic District","fclName":"parks,area, ...","adminCodes1":{"ISO3166_2":"SC"},"countryName":"United States","fcodeName":"park","adminName1":"South Carolina","lat":"33.91653","fcode":"PRK"},{"adminCode1":"SC","lng":"-81.2118","geonameId":4575861,"toponymName":"Craft Pond","countryId":"6252001","fcl":"H","population":0,"countryCode":"US","name":"Craft Pond","fclName":"stream, lake, ...","adminCodes1":{"ISO3166_2":"SC"},"countryName":"United States","fcodeName":"lake","adminName1":"South Carolina","lat":"33.81887","fcode":"LK"},{"adminCode1":"SC","lng":"-81.07815","geonameId":4569114,"toponymName":"Air South Industrial Park","countryId":"6252001","fcl":"L","population":0,"countryCode":"US","name":"Air South Industrial Park","fclName":"parks,area, ...","adminCodes1":{"ISO3166_2":"SC"},"countryName":"United States","fcodeName":"industrial area","adminName1":"South Carolina","lat":"33.92099","fcode":"INDS"},{"adminCode1":"SC","lng":"-81.3951","geonameId":4569301,"toponymName":"Altman Pond","countryId":"6252001","fcl":"H","population":0,"countryCode":"US","name":"Altman Pond","fclName":"stream, lake, ...","adminCodes1":{"ISO3166_2":"SC"},"countryName":"United States","fcodeName":"lake","adminName1":"South Carolina","lat":"33.74487","fcode":"LK"},{"adminCode1":"SC","lng":"-81.54844","geonameId":4570112,"toponymName":"Batesburg Commercial Historic District","countryId":"6252001","fcl":"L","population":0,"countryCode":"US","name":"Batesburg Commercial Historic District","fclName":"parks,area, ...","adminCodes1":{"ISO3166_2":"SC"},"countryName":"United States","fcodeName":"park","adminName1":"South Carolina","lat":"33.90681","fcode":"PRK"},{"adminCode1":"SC","lng":"-81.53096","geonameId":4570116,"toponymName":"Town of Batesburg-Leesville","countryId":"6252001","fcl":"A","population":5362,"countryCode":"US","name":"Town of Batesburg-Leesville","fclName":"country, state, region,...","adminCodes1":{"ISO3166_2":"SC"},"countryName":"United States","fcodeName":"administrative division","adminName1":"South Carolina","lat":"33.91177","fcode":"ADMD"},{"adminCode1":"SC","lng":"-81.16622","geonameId":4572356,"toponymName":"Brooker Pond","countryId":"6252001","fcl":"H","population":0,"countryCode":"US","name":"Brooker Pond","fclName":"stream, lake, ...","adminCodes1":{"ISO3166_2":"SC"},"countryName":"United States","fcodeName":"lake","adminName1":"South Carolina","lat":"33.72862","fcode":"LK"},{"adminCode1":"SC","lng":"-81.05287","geonameId":4580743,"toponymName":"Guignard Park","countryId":"6252001","fcl":"L","population":0,"countryCode":"US","name":"Guignard Park","fclName":"parks,area, ...","adminCodes1":{"ISO3166_2":"SC"},"countryName":"United States","fcodeName":"park","adminName1":"South Carolina","lat":"33.98543","fcode":"PRK"},{"adminCode1":"SC","lng":"-81.14503","geonameId":4581991,"toponymName":"Hollow Pond","countryId":"6252001","fcl":"H","population":0,"countryCode":"US","name":"Hollow Pond","fclName":"stream, lake, ...","adminCodes1":{"ISO3166_2":"SC"},"countryName":"United States","fcodeName":"lake","adminName1":"South Carolina","lat":"33.82269","fcode":"LK"},{"adminCode1":"SC","lng":"-81.0737","geonameId":4582340,"toponymName":"Horse Pond","countryId":"6252001","fcl":"H","population":0,"countryCode":"US","name":"Horse Pond","fclName":"stream, lake, ...","adminCodes1":{"ISO3166_2":"SC"},"countryName":"United States","fcodeName":"lake","adminName1":"South Carolina","lat":"33.9896","fcode":"LK"},{"adminCode1":"SC","lng":"-81.22991","geonameId":4582650,"toponymName":"Hutto Pond","countryId":"6252001","fcl":"H","population":0,"countryCode":"US","name":"Hutto Pond","fclName":"stream, lake, ...","adminCodes1":{"ISO3166_2":"SC"},"countryName":"United States","fcodeName":"lake","adminName1":"South Carolina","lat":"33.7737","fcode":"LK"},{"adminCode1":"SC","lng":"-81.09009","geonameId":4583036,"toponymName":"Interstate Industrial Park","countryId":"6252001","fcl":"L","population":0,"countryCode":"US","name":"Interstate Industrial Park","fclName":"parks,area, ...","adminCodes1":{"ISO3166_2":"SC"},"countryName":"United States","fcodeName":"industrial area","adminName1":"South Carolina","lat":"33.95404","fcode":"INDS"},{"adminCode1":"SC","lng":"-81.51121","geonameId":4584190,"toponymName":"Kneece","countryId":"6252001","fcl":"P","population":0,"countryCode":"US","name":"Kneece","fclName":"city, village,...","adminCodes1":{"ISO3166_2":"SC"},"countryName":"United States","fcodeName":"populated place","adminName1":"South Carolina","lat":"33.87181","fcode":"PPL"}]}
