{"totalResultsCount":889,"geonames":[{"adminCode1":"MN","lng":"-93.58794","geonameId":5034993,"toponymName":"Little Fork River","countryId":"6252001","fcl":"H","population":0,"countryCode":"US","name":"Little Fork River","fclName":"stream, lake, ...","adminCodes1":{"ISO3166_2":"MN"},"countryName":"United States","fcodeName":"stream","adminName1":"Minnesota","lat":"48.52745","fcode":"STM"},{"adminCode1":"OK","lng":"-97.0531","geonameId":4278930,"toponymName":"Salt Fork Arkansas River","countryId":"6252001","fcl":"H","population":0,"countryCode":"US","name":"Salt Fork Arkansas River","fclName":"stream, lake, ...","adminCodes1":{"ISO3166_2":"OK"},"countryName":"United States","fcodeName":"watercourse","adminName1":"Oklahoma","lat":"36.59948","fcode":"WTRC"},{"adminCode1":"CA","lng":"-123.0148","geonameId":5553635,"toponymName":"Little South Fork Lake","countryId":"6252001","fcl":"H","population":0,"countryCode":"US","name":"Little South Fork Lake","fclName":"stream, lake, ...","adminCodes1":{"ISO3166_2":"CA"},"countryName":"United States","fcodeName":"lake","adminName1":"California","lat":"41.01828","fcode":"LK"},{"adminCode1":"MN","lng":"-92.85629","geonameId":5035006,"toponymName":"Little Fork River Wayside","countryId":"6252001","fcl":"L","population":0,"countryCode":"US","name":"Little Fork River Wayside","fclName":"parks,area, ...","adminCodes1":{"ISO3166_2":"MN"},"countryName":"United States","fcodeName":"park","adminName1":"Minnesota","lat":"47.86687","fcode":"PRK"},{"adminCode1":"TN","lng":"-84.47605","geonameId":4637241,"toponymName":"Little Fork Mountain","countryId":"6252001","fcl":"T","population":0,"countryCode":"US","name":"Little Fork Mountain","fclName":"mountain,hill,rock,... ","adminCodes1":{"ISO3166_2":"TN"},"countryName":"United States","fcodeName":"mountain","adminName1":"Tennessee","lat":"36.1098","fcode":"MT"},{"adminCode1":"MO","lng":"-94.69107","geonameId":4395745,"toponymName":"Little Platte River","countryId":"6252001","fcl":"H","population":0,"countryCode":"US","name":"Little Platte River","fclName":"stream, lake, ...","adminCodes1":{"ISO3166_2":"MO"},"countryName":"United States","fcodeName":"stream","adminName1":"Missouri","lat":"39.39805","fcode":"STM"},{"adminCode1":"IN","lng":"-85.57524","geonameId":4260498,"toponymName":"Little Creek","countryId":"6252001","fcl":"H","population":0,"countryCode":"US","name":"Little Creek","fclName":"stream, lake, ...","adminCodes1":{"ISO3166_2":"IN"},"countryName":"United States","fcodeName":"stream","adminName1":"Indiana","lat":"38.78117","fcode":"STM"},{"adminCode1":"AL","lng":"-87.94416","geonameId":4093839,"toponymName":"Tombigbee River","countryId":"6252001","fcl":"H","population":0,"countryCode":"US","name":"Tombigbee River","fclName":"stream, lake, ...","adminCodes1":{"ISO3166_2":"AL"},"countryName":"United States","fcodeName":"stream","adminName1":"Alabama","lat":"31.13629","fcode":"STM"},{"adminCode1":"AR","lng":"-92.63405","geonameId":4119335,"toponymName":"Little North Fork White River","countryId":"6252001","fcl":"H","population":0,"countryCode":"US","name":"Little North Fork White River","fclName":"stream, lake, ...","adminCodes1":{"ISO3166_2":"AR"},"countryName":"United States","fcodeName":"stream","adminName1":"Arkansas","lat":"36.45618","fcode":"STM"},{"adminCode1":"OR","lng":"-123.7379","geonameId":5737157,"toponymName":"Little North Fork Wilson River","countryId":"6252001","fcl":"H","population":0,"countryCode":"US","name":"Little North Fork Wilson River","fclName":"stream, lake, ...","adminCodes1":{"ISO3166_2":"OR"},"countryName":"United States","fcodeName":"stream","adminName1":"Oregon","lat":"45.47316","fcode":"STM"},{"adminCode1":"MT","lng":"-113.82212","geonameId":5662709,"toponymName":"Little Burnt Fork Lakes","countryId":"6252001","fcl":"H","population":0,"countryCode":"US","name":"Little Burnt Fork Lakes","fclName":"stream, lake, ...","adminCodes1":{"ISO3166_2":"MT"},"countryName":"United States","fcodeName":"lake","adminName1":"Montana","lat":"46.28719","fcode":"LK"},{"adminCode1":"LA","lng":"-91.43834","geonameId":4331232,"toponymName":"Little Fork Bayou","countryId":"6252001","fcl":"H","population":0,"countryCode":"US","name":"Little Fork Bayou","fclName":"stream, lake, ...","adminCodes1":{"ISO3166_2":"LA"},"countryName":"United States","fcodeName":"lake","adminName1":"Louisiana","lat":"32.35597","fcode":"LK"},{"adminCode1":"WI","lng":"-89.11596","geonameId":5260321,"toponymName":"Little Fork Lake","countryId":"6252001","fcl":"H","population":0,"countryCode":"US","name":"Little Fork Lake","fclName":"stream, lake, ...","adminCodes1":{"ISO3166_2":"WI"},"countryName":"United States","fcodeName":"lake","adminName1":"Wisconsin","lat":"45.82885","fcode":"LK"},{"adminCode1":"AR","lng":"-92.5835","geonameId":4124101,"toponymName":"Township of North Fork (historical)","countryId":"6252001","fcl":"A","population":0,"countryCode":"US","name":"Township of North Fork (historical)","fclName":"country, state, region,...","adminCodes1":{"ISO3166_2":"AR"},"countryName":"United States","fcodeName":"administrative division","adminName1":"Arkansas","lat":"36.44868","fcode":"ADMD"},{"adminCode1":"NC","lng":"-82.13079","geonameId":7170458,"toponymName":"Township of Fork Mountain-Little Rock Creek","countryId":"6252001","fcl":"A","population":0,"countryCode":"US","name":"Township of Fork Mountain-Little Rock Creek","fclName":"country, state, region,...","adminCodes1":{"ISO3166_2":"NC"},"countryName":"United States","fcodeName":"third-order administrative division","adminName1":"North Carolina","lat":"36.07049","fcode":"ADM3"},{"adminCode1":"OK","lng":"-94.57549","geonameId":4543213,"toponymName":"Mountain Fork","countryId":"6252001","fcl":"H","population":0,"countryCode":"US","name":"Mountain Fork","fclName":"stream, lake, ...","adminCodes1":{"ISO3166_2":"OK"},"countryName":"United States","fcodeName":"stream","adminName1":"Oklahoma","lat":"33.9515","fcode":"STM"},{"adminCode1":"CO","lng":"-105.44721","geonameId":5582166,"toponymName":"South Fork Cache la Poudre River","countryId":"6252001","fcl":"H","population":0,"countryCode":"US","name":"South Fork Cache la Poudre River","fclName":"stream, lake, ...","adminCodes1":{"ISO3166_2":"CO"},"countryName":"United States","fcodeName":"stream","adminName1":"Colorado","lat":"40.68637","fcode":"STM"},{"adminCode1":"AL","lng":"-85.5833","geonameId":4059886,"toponymName":"East Fork Little River","countryId":"6252001","fcl":"H","population":0,"countryCode":"US","name":"East Fork Little River","fclName":"stream, lake, ...","adminCodes1":{"ISO3166_2":"AL"},"countryName":"United States","fcodeName":"stream","adminName1":"Alabama","lat":"34.45925","fcode":"STM"},{"adminCode1":"ID","lng":"-116.87207","geonameId":5599055,"toponymName":"Little Owyhee River","countryId":"6252001","fcl":"H","population":0,"countryCode":"US","name":"Little Owyhee River","fclName":"stream, lake, ...","adminCodes1":{"ISO3166_2":"ID"},"countryName":"United States","fcodeName":"stream","adminName1":"Idaho","lat":"42.16739","fcode":"STM"},{"adminCode1":"CO","lng":"-107.04755","geonameId":5579838,"toponymName":"Middle Fork Little Snake River","countryId":"6252001","fcl":"H","population":0,"countryCode":"US","name":"Middle Fork Little Snake River","fclName":"stream, lake, ...","adminCodes1":{"ISO3166_2":"CO"},"countryName":"United States","fcodeName":"stream","adminName1":"Colorado","lat":"40.9933","fcode":"STM"},{"adminCode1":"TN","lng":"-86.4586","geonameId":4666748,"toponymName":"West Fork Stones River","countryId":"6252001","fcl":"H","population":0,"countryCode":"US","name":"West Fork Stones River","fclName":"stream, lake, ...","adminCodes1":{"ISO3166_2":"TN"},"countryName":"United States","fcodeName":"stream","adminName1":"Tennessee","lat":"35.9859","fcode":"STM"},{"adminCode1":"WY","lng":"-109.76682","geonameId":5830575,"toponymName":"Little Dry Creek","countryId":"6252001","fcl":"H","population":0,"countryCode":"US","name":"Little Dry Creek","fclName":"stream, lake, ...","adminCodes1":{"ISO3166_2":"WY"},"countryName":"United States","fcodeName":"stream","adminName1":"Wyoming","lat":"41.05329","fcode":"STM"},{"adminCode1":"WY","lng":"-110.58933","geonameId":5830826,"toponymName":"Little West Fork Blacks Fork","countryId":"6252001","fcl":"H","population":0,"countryCode":"US","name":"Little West Fork Blacks Fork","fclName":"stream, lake, ...","adminCodes1":{"ISO3166_2":"WY"},"countryName":"United States","fcodeName":"stream","adminName1":"Wyoming","lat":"41.00495","fcode":"STM"},{"adminCode1":"MT","lng":"-105.43388","geonameId":5672322,"toponymName":"Powder River","countryId":"6252001","fcl":"H","population":0,"countryCode":"US","name":"Powder River","fclName":"stream, lake, ...","adminCodes1":{"ISO3166_2":"MT"},"countryName":"United States","fcodeName":"stream","adminName1":"Montana","lat":"46.73334","fcode":"STM"},{"adminCode1":"GA","lng":"-85.19967","geonameId":4205912,"toponymName":"Little Armuchee Creek","countryId":"6252001","fcl":"H","population":0,"countryCode":"US","name":"Little Armuchee Creek","fclName":"stream, lake, ...","adminCodes1":{"ISO3166_2":"GA"},"countryName":"United States","fcodeName":"stream","adminName1":"Georgia","lat":"34.39092","fcode":"STM"},{"adminCode1":"WY","lng":"-107.04755","geonameId":5833716,"toponymName":"North Fork Little Snake River","countryId":"6252001","fcl":"H","population":0,"countryCode":"US","name":"North Fork Little Snake River","fclName":"stream, lake, ...","adminCodes1":{"ISO3166_2":"WY"},"countryName":"United States","fcodeName":"stream","adminName1":"Wyoming","lat":"40.9933","fcode":"STM"},{"adminCode1":"WY","lng":"-107.06866","geonameId":5836718,"toponymName":"Roaring Fork Little Snake River","countryId":"6252001","fcl":"H","population":0,"countryCode":"US","name":"Roaring Fork Little Snake River","fclName":"stream, lake, ...","adminCodes1":{"ISO3166_2":"WY"},"countryName":"United States","fcodeName":"stream","adminName1":"Wyoming","lat":"41.00136","fcode":"STM"},{"adminCode1":"CO","lng":"-105.30166","geonameId":5580375,"toponymName":"North Fork Little Thompson River","countryId":"6252001","fcl":"H","population":0,"countryCode":"US","name":"North Fork Little Thompson River","fclName":"stream, lake, ...","adminCodes1":{"ISO3166_2":"CO"},"countryName":"United States","fcodeName":"stream","adminName1":"Colorado","lat":"40.30221","fcode":"STM"},{"adminCode1":"CO","lng":"-107.052","geonameId":5582176,"toponymName":"South Fork Little Snake River","countryId":"6252001","fcl":"H","population":0,"countryCode":"US","name":"South Fork Little Snake River","fclName":"stream, lake, ...","adminCodes1":{"ISO3166_2":"CO"},"countryName":"United States","fcodeName":"stream","adminName1":"Colorado","lat":"40.99163","fcode":"STM"},{"adminCode1":"CO","lng":"-105.37527","geonameId":5583290,"toponymName":"West Fork Little Thompson River","countryId":"6252001","fcl":"H","population":0,"countryCode":"US","name":"West Fork Little Thompson River","fclName":"stream, lake, ...","adminCodes1":{"ISO3166_2":"CO"},"countryName":"United States","fcodeName":"stream","adminName1":"Colorado","lat":"40.28776","fcode":"STM"},{"adminCode1":"CO","lng":"-108.48648","geonameId":5443682,"toponymName":"West Fork Little Soda Canyon","countryId":"6252001","fcl":"T","population":0,"countryCode":"US","name":"West Fork Little Soda Canyon","fclName":"mountain,hill,rock,... ","adminCodes1":{"ISO3166_2":"CO"},"countryName":"United States","fcodeName":"valley","adminName1":"Colorado","lat":"37.25361","fcode":"VAL"},{"adminCode1":"CO","lng":"-107.46478","geonameId":5420561,"toponymName":"East Fork Little Cimarron River","countryId":"6252001","fcl":"H","population":0,"countryCode":"US","name":"East Fork Little Cimarron River","fclName":"stream, lake, ...","adminCodes1":{"ISO3166_2":"CO"},"countryName":"United States","fcodeName":"stream","adminName1":"Colorado","lat":"38.29832","fcode":"STM"},{"adminCode1":"CO","lng":"-107.59561","geonameId":5420564,"toponymName":"East Fork Little Muddy Gulch","countryId":"6252001","fcl":"T","population":0,"countryCode":"US","name":"East Fork Little Muddy Gulch","fclName":"mountain,hill,rock,... ","adminCodes1":{"ISO3166_2":"CO"},"countryName":"United States","fcodeName":"valley","adminName1":"Colorado","lat":"39.29276","fcode":"VAL"},{"adminCode1":"CO","lng":"-108.48648","geonameId":5420565,"toponymName":"East Fork Little Soda Canyon","countryId":"6252001","fcl":"T","population":0,"countryCode":"US","name":"East Fork Little Soda Canyon","fclName":"mountain,hill,rock,... ","adminCodes1":{"ISO3166_2":"CO"},"countryName":"United States","fcodeName":"valley","adminName1":"Colorado","lat":"37.25361","fcode":"VAL"},{"adminCode1":"AZ","lng":"-110.79124","geonameId":5320260,"toponymName":"West Fork Little Springs Canyon","countryId":"6252001","fcl":"T","population":0,"countryCode":"US","name":"West Fork Little Springs Canyon","fclName":"mountain,hill,rock,... ","adminCodes1":{"ISO3166_2":"AZ"},"countryName":"United States","fcodeName":"valley","adminName1":"Arizona","lat":"34.41059","fcode":"VAL"},{"adminCode1":"UT","lng":"-111.49963","geonameId":5542250,"toponymName":"Little South Fork Manti Canyon","countryId":"6252001","fcl":"T","population":0,"countryCode":"US","name":"Little South Fork Manti Canyon","fclName":"mountain,hill,rock,... ","adminCodes1":{"ISO3166_2":"UT"},"countryName":"United States","fcodeName":"valley","adminName1":"Utah","lat":"39.22719","fcode":"VAL"},{"adminCode1":"UT","lng":"-111.82074","geonameId":5545755,"toponymName":"Right Fork Little Jake Hollow","countryId":"6252001","fcl":"T","population":0,"countryCode":"US","name":"Right Fork Little Jake Hollow","fclName":"mountain,hill,rock,... ","adminCodes1":{"ISO3166_2":"UT"},"countryName":"United States","fcodeName":"valley","adminName1":"Utah","lat":"37.81221","fcode":"VAL"},{"adminCode1":"NE","lng":"-97.1692","geonameId":5071471,"toponymName":"Kezan Creek","countryId":"6252001","fcl":"H","population":0,"countryCode":"US","name":"Kezan Creek","fclName":"stream, lake, ...","adminCodes1":{"ISO3166_2":"NE"},"countryName":"United States","fcodeName":"stream","adminName1":"Nebraska","lat":"41.13751","fcode":"STM"},{"adminCode1":"AL","lng":"-87.46079","geonameId":4072883,"toponymName":"Little Bluewater Creek","countryId":"6252001","fcl":"H","population":0,"countryCode":"US","name":"Little Bluewater Creek","fclName":"stream, lake, ...","adminCodes1":{"ISO3166_2":"AL"},"countryName":"United States","fcodeName":"stream","adminName1":"Alabama","lat":"34.97723","fcode":"STM"},{"adminCode1":"MO","lng":"-91.97518","geonameId":4395740,"toponymName":"Little Piney Creek","countryId":"6252001","fcl":"H","population":0,"countryCode":"US","name":"Little Piney Creek","fclName":"stream, lake, ...","adminCodes1":{"ISO3166_2":"MO"},"countryName":"United States","fcodeName":"stream","adminName1":"Missouri","lat":"37.92022","fcode":"STM"},{"adminCode1":"AR","lng":"-93.82574","geonameId":4119368,"toponymName":"Little River","countryId":"6252001","fcl":"H","population":0,"countryCode":"US","name":"Little River","fclName":"stream, lake, ...","adminCodes1":{"ISO3166_2":"AR"},"countryName":"United States","fcodeName":"stream","adminName1":"Arkansas","lat":"33.60984","fcode":"STM"},{"adminCode1":"OR","lng":"-121.45392","geonameId":5736966,"toponymName":"Little Deschutes River","countryId":"6252001","fcl":"H","population":0,"countryCode":"US","name":"Little Deschutes River","fclName":"stream, lake, ...","adminCodes1":{"ISO3166_2":"OR"},"countryName":"United States","fcodeName":"stream","adminName1":"Oregon","lat":"43.85401","fcode":"STM"},{"adminCode1":"OH","lng":"-82.88462","geonameId":4516860,"toponymName":"Little Scioto River","countryId":"6252001","fcl":"H","population":0,"countryCode":"US","name":"Little Scioto River","fclName":"stream, lake, ...","adminCodes1":{"ISO3166_2":"OH"},"countryName":"United States","fcodeName":"stream","adminName1":"Ohio","lat":"38.75508","fcode":"STM"},{"adminCode1":"NC","lng":"-82.14401","geonameId":4478780,"toponymName":"Meadlock Mountain","countryId":"6252001","fcl":"T","population":0,"countryCode":"US","name":"Meadlock Mountain","fclName":"mountain,hill,rock,... ","adminCodes1":{"ISO3166_2":"NC"},"countryName":"United States","fcodeName":"mountain","adminName1":"North Carolina","lat":"36.04817","fcode":"MT"},{"adminCode1":"ID","lng":"-116.256","geonameId":5608081,"toponymName":"South Fork Coeur d'Alene River","countryId":"6252001","fcl":"H","population":0,"countryCode":"US","name":"South Fork Coeur d'Alene River","fclName":"stream, lake, ...","adminCodes1":{"ISO3166_2":"ID"},"countryName":"United States","fcodeName":"stream","adminName1":"Idaho","lat":"47.55714","fcode":"STM"},{"adminCode1":"GA","lng":"-83.81712","geonameId":4230192,"toponymName":"West Fork Little River","countryId":"6252001","fcl":"H","population":0,"countryCode":"US","name":"West Fork Little River","fclName":"stream, lake, ...","adminCodes1":{"ISO3166_2":"GA"},"countryName":"United States","fcodeName":"stream","adminName1":"Georgia","lat":"34.36788","fcode":"STM"},{"adminCode1":"NM","lng":"-104.35884","geonameId":5481542,"toponymName":"North Fork Little McKittrick Draw","countryId":"6252001","fcl":"T","population":0,"countryCode":"US","name":"North Fork Little McKittrick Draw","fclName":"mountain,hill,rock,... ","adminCodes1":{"ISO3166_2":"NM"},"countryName":"United States","fcodeName":"valley","adminName1":"New Mexico","lat":"32.38956","fcode":"VAL"},{"adminCode1":"UT","lng":"-113.01466","geonameId":5544097,"toponymName":"North Fork Virgin River","countryId":"6252001","fcl":"H","population":0,"countryCode":"US","name":"North Fork Virgin River","fclName":"stream, lake, ...","adminCodes1":{"ISO3166_2":"UT"},"countryName":"United States","fcodeName":"stream","adminName1":"Utah","lat":"37.1622","fcode":"STM"},{"adminCode1":"OR","lng":"-122.61009","geonameId":5737158,"toponymName":"Little North Santiam River","countryId":"6252001","fcl":"H","population":0,"countryCode":"US","name":"Little North Santiam River","fclName":"stream, lake, ...","adminCodes1":{"ISO3166_2":"OR"},"countryName":"United States","fcodeName":"stream","adminName1":"Oregon","lat":"44.78623","fcode":"STM"},{"adminCode1":"MT","lng":"-105.33193","geonameId":5662913,"toponymName":"Little Powder River","countryId":"6252001","fcl":"H","population":0,"countryCode":"US","name":"Little Powder River","fclName":"stream, lake, ...","adminCodes1":{"ISO3166_2":"MT"},"countryName":"United States","fcodeName":"stream","adminName1":"Montana","lat":"45.4661","fcode":"STM"},{"adminCode1":"TN","lng":"-86.11054","geonameId":4637214,"toponymName":"Little Duck River","countryId":"6252001","fcl":"H","population":0,"countryCode":"US","name":"Little Duck River","fclName":"stream, lake, ...","adminCodes1":{"ISO3166_2":"TN"},"countryName":"United States","fcodeName":"stream","adminName1":"Tennessee","lat":"35.47952","fcode":"STM"},{"adminCode1":"TN","lng":"-83.59545","geonameId":4637421,"toponymName":"Little Pigeon River","countryId":"6252001","fcl":"H","population":0,"countryCode":"US","name":"Little Pigeon River","fclName":"stream, lake, ...","adminCodes1":{"ISO3166_2":"TN"},"countryName":"United States","fcodeName":"stream","adminName1":"Tennessee","lat":"35.93092","fcode":"STM"},{"adminCode1":"MO","lng":"-94.24411","geonameId":4395722,"toponymName":"Little Osage River","countryId":"6252001","fcl":"H","population":0,"countryCode":"US","name":"Little Osage River","fclName":"stream, lake, ...","adminCodes1":{"ISO3166_2":"MO"},"countryName":"United States","fcodeName":"stream","adminName1":"Missouri","lat":"38.02753","fcode":"STM"},{"adminCode1":"CO","lng":"-104.84358","geonameId":5579144,"toponymName":"Little Thompson River","countryId":"6252001","fcl":"H","population":0,"countryCode":"US","name":"Little Thompson River","fclName":"stream, lake, ...","adminCodes1":{"ISO3166_2":"CO"},"countryName":"United States","fcodeName":"stream","adminName1":"Colorado","lat":"40.34054","fcode":"STM"},{"adminCode1":"MI","lng":"-85.22806","geonameId":4999761,"toponymName":"Little Thornapple River","countryId":"6252001","fcl":"H","population":0,"countryCode":"US","name":"Little Thornapple River","fclName":"stream, lake, ...","adminCodes1":{"ISO3166_2":"MI"},"countryName":"United States","fcodeName":"stream","adminName1":"Michigan","lat":"42.71392","fcode":"STM"},{"adminCode1":"WY","lng":"-108.96042","geonameId":5842511,"toponymName":"West Fork Big Sand Coulee","countryId":"6252001","fcl":"T","population":0,"countryCode":"US","name":"West Fork Big Sand Coulee","fclName":"mountain,hill,rock,... ","adminCodes1":{"ISO3166_2":"WY"},"countryName":"United States","fcodeName":"valley","adminName1":"Wyoming","lat":"44.83856","fcode":"VAL"},{"adminCode1":"OH","lng":"-81.28067","geonameId":4525984,"toponymName":"Sycamore Fork","countryId":"6252001","fcl":"H","population":0,"countryCode":"US","name":"Sycamore Fork","fclName":"stream, lake, ...","adminCodes1":{"ISO3166_2":"OH"},"countryName":"United States","fcodeName":"stream","adminName1":"Ohio","lat":"39.53091","fcode":"STM"},{"adminCode1":"MO","lng":"-91.11987","geonameId":4384593,"toponymName":"Dry Fork","countryId":"6252001","fcl":"H","population":0,"countryCode":"US","name":"Dry Fork","fclName":"stream, lake, ...","adminCodes1":{"ISO3166_2":"MO"},"countryName":"United States","fcodeName":"stream","adminName1":"Missouri","lat":"38.65199","fcode":"STM"},{"adminCode1":"CO","lng":"-105.74028","geonameId":5439584,"toponymName":"South Fork South Platte River","countryId":"6252001","fcl":"H","population":0,"countryCode":"US","name":"South Fork South Platte River","fclName":"stream, lake, ...","adminCodes1":{"ISO3166_2":"CO"},"countryName":"United States","fcodeName":"stream","adminName1":"Colorado","lat":"39.0111","fcode":"STM"},{"adminCode1":"OH","lng":"-80.54368","geonameId":5164772,"toponymName":"North Fork Little Beaver Creek","countryId":"6252001","fcl":"H","population":0,"countryCode":"US","name":"North Fork Little Beaver Creek","fclName":"stream, lake, ...","adminCodes1":{"ISO3166_2":"OH"},"countryName":"United States","fcodeName":"stream","adminName1":"Ohio","lat":"40.71312","fcode":"STM"},{"adminCode1":"OH","lng":"-84.00132","geonameId":4510609,"toponymName":"East Fork Todd Fork","countryId":"6252001","fcl":"H","population":0,"countryCode":"US","name":"East Fork Todd Fork","fclName":"stream, lake, ...","adminCodes1":{"ISO3166_2":"OH"},"countryName":"United States","fcodeName":"stream","adminName1":"Ohio","lat":"39.39506","fcode":"STM"},{"adminCode1":"AK","lng":"-153.92639","geonameId":5880692,"toponymName":"Big Salmon Fork","countryId":"6252001","fcl":"H","population":0,"countryCode":"US","name":"Big Salmon Fork","fclName":"stream, lake, ...","adminCodes1":{"ISO3166_2":"AK"},"countryName":"United States","fcodeName":"stream","adminName1":"Alaska","lat":"62.95444","fcode":"STM"},{"adminCode1":"OR","lng":"-123.04532","geonameId":5736782,"toponymName":"Little Applegate River","countryId":"6252001","fcl":"H","population":0,"countryCode":"US","name":"Little Applegate River","fclName":"stream, lake, ...","adminCodes1":{"ISO3166_2":"OR"},"countryName":"United States","fcodeName":"stream","adminName1":"Oregon","lat":"42.19874","fcode":"STM"},{"adminCode1":"OR","lng":"-123.89674","geonameId":5736892,"toponymName":"Little Chetco River","countryId":"6252001","fcl":"H","population":0,"countryCode":"US","name":"Little Chetco River","fclName":"stream, lake, ...","adminCodes1":{"ISO3166_2":"OR"},"countryName":"United States","fcodeName":"stream","adminName1":"Oregon","lat":"42.21511","fcode":"STM"},{"adminCode1":"CO","lng":"-107.88202","geonameId":5579068,"toponymName":"Little Collom Gulch","countryId":"6252001","fcl":"T","population":0,"countryCode":"US","name":"Little Collom Gulch","fclName":"mountain,hill,rock,... ","adminCodes1":{"ISO3166_2":"CO"},"countryName":"United States","fcodeName":"valley","adminName1":"Colorado","lat":"40.31608","fcode":"VAL"},{"adminCode1":"WA","lng":"-117.88609","geonameId":5801295,"toponymName":"Little Pend Oreille River","countryId":"6252001","fcl":"H","population":0,"countryCode":"US","name":"Little Pend Oreille River","fclName":"stream, lake, ...","adminCodes1":{"ISO3166_2":"WA"},"countryName":"United States","fcodeName":"stream","adminName1":"Washington","lat":"48.4574","fcode":"STM"},{"adminCode1":"VA","lng":"-79.40503","geonameId":4770042,"toponymName":"Little Otter River","countryId":"6252001","fcl":"H","population":0,"countryCode":"US","name":"Little Otter River","fclName":"stream, lake, ...","adminCodes1":{"ISO3166_2":"VA"},"countryName":"United States","fcodeName":"stream","adminName1":"Virginia","lat":"37.27487","fcode":"STM"},{"adminCode1":"CA","lng":"-124.11118","geonameId":5566963,"toponymName":"Little River","countryId":"6252001","fcl":"H","population":0,"countryCode":"US","name":"Little River","fclName":"stream, lake, ...","adminCodes1":{"ISO3166_2":"CA"},"countryName":"United States","fcodeName":"stream","adminName1":"California","lat":"41.02707","fcode":"STM"},{"adminCode1":"CA","lng":"-121.89065","geonameId":5367238,"toponymName":"Little Sur River","countryId":"6252001","fcl":"H","population":0,"countryCode":"US","name":"Little Sur River","fclName":"stream, lake, ...","adminCodes1":{"ISO3166_2":"CA"},"countryName":"United States","fcodeName":"watercourse","adminName1":"California","lat":"36.33381","fcode":"WTRC"},{"adminCode1":"WV","lng":"-81.47596","geonameId":4806472,"toponymName":"Frame","countryId":"6252001","fcl":"P","population":0,"countryCode":"US","name":"Frame","fclName":"city, village,...","adminCodes1":{"ISO3166_2":"WV"},"countryName":"United States","fcodeName":"populated place","adminName1":"West Virginia","lat":"38.50426","fcode":"PPL"},{"adminCode1":"WV","lng":"-82.39154","geonameId":4807820,"toponymName":"Guyandotte River","countryId":"6252001","fcl":"H","population":0,"countryCode":"US","name":"Guyandotte River","fclName":"stream, lake, ...","adminCodes1":{"ISO3166_2":"WV"},"countryName":"United States","fcodeName":"stream","adminName1":"West Virginia","lat":"38.43175","fcode":"STM"},{"adminCode1":"NV","lng":"-117.17901","geonameId":5708785,"toponymName":"South Fork Little Humboldt River","countryId":"6252001","fcl":"H","population":0,"countryCode":"US","name":"South Fork Little Humboldt River","fclName":"stream, lake, ...","adminCodes1":{"ISO3166_2":"NV"},"countryName":"United States","fcodeName":"stream","adminName1":"Nevada","lat":"41.39851","fcode":"STM"},{"adminCode1":"TN","lng":"-87.3639","geonameId":4637574,"toponymName":"Little West Fork","countryId":"6252001","fcl":"H","population":0,"countryCode":"US","name":"Little West Fork","fclName":"stream, lake, ...","adminCodes1":{"ISO3166_2":"TN"},"countryName":"United States","fcodeName":"stream","adminName1":"Tennessee","lat":"36.58338","fcode":"STM"},{"adminCode1":"OR","lng":"-122.61837","geonameId":5753294,"toponymName":"South Fork Little Butte Creek","countryId":"6252001","fcl":"H","population":0,"countryCode":"US","name":"South Fork Little Butte Creek","fclName":"stream, lake, ...","adminCodes1":{"ISO3166_2":"OR"},"countryName":"United States","fcodeName":"stream","adminName1":"Oregon","lat":"42.41985","fcode":"STM"},{"adminCode1":"MT","lng":"-106.09169","geonameId":5650113,"toponymName":"East Fork Little Porcupine Creek","countryId":"6252001","fcl":"H","population":0,"countryCode":"US","name":"East Fork Little Porcupine Creek","fclName":"stream, lake, ...","adminCodes1":{"ISO3166_2":"MT"},"countryName":"United States","fcodeName":"stream","adminName1":"Montana","lat":"48.43752","fcode":"STM"},{"adminCode1":"MT","lng":"-106.9584","geonameId":5637643,"toponymName":"Arrambide Coulee","countryId":"6252001","fcl":"T","population":0,"countryCode":"US","name":"Arrambide Coulee","fclName":"mountain,hill,rock,... ","adminCodes1":{"ISO3166_2":"MT"},"countryName":"United States","fcodeName":"valley","adminName1":"Montana","lat":"48.02223","fcode":"VAL"},{"adminCode1":"UT","lng":"-111.78688","geonameId":5778979,"toponymName":"North Fork Deaf Smith Canyon","countryId":"6252001","fcl":"T","population":0,"countryCode":"US","name":"North Fork Deaf Smith Canyon","fclName":"mountain,hill,rock,... ","adminCodes1":{"ISO3166_2":"UT"},"countryName":"United States","fcodeName":"valley","adminName1":"Utah","lat":"40.59162","fcode":"VAL"},{"adminCode1":"WA","lng":"-117.34994","geonameId":5804991,"toponymName":"North Fork Calispell Creek","countryId":"6252001","fcl":"H","population":0,"countryCode":"US","name":"North Fork Calispell Creek","fclName":"stream, lake, ...","adminCodes1":{"ISO3166_2":"WA"},"countryName":"United States","fcodeName":"stream","adminName1":"Washington","lat":"48.23379","fcode":"STM"},{"adminCode1":"AK","lng":"-142.33028","geonameId":5863340,"toponymName":"Grayling Fork Black River","countryId":"6252001","fcl":"H","population":0,"countryCode":"US","name":"Grayling Fork Black River","fclName":"stream, lake, ...","adminCodes1":{"ISO3166_2":"AK"},"countryName":"United States","fcodeName":"stream","adminName1":"Alaska","lat":"66.15417","fcode":"STM"},{"adminCode1":"AR","lng":"-92.44794","geonameId":4099625,"toponymName":"Archey Creek","countryId":"6252001","fcl":"H","population":0,"countryCode":"US","name":"Archey Creek","fclName":"stream, lake, ...","adminCodes1":{"ISO3166_2":"AR"},"countryName":"United States","fcodeName":"stream","adminName1":"Arkansas","lat":"35.59063","fcode":"STM"},{"adminCode1":"MT","lng":"-112.01583","geonameId":5662916,"toponymName":"Little Prickly Pear Creek","countryId":"6252001","fcl":"H","population":0,"countryCode":"US","name":"Little Prickly Pear Creek","fclName":"stream, lake, ...","adminCodes1":{"ISO3166_2":"MT"},"countryName":"United States","fcodeName":"stream","adminName1":"Montana","lat":"47.02272","fcode":"STM"},{"adminCode1":"OH","lng":"-81.15706","geonameId":4508908,"toponymName":"Clear Fork Little Muskingum River","countryId":"6252001","fcl":"H","population":0,"countryCode":"US","name":"Clear Fork Little Muskingum River","fclName":"stream, lake, ...","adminCodes1":{"ISO3166_2":"OH"},"countryName":"United States","fcodeName":"stream","adminName1":"Ohio","lat":"39.60119","fcode":"STM"},{"adminCode1":"MO","lng":"-92.84491","geonameId":4398152,"toponymName":"Middle Fork Little Chariton River","countryId":"6252001","fcl":"H","population":0,"countryCode":"US","name":"Middle Fork Little Chariton River","fclName":"stream, lake, ...","adminCodes1":{"ISO3166_2":"MO"},"countryName":"United States","fcodeName":"stream","adminName1":"Missouri","lat":"39.34058","fcode":"STM"},{"adminCode1":"IN","lng":"-87.02389","geonameId":4262272,"toponymName":"North Fork Little Pigeon Creek","countryId":"6252001","fcl":"H","population":0,"countryCode":"US","name":"North Fork Little Pigeon Creek","fclName":"stream, lake, ...","adminCodes1":{"ISO3166_2":"IN"},"countryName":"United States","fcodeName":"stream","adminName1":"Indiana","lat":"38.13644","fcode":"STM"},{"adminCode1":"NV","lng":"-117.17901","geonameId":5706891,"toponymName":"North Fork Little Humboldt River","countryId":"6252001","fcl":"H","population":0,"countryCode":"US","name":"North Fork Little Humboldt River","fclName":"stream, lake, ...","adminCodes1":{"ISO3166_2":"NV"},"countryName":"United States","fcodeName":"stream","adminName1":"Nevada","lat":"41.39851","fcode":"STM"},{"adminCode1":"CO","lng":"-104.72971","geonameId":5436405,"toponymName":"Right Hand Fork Martinez Canyon","countryId":"6252001","fcl":"T","population":0,"countryCode":"US","name":"Right Hand Fork Martinez Canyon","fclName":"mountain,hill,rock,... ","adminCodes1":{"ISO3166_2":"CO"},"countryName":"United States","fcodeName":"valley","adminName1":"Colorado","lat":"37.02947","fcode":"VAL"},{"adminCode1":"KY","lng":"-84.07965","geonameId":4305741,"toponymName":"Red River","countryId":"6252001","fcl":"H","population":0,"countryCode":"US","name":"Red River","fclName":"stream, lake, ...","adminCodes1":{"ISO3166_2":"KY"},"countryName":"United States","fcodeName":"stream","adminName1":"Kentucky","lat":"37.85258","fcode":"STM"},{"adminCode1":"NE","lng":"-97.20226","geonameId":5074031,"toponymName":"North Branch Big Blue River","countryId":"6252001","fcl":"H","population":0,"countryCode":"US","name":"North Branch Big Blue River","fclName":"stream, lake, ...","adminCodes1":{"ISO3166_2":"NE"},"countryName":"United States","fcodeName":"stream","adminName1":"Nebraska","lat":"41.08473","fcode":"STM"},{"adminCode1":"WY","lng":"-107.25868","geonameId":5833710,"toponymName":"North Fork Little Canyon Creek","countryId":"6252001","fcl":"H","population":0,"countryCode":"US","name":"North Fork Little Canyon Creek","fclName":"stream, lake, ...","adminCodes1":{"ISO3166_2":"WY"},"countryName":"United States","fcodeName":"stream","adminName1":"Wyoming","lat":"43.7269","fcode":"STM"},{"adminCode1":"WY","lng":"-104.70052","geonameId":5833714,"toponymName":"North Fork Little Missouri River","countryId":"6252001","fcl":"H","population":0,"countryCode":"US","name":"North Fork Little Missouri River","fclName":"stream, lake, ...","adminCodes1":{"ISO3166_2":"WY"},"countryName":"United States","fcodeName":"stream","adminName1":"Wyoming","lat":"44.89999","fcode":"STM"},{"adminCode1":"AL","lng":"-85.5833","geonameId":4097028,"toponymName":"West Fork Little River","countryId":"6252001","fcl":"H","population":0,"countryCode":"US","name":"West Fork Little River","fclName":"stream, lake, ...","adminCodes1":{"ISO3166_2":"AL"},"countryName":"United States","fcodeName":"stream","adminName1":"Alabama","lat":"34.45898","fcode":"STM"},{"adminCode1":"OH","lng":"-80.62866","geonameId":5162824,"toponymName":"Middle Fork Little Beaver Creek","countryId":"6252001","fcl":"H","population":0,"countryCode":"US","name":"Middle Fork Little Beaver Creek","fclName":"stream, lake, ...","adminCodes1":{"ISO3166_2":"OH"},"countryName":"United States","fcodeName":"stream","adminName1":"Ohio","lat":"40.72166","fcode":"STM"},{"adminCode1":"CA","lng":"-121.55886","geonameId":5367291,"toponymName":"Little West Fork West Branch Feather River","countryId":"6252001","fcl":"H","population":0,"countryCode":"US","name":"Little West Fork West Branch Feather River","fclName":"stream, lake, ...","adminCodes1":{"ISO3166_2":"CA"},"countryName":"United States","fcodeName":"stream","adminName1":"California","lat":"39.84127","fcode":"STM"},{"adminCode1":"NM","lng":"-104.49774","geonameId":5476757,"toponymName":"Lookout Draw","countryId":"6252001","fcl":"T","population":0,"countryCode":"US","name":"Lookout Draw","fclName":"mountain,hill,rock,... ","adminCodes1":{"ISO3166_2":"NM"},"countryName":"United States","fcodeName":"valley","adminName1":"New Mexico","lat":"32.35289","fcode":"VAL"},{"adminCode1":"IN","lng":"-87.8353","geonameId":4260500,"toponymName":"Little Creek","countryId":"6252001","fcl":"H","population":0,"countryCode":"US","name":"Little Creek","fclName":"stream, lake, ...","adminCodes1":{"ISO3166_2":"IN"},"countryName":"United States","fcodeName":"stream","adminName1":"Indiana","lat":"38.02782","fcode":"STM"},{"adminCode1":"WV","lng":"-80.45509","geonameId":4819926,"toponymName":"Right Fork Little Kanawha River","countryId":"6252001","fcl":"H","population":0,"countryCode":"US","name":"Right Fork Little Kanawha River","fclName":"stream, lake, ...","adminCodes1":{"ISO3166_2":"WV"},"countryName":"United States","fcodeName":"stream","adminName1":"West Virginia","lat":"38.74343","fcode":"STM"},{"adminCode1":"WV","lng":"-81.27178","geonameId":4826764,"toponymName":"West Fork Little Kanawha River","countryId":"6252001","fcl":"H","population":0,"countryCode":"US","name":"West Fork Little Kanawha River","fclName":"stream, lake, ...","adminCodes1":{"ISO3166_2":"WV"},"countryName":"United States","fcodeName":"stream","adminName1":"West Virginia","lat":"38.94731","fcode":"STM"},{"adminCode1":"WA","lng":"-121.28148","geonameId":5805074,"toponymName":"North Fork Little Naches River","countryId":"6252001","fcl":"H","population":0,"countryCode":"US","name":"North Fork Little Naches River","fclName":"stream, lake, ...","adminCodes1":{"ISO3166_2":"WA"},"countryName":"United States","fcodeName":"stream","adminName1":"Washington","lat":"47.089","fcode":"STM"},{"adminCode1":"VA","lng":"-79.84837","geonameId":4776352,"toponymName":"North Fork Little Chestnut Creek","countryId":"6252001","fcl":"H","population":0,"countryCode":"US","name":"North Fork Little Chestnut Creek","fclName":"stream, lake, ...","adminCodes1":{"ISO3166_2":"VA"},"countryName":"United States","fcodeName":"stream","adminName1":"Virginia","lat":"36.90542","fcode":"STM"},{"adminCode1":"WA","lng":"-121.22675","geonameId":5811350,"toponymName":"South Fork Little Naches River","countryId":"6252001","fcl":"H","population":0,"countryCode":"US","name":"South Fork Little Naches River","fclName":"stream, lake, ...","adminCodes1":{"ISO3166_2":"WA"},"countryName":"United States","fcodeName":"stream","adminName1":"Washington","lat":"47.06539","fcode":"STM"}]}
