{"totalResultsCount":195,"geonames":[{"adminCode1":"CA","lng":"-121.76801","geonameId":5367440,"toponymName":"Livermore","countryId":"6252001","fcl":"P","population":88126,"countryCode":"US","name":"Livermore","fclName":"city, village,...","adminCodes1":{"ISO3166_2":"CA"},"countryName":"United States","fcodeName":"populated place","adminName1":"California","lat":"37.68187","fcode":"PPL"},{"adminCode1":"ME","lng":"-70.24922","geonameId":4970214,"toponymName":"Livermore","countryId":"6252001","fcl":"P","population":2190,"countryCode":"US","name":"Livermore","fclName":"city, village,...","adminCodes1":{"ISO3166_2":"ME"},"countryName":"United States","fcodeName":"populated place","adminName1":"Maine","lat":"44.38396","fcode":"PPL"},{"adminCode1":"ME","lng":"-70.18811","geonameId":4970215,"toponymName":"Livermore Falls","countryId":"6252001","fcl":"P","population":1594,"countryCode":"US","name":"Livermore Falls","fclName":"city, village,...","adminCodes1":{"ISO3166_2":"ME"},"countryName":"United States","fcodeName":"populated place","adminName1":"Maine","lat":"44.47534","fcode":"PPL"},{"adminCode1":"CA","lng":"-121.82134","geonameId":5367403,"toponymName":"Livermore Municipal Airport","countryId":"6252001","fcl":"S","population":0,"countryCode":"US","name":"Livermore Municipal Airport","fclName":"spot, building, farm","adminCodes1":{"ISO3166_2":"CA"},"countryName":"United States","fcodeName":"airport","adminName1":"California","lat":"37.69326","fcode":"AIRP"},{"adminCode1":"ME","lng":"-70.14395","geonameId":4963301,"toponymName":"East Livermore","countryId":"6252001","fcl":"P","population":0,"countryCode":"US","name":"East Livermore","fclName":"city, village,...","adminCodes1":{"ISO3166_2":"ME"},"countryName":"United States","fcodeName":"populated place","adminName1":"Maine","lat":"44.41312","fcode":"PPL"},{"adminCode1":"KY","lng":"-87.13194","geonameId":4298805,"toponymName":"Livermore","countryId":"6252001","fcl":"P","population":1354,"countryCode":"US","name":"Livermore","fclName":"city, village,...","adminCodes1":{"ISO3166_2":"KY"},"countryName":"United States","fcodeName":"populated place","adminName1":"Kentucky","lat":"37.4931","fcode":"PPL"},{"adminCode1":"CO","lng":"-105.2172","geonameId":5579153,"toponymName":"Livermore","countryId":"6252001","fcl":"P","population":0,"countryCode":"US","name":"Livermore","fclName":"city, village,...","adminCodes1":{"ISO3166_2":"CO"},"countryName":"United States","fcodeName":"populated place","adminName1":"Colorado","lat":"40.79443","fcode":"PPL"},{"adminCode1":"TX","lng":"-104.16741","geonameId":5525315,"toponymName":"Mount Livermore","countryId":"6252001","fcl":"T","population":0,"countryCode":"US","name":"Mount Livermore","fclName":"mountain,hill,rock,... ","adminCodes1":{"ISO3166_2":"TX"},"countryName":"United States","fcodeName":"mountain","adminName1":"Texas","lat":"30.6332","fcode":"MT"},{"adminCode1":"IA","lng":"-94.18524","geonameId":4865183,"toponymName":"Livermore","countryId":"6252001","fcl":"P","population":366,"countryCode":"US","name":"Livermore","fclName":"city, village,...","adminCodes1":{"ISO3166_2":"IA"},"countryName":"United States","fcodeName":"populated place","adminName1":"Iowa","lat":"42.86858","fcode":"PPL"},{"adminCode1":"CA","lng":"-121.7095","geonameId":7302918,"toponymName":"Lawrence Livermore National Laboratory","countryId":"6252001","fcl":"S","population":0,"countryCode":"US","name":"Lawrence Livermore National Laboratory","fclName":"spot, building, farm","adminCodes1":{"ISO3166_2":"CA"},"countryName":"United States","fcodeName":"research institute","adminName1":"California","lat":"37.68602","fcode":"ITTR"},{"adminCode1":"KY","lng":"-87.13416","geonameId":7170357,"toponymName":"City of Livermore","countryId":"6252001","fcl":"A","population":1365,"countryCode":"US","name":"City of Livermore","fclName":"country, state, region,...","adminCodes1":{"ISO3166_2":"KY"},"countryName":"United States","fcodeName":"third-order administrative division","adminName1":"Kentucky","lat":"37.49195","fcode":"ADM3"},{"adminCode1":"ME","lng":"-70.14263","geonameId":4970220,"toponymName":"Town of Livermore Falls","countryId":"6252001","fcl":"A","population":3129,"countryCode":"US","name":"Town of Livermore Falls","fclName":"country, state, region,...","adminCodes1":{"ISO3166_2":"ME"},"countryName":"United States","fcodeName":"third-order administrative division","adminName1":"Maine","lat":"44.43248","fcode":"ADM3"},{"adminCode1":"ME","lng":"-70.21502","geonameId":4970222,"toponymName":"Town of Livermore","countryId":"6252001","fcl":"A","population":2108,"countryCode":"US","name":"Town of Livermore","fclName":"country, state, region,...","adminCodes1":{"ISO3166_2":"ME"},"countryName":"United States","fcodeName":"third-order administrative division","adminName1":"Maine","lat":"44.40789","fcode":"ADM3"},{"adminCode1":"MA","lng":"-73.27872","geonameId":4942311,"toponymName":"Livermore Peak","countryId":"6252001","fcl":"T","population":0,"countryCode":"US","name":"Livermore Peak","fclName":"mountain,hill,rock,... ","adminCodes1":{"ISO3166_2":"MA"},"countryName":"United States","fcodeName":"mountain","adminName1":"Massachusetts","lat":"42.19509","fcode":"MT"},{"adminCode1":"CA","lng":"-121.7919","geonameId":5367408,"toponymName":"Livermore Valley","countryId":"6252001","fcl":"T","population":0,"countryCode":"US","name":"Livermore Valley","fclName":"mountain,hill,rock,... ","adminCodes1":{"ISO3166_2":"CA"},"countryName":"United States","fcodeName":"valley","adminName1":"California","lat":"37.68021","fcode":"VAL"},{"adminCode1":"PA","lng":"-79.33309","geonameId":5198595,"toponymName":"Livermore","countryId":"6252001","fcl":"P","population":0,"countryCode":"US","name":"Livermore","fclName":"city, village,...","adminCodes1":{"ISO3166_2":"PA"},"countryName":"United States","fcodeName":"populated place","adminName1":"Pennsylvania","lat":"40.46173","fcode":"PPL"},{"adminCode1":"NH","lng":"-71.3773","geonameId":5088870,"toponymName":"Livermore","countryId":"6252001","fcl":"P","population":3,"countryCode":"US","name":"Livermore","fclName":"city, village,...","adminCodes1":{"ISO3166_2":"NH"},"countryName":"United States","fcodeName":"populated place","adminName1":"New Hampshire","lat":"44.07451","fcode":"PPL"},{"adminCode1":"ME","lng":"-70.17978","geonameId":4970227,"toponymName":"Livermore Center","countryId":"6252001","fcl":"P","population":0,"countryCode":"US","name":"Livermore Center","fclName":"city, village,...","adminCodes1":{"ISO3166_2":"ME"},"countryName":"United States","fcodeName":"populated place","adminName1":"Maine","lat":"44.40896","fcode":"PPL"},{"adminCode1":"MT","lng":"-115.17434","geonameId":5663038,"toponymName":"Lake Livermore (historical)","countryId":"6252001","fcl":"H","population":0,"countryCode":"US","name":"Lake Livermore (historical)","fclName":"stream, lake, ...","adminCodes1":{"ISO3166_2":"MT"},"countryName":"United States","fcodeName":"lake","adminName1":"Montana","lat":"48.92163","fcode":"LK"},{"adminCode1":"ID","lng":"-116.39575","geonameId":5599221,"toponymName":"Livermore Lake","countryId":"6252001","fcl":"H","population":0,"countryCode":"US","name":"Livermore Lake","fclName":"stream, lake, ...","adminCodes1":{"ISO3166_2":"ID"},"countryName":"United States","fcodeName":"lake","adminName1":"Idaho","lat":"48.21142","fcode":"LK"},{"adminCode1":"IA","lng":"-94.18404","geonameId":7317173,"toponymName":"City of Livermore","countryId":"6252001","fcl":"A","population":384,"countryCode":"US","name":"City of Livermore","fclName":"country, state, region,...","adminCodes1":{"ISO3166_2":"IA"},"countryName":"United States","fcodeName":"administrative division","adminName1":"Iowa","lat":"42.86803","fcode":"ADMD"},{"adminCode1":"CT","lng":"-73.33628","geonameId":4837872,"toponymName":"Livermore Pond (historical)","countryId":"6252001","fcl":"H","population":0,"countryCode":"US","name":"Livermore Pond (historical)","fclName":"stream, lake, ...","adminCodes1":{"ISO3166_2":"CT"},"countryName":"United States","fcodeName":"lake","adminName1":"Connecticut","lat":"41.28362","fcode":"LK"},{"adminCode1":"MI","lng":"-88.7084","geonameId":4999832,"toponymName":"Lake Livermore","countryId":"6252001","fcl":"H","population":0,"countryCode":"US","name":"Lake Livermore","fclName":"stream, lake, ...","adminCodes1":{"ISO3166_2":"MI"},"countryName":"United States","fcodeName":"lake","adminName1":"Michigan","lat":"48.06473","fcode":"LK"},{"adminCode1":"KY","lng":"-87.13673","geonameId":8504049,"toponymName":"Livermore Bridge Historical Marker","countryId":"6252001","fcl":"L","population":0,"countryCode":"US","name":"Livermore Bridge Historical Marker","fclName":"parks,area, ...","adminCodes1":{"ISO3166_2":"KY"},"countryName":"United States","fcodeName":"park","adminName1":"Kentucky","lat":"37.48061","fcode":"PRK"},{"adminCode1":"CA","lng":"-122.43091","geonameId":5334400,"toponymName":"Mount Caroline Livermore","countryId":"6252001","fcl":"T","population":0,"countryCode":"US","name":"Mount Caroline Livermore","fclName":"mountain,hill,rock,... ","adminCodes1":{"ISO3166_2":"CA"},"countryName":"United States","fcodeName":"mountain","adminName1":"California","lat":"37.86153","fcode":"MT"},{"adminCode1":"NH","lng":"-71.45993","geonameId":5088876,"toponymName":"Town of Livermore","countryId":"6252001","fcl":"A","population":0,"countryCode":"US","name":"Town of Livermore","fclName":"country, state, region,...","adminCodes1":{"ISO3166_2":"NH"},"countryName":"United States","fcodeName":"third-order administrative division","adminName1":"New Hampshire","lat":"44.04435","fcode":"ADM3"},{"adminCode1":"CA","lng":"-121.76067","geonameId":11788855,"toponymName":"City of Livermore","countryId":"6252001","fcl":"A","population":0,"countryCode":"US","name":"City of Livermore","fclName":"country, state, region,...","adminCodes1":{"ISO3166_2":"CA"},"countryName":"United States","fcodeName":"third-order administrative division","adminName1":"California","lat":"37.68629","fcode":"ADM3"},{"adminCode1":"ME","lng":"-70.17946","geonameId":4970218,"toponymName":"Livermore Falls High School","countryId":"6252001","fcl":"S","population":0,"countryCode":"US","name":"Livermore Falls High School","fclName":"spot, building, farm","adminCodes1":{"ISO3166_2":"ME"},"countryName":"United States","fcodeName":"school","adminName1":"Maine","lat":"44.47102","fcode":"SCH"},{"adminCode1":"CA","lng":"-121.73773","geonameId":5388053,"toponymName":"Robert Livermore Park","countryId":"6252001","fcl":"L","population":0,"countryCode":"US","name":"Robert Livermore Park","fclName":"parks,area, ...","adminCodes1":{"ISO3166_2":"CA"},"countryName":"United States","fcodeName":"park","adminName1":"California","lat":"37.68187","fcode":"PRK"},{"adminCode1":"CA","lng":"-121.74523","geonameId":5377679,"toponymName":"North Livermore Neighborhood Park","countryId":"6252001","fcl":"L","population":0,"countryCode":"US","name":"North Livermore Neighborhood Park","fclName":"parks,area, ...","adminCodes1":{"ISO3166_2":"CA"},"countryName":"United States","fcodeName":"park","adminName1":"California","lat":"37.71826","fcode":"PRK"},{"adminCode1":"CA","lng":"-121.78245","geonameId":5367396,"toponymName":"Livermore Downs Park","countryId":"6252001","fcl":"L","population":0,"countryCode":"US","name":"Livermore Downs Park","fclName":"parks,area, ...","adminCodes1":{"ISO3166_2":"CA"},"countryName":"United States","fcodeName":"park","adminName1":"California","lat":"37.69576","fcode":"PRK"},{"adminCode1":"CA","lng":"-121.7617","geonameId":5367400,"toponymName":"Livermore High School","countryId":"6252001","fcl":"S","population":0,"countryCode":"US","name":"Livermore High School","fclName":"spot, building, farm","adminCodes1":{"ISO3166_2":"CA"},"countryName":"United States","fcodeName":"school","adminName1":"California","lat":"37.68095","fcode":"SCH"},{"adminCode1":"CO","lng":"-105.29248","geonameId":5579155,"toponymName":"Livermore Mountain","countryId":"6252001","fcl":"T","population":0,"countryCode":"US","name":"Livermore Mountain","fclName":"mountain,hill,rock,... ","adminCodes1":{"ISO3166_2":"CO"},"countryName":"United States","fcodeName":"mountain","adminName1":"Colorado","lat":"40.75693","fcode":"MT"},{"adminCode1":"ME","lng":"-70.27058","geonameId":4966349,"toponymName":"Hamlin Hill","countryId":"6252001","fcl":"T","population":0,"countryCode":"US","name":"Hamlin Hill","fclName":"mountain,hill,rock,... ","adminCodes1":{"ISO3166_2":"ME"},"countryName":"United States","fcodeName":"mountain","adminName1":"Maine","lat":"44.41247","fcode":"MT"},{"adminCode1":"ME","lng":"-70.1412","geonameId":4964552,"toponymName":"Ford Hill","countryId":"6252001","fcl":"T","population":0,"countryCode":"US","name":"Ford Hill","fclName":"mountain,hill,rock,... ","adminCodes1":{"ISO3166_2":"ME"},"countryName":"United States","fcodeName":"mountain","adminName1":"Maine","lat":"44.44098","fcode":"MT"},{"adminCode1":"ME","lng":"-70.1907","geonameId":4970217,"toponymName":"Livermore Falls Dam","countryId":"6252001","fcl":"S","population":0,"countryCode":"US","name":"Livermore Falls Dam","fclName":"spot, building, farm","adminCodes1":{"ISO3166_2":"ME"},"countryName":"United States","fcodeName":"dam","adminName1":"Maine","lat":"44.47129","fcode":"DAM"},{"adminCode1":"NH","lng":"-71.52063","geonameId":5085730,"toponymName":"Mount Osceola East Peak","countryId":"6252001","fcl":"T","population":0,"countryCode":"US","name":"Mount Osceola East Peak","fclName":"mountain,hill,rock,... ","adminCodes1":{"ISO3166_2":"NH"},"countryName":"United States","fcodeName":"mountain","adminName1":"New Hampshire","lat":"44.00618","fcode":"MT"},{"adminCode1":"NH","lng":"-71.53591","geonameId":5090694,"toponymName":"Mount Osceola","countryId":"6252001","fcl":"T","population":0,"countryCode":"US","name":"Mount Osceola","fclName":"mountain,hill,rock,... ","adminCodes1":{"ISO3166_2":"NH"},"countryName":"United States","fcodeName":"mountain","adminName1":"New Hampshire","lat":"44.00146","fcode":"MT"},{"adminCode1":"CA","lng":"-118.63815","geonameId":5326896,"toponymName":"Bear Mountain","countryId":"6252001","fcl":"T","population":0,"countryCode":"US","name":"Bear Mountain","fclName":"mountain,hill,rock,... ","adminCodes1":{"ISO3166_2":"CA"},"countryName":"United States","fcodeName":"mountain","adminName1":"California","lat":"35.20496","fcode":"MT"},{"adminCode1":"CA","lng":"-121.76301","geonameId":5330183,"toponymName":"Bothwell Recreation Center","countryId":"6252001","fcl":"L","population":0,"countryCode":"US","name":"Bothwell Recreation Center","fclName":"parks,area, ...","adminCodes1":{"ISO3166_2":"CA"},"countryName":"United States","fcodeName":"park","adminName1":"California","lat":"37.67715","fcode":"PRK"},{"adminCode1":"CA","lng":"-121.65828","geonameId":5323540,"toponymName":"Altamont Pass","countryId":"6252001","fcl":"T","population":0,"countryCode":"US","name":"Altamont Pass","fclName":"mountain,hill,rock,... ","adminCodes1":{"ISO3166_2":"CA"},"countryName":"United States","fcodeName":"gap","adminName1":"California","lat":"37.74576","fcode":"GAP"},{"adminCode1":"ME","lng":"-70.21784","geonameId":4973606,"toponymName":"North Livermore","countryId":"6252001","fcl":"P","population":0,"countryCode":"US","name":"North Livermore","fclName":"city, village,...","adminCodes1":{"ISO3166_2":"ME"},"countryName":"United States","fcodeName":"populated place","adminName1":"Maine","lat":"44.44229","fcode":"PPL"},{"adminCode1":"ME","lng":"-70.20506","geonameId":4979206,"toponymName":"South Livermore","countryId":"6252001","fcl":"P","population":0,"countryCode":"US","name":"South Livermore","fclName":"city, village,...","adminCodes1":{"ISO3166_2":"ME"},"countryName":"United States","fcodeName":"populated place","adminName1":"Maine","lat":"44.3684","fcode":"PPL"},{"adminCode1":"NH","lng":"-71.47869","geonameId":5088226,"toponymName":"Mount Kancamagus","countryId":"6252001","fcl":"T","population":0,"countryCode":"US","name":"Mount Kancamagus","fclName":"mountain,hill,rock,... ","adminCodes1":{"ISO3166_2":"NH"},"countryName":"United States","fcodeName":"mountain","adminName1":"New Hampshire","lat":"44.01174","fcode":"MT"},{"adminCode1":"NH","lng":"-71.41841","geonameId":5089052,"toponymName":"Mount Lowell","countryId":"6252001","fcl":"T","population":0,"countryCode":"US","name":"Mount Lowell","fclName":"mountain,hill,rock,... ","adminCodes1":{"ISO3166_2":"NH"},"countryName":"United States","fcodeName":"mountain","adminName1":"New Hampshire","lat":"44.10396","fcode":"MT"},{"adminCode1":"ME","lng":"-70.21561","geonameId":4970454,"toponymName":"Long Pond Seaplane Base","countryId":"6252001","fcl":"S","population":0,"countryCode":"US","name":"Long Pond Seaplane Base","fclName":"spot, building, farm","adminCodes1":{"ISO3166_2":"ME"},"countryName":"United States","fcodeName":"airport","adminName1":"Maine","lat":"44.4334","fcode":"AIRP"},{"adminCode1":"ME","lng":"-70.14283","geonameId":4980047,"toponymName":"Stricklands","countryId":"6252001","fcl":"P","population":0,"countryCode":"US","name":"Stricklands","fclName":"city, village,...","adminCodes1":{"ISO3166_2":"ME"},"countryName":"United States","fcodeName":"populated place","adminName1":"Maine","lat":"44.3734","fcode":"PPL"},{"adminCode1":"ME","lng":"-70.14579","geonameId":4959053,"toponymName":"Bowman Field","countryId":"6252001","fcl":"S","population":0,"countryCode":"US","name":"Bowman Field","fclName":"spot, building, farm","adminCodes1":{"ISO3166_2":"ME"},"countryName":"United States","fcodeName":"airfield","adminName1":"Maine","lat":"44.41161","fcode":"AIRF"},{"adminCode1":"ME","lng":"-70.25395","geonameId":4959232,"toponymName":"Brettuns Pond Seaplane Base","countryId":"6252001","fcl":"S","population":0,"countryCode":"US","name":"Brettuns Pond Seaplane Base","fclName":"spot, building, farm","adminCodes1":{"ISO3166_2":"ME"},"countryName":"United States","fcodeName":"airport","adminName1":"Maine","lat":"44.38784","fcode":"AIRP"},{"adminCode1":"CA","lng":"-121.70551","geonameId":5365623,"toponymName":"Lawrence Livermore National Laboratory","countryId":"6252001","fcl":"S","population":0,"countryCode":"US","name":"Lawrence Livermore National Laboratory","fclName":"spot, building, farm","adminCodes1":{"ISO3166_2":"CA"},"countryName":"United States","fcodeName":"school","adminName1":"California","lat":"37.68576","fcode":"SCH"},{"adminCode1":"CA","lng":"-121.77064","geonameId":5343563,"toponymName":"Livermore Valley Charter Preparatory School","countryId":"6252001","fcl":"S","population":0,"countryCode":"US","name":"Livermore Valley Charter Preparatory School","fclName":"spot, building, farm","adminCodes1":{"ISO3166_2":"CA"},"countryName":"United States","fcodeName":"school","adminName1":"California","lat":"37.69059","fcode":"SCH"},{"adminCode1":"NH","lng":"-71.46285","geonameId":5088872,"toponymName":"Livermore Pass","countryId":"6252001","fcl":"T","population":0,"countryCode":"US","name":"Livermore Pass","fclName":"mountain,hill,rock,... ","adminCodes1":{"ISO3166_2":"NH"},"countryName":"United States","fcodeName":"gap","adminName1":"New Hampshire","lat":"43.99646","fcode":"GAP"},{"adminCode1":"ME","lng":"-70.18484","geonameId":7305409,"toponymName":"Livermore Falls Fire Department","countryId":"6252001","fcl":"S","population":0,"countryCode":"US","name":"Livermore Falls Fire Department","fclName":"spot, building, farm","adminCodes1":{"ISO3166_2":"ME"},"countryName":"United States","fcodeName":"building(s)","adminName1":"Maine","lat":"44.47196","fcode":"BLDG"},{"adminCode1":"ME","lng":"-70.2024","geonameId":4970221,"toponymName":"Livermore Elementary School","countryId":"6252001","fcl":"S","population":0,"countryCode":"US","name":"Livermore Elementary School","fclName":"spot, building, farm","adminCodes1":{"ISO3166_2":"ME"},"countryName":"United States","fcodeName":"school","adminName1":"Maine","lat":"44.43797","fcode":"SCH"},{"adminCode1":"ME","lng":"-70.1925","geonameId":8107454,"toponymName":"Northstar Emergency Medical Services Livermore","countryId":"6252001","fcl":"S","population":0,"countryCode":"US","name":"Northstar Emergency Medical Services Livermore","fclName":"spot, building, farm","adminCodes1":{"ISO3166_2":"ME"},"countryName":"United States","fcodeName":"building(s)","adminName1":"Maine","lat":"44.46464","fcode":"BLDG"},{"adminCode1":"ME","lng":"-70.13312","geonameId":4972498,"toponymName":"Moose Hill","countryId":"6252001","fcl":"T","population":0,"countryCode":"US","name":"Moose Hill","fclName":"mountain,hill,rock,... ","adminCodes1":{"ISO3166_2":"ME"},"countryName":"United States","fcodeName":"mountain","adminName1":"Maine","lat":"44.48366","fcode":"MT"},{"adminCode1":"ME","lng":"-70.19524","geonameId":4973978,"toponymName":"Oak Hill","countryId":"6252001","fcl":"T","population":0,"countryCode":"US","name":"Oak Hill","fclName":"mountain,hill,rock,... ","adminCodes1":{"ISO3166_2":"ME"},"countryName":"United States","fcodeName":"mountain","adminName1":"Maine","lat":"44.4148","fcode":"MT"},{"adminCode1":"ME","lng":"-70.18738","geonameId":4976543,"toponymName":"Richs Mountain","countryId":"6252001","fcl":"T","population":0,"countryCode":"US","name":"Richs Mountain","fclName":"mountain,hill,rock,... ","adminCodes1":{"ISO3166_2":"ME"},"countryName":"United States","fcodeName":"mountain","adminName1":"Maine","lat":"44.42107","fcode":"MT"},{"adminCode1":"ME","lng":"-70.25885","geonameId":4978328,"toponymName":"Shackley Hill","countryId":"6252001","fcl":"T","population":0,"countryCode":"US","name":"Shackley Hill","fclName":"mountain,hill,rock,... ","adminCodes1":{"ISO3166_2":"ME"},"countryName":"United States","fcodeName":"mountain","adminName1":"Maine","lat":"44.41732","fcode":"MT"},{"adminCode1":"ME","lng":"-70.17895","geonameId":4978573,"toponymName":"Shy Corner","countryId":"6252001","fcl":"P","population":0,"countryCode":"US","name":"Shy Corner","fclName":"city, village,...","adminCodes1":{"ISO3166_2":"ME"},"countryName":"United States","fcodeName":"populated place","adminName1":"Maine","lat":"44.46284","fcode":"PPL"},{"adminCode1":"ME","lng":"-70.24483","geonameId":4966161,"toponymName":"Hackett Hill","countryId":"6252001","fcl":"T","population":0,"countryCode":"US","name":"Hackett Hill","fclName":"mountain,hill,rock,... ","adminCodes1":{"ISO3166_2":"ME"},"countryName":"United States","fcodeName":"mountain","adminName1":"Maine","lat":"44.42489","fcode":"MT"},{"adminCode1":"ME","lng":"-70.14422","geonameId":4966200,"toponymName":"Haines Corner","countryId":"6252001","fcl":"P","population":0,"countryCode":"US","name":"Haines Corner","fclName":"city, village,...","adminCodes1":{"ISO3166_2":"ME"},"countryName":"United States","fcodeName":"populated place","adminName1":"Maine","lat":"44.42229","fcode":"PPL"},{"adminCode1":"ME","lng":"-70.13589","geonameId":4968557,"toponymName":"Jug Hill","countryId":"6252001","fcl":"T","population":0,"countryCode":"US","name":"Jug Hill","fclName":"mountain,hill,rock,... ","adminCodes1":{"ISO3166_2":"ME"},"countryName":"United States","fcodeName":"mountain","adminName1":"Maine","lat":"44.42701","fcode":"MT"},{"adminCode1":"ME","lng":"-70.20994","geonameId":4960710,"toponymName":"Chase Hill","countryId":"6252001","fcl":"T","population":0,"countryCode":"US","name":"Chase Hill","fclName":"mountain,hill,rock,... ","adminCodes1":{"ISO3166_2":"ME"},"countryName":"United States","fcodeName":"mountain","adminName1":"Maine","lat":"44.39101","fcode":"MT"},{"adminCode1":"ME","lng":"-70.23645","geonameId":4959771,"toponymName":"Butter Hill","countryId":"6252001","fcl":"T","population":0,"countryCode":"US","name":"Butter Hill","fclName":"mountain,hill,rock,... ","adminCodes1":{"ISO3166_2":"ME"},"countryName":"United States","fcodeName":"mountain","adminName1":"Maine","lat":"44.36257","fcode":"MT"},{"adminCode1":"ME","lng":"-70.20563","geonameId":8501533,"toponymName":"Boothby Cemetery","countryId":"6252001","fcl":"S","population":0,"countryCode":"US","name":"Boothby Cemetery","fclName":"spot, building, farm","adminCodes1":{"ISO3166_2":"ME"},"countryName":"United States","fcodeName":"cemetery","adminName1":"Maine","lat":"44.37642","fcode":"CMTY"},{"adminCode1":"ME","lng":"-70.21834","geonameId":8501581,"toponymName":"Goding Cemetery","countryId":"6252001","fcl":"S","population":0,"countryCode":"US","name":"Goding Cemetery","fclName":"spot, building, farm","adminCodes1":{"ISO3166_2":"ME"},"countryName":"United States","fcodeName":"cemetery","adminName1":"Maine","lat":"44.46277","fcode":"CMTY"},{"adminCode1":"NH","lng":"-71.58146","geonameId":5088875,"toponymName":"Mount Livermore","countryId":"6252001","fcl":"T","population":0,"countryCode":"US","name":"Mount Livermore","fclName":"mountain,hill,rock,... ","adminCodes1":{"ISO3166_2":"NH"},"countryName":"United States","fcodeName":"mountain","adminName1":"New Hampshire","lat":"43.75618","fcode":"MT"},{"adminCode1":"IA","lng":"-94.18079","geonameId":4865186,"toponymName":"Livermore Elementary School","countryId":"6252001","fcl":"S","population":0,"countryCode":"US","name":"Livermore Elementary School","fclName":"spot, building, farm","adminCodes1":{"ISO3166_2":"IA"},"countryName":"United States","fcodeName":"school","adminName1":"Iowa","lat":"42.86886","fcode":"SCH"},{"adminCode1":"CA","lng":"-121.81454","geonameId":7237620,"toponymName":"Livermore Learning Center","countryId":"6252001","fcl":"S","population":0,"countryCode":"US","name":"Livermore Learning Center","fclName":"spot, building, farm","adminCodes1":{"ISO3166_2":"CA"},"countryName":"United States","fcodeName":"school","adminName1":"California","lat":"37.70219","fcode":"SCH"},{"adminCode1":"CA","lng":"-121.7395","geonameId":5348208,"toponymName":"Livermore - Pleasanton Fire Department Station 6","countryId":"6252001","fcl":"S","population":0,"countryCode":"US","name":"Livermore - Pleasanton Fire Department Station 6","fclName":"spot, building, farm","adminCodes1":{"ISO3166_2":"CA"},"countryName":"United States","fcodeName":"building(s)","adminName1":"California","lat":"37.68024","fcode":"BLDG"},{"adminCode1":"CA","lng":"-121.78371","geonameId":5348235,"toponymName":"Livermore - Pleasanton Fire Department Station 7","countryId":"6252001","fcl":"S","population":0,"countryCode":"US","name":"Livermore - Pleasanton Fire Department Station 7","fclName":"spot, building, farm","adminCodes1":{"ISO3166_2":"CA"},"countryName":"United States","fcodeName":"building(s)","adminName1":"California","lat":"37.68869","fcode":"BLDG"},{"adminCode1":"CA","lng":"-121.72688","geonameId":5348258,"toponymName":"Livermore - Pleasanton Fire Department Station 8","countryId":"6252001","fcl":"S","population":0,"countryCode":"US","name":"Livermore - Pleasanton Fire Department Station 8","fclName":"spot, building, farm","adminCodes1":{"ISO3166_2":"CA"},"countryName":"United States","fcodeName":"building(s)","adminName1":"California","lat":"37.71732","fcode":"BLDG"},{"adminCode1":"CA","lng":"-121.89435","geonameId":5348269,"toponymName":"Livermore - Pleasanton Fire Department Station 4","countryId":"6252001","fcl":"S","population":0,"countryCode":"US","name":"Livermore - Pleasanton Fire Department Station 4","fclName":"spot, building, farm","adminCodes1":{"ISO3166_2":"CA"},"countryName":"United States","fcodeName":"building(s)","adminName1":"California","lat":"37.65806","fcode":"BLDG"},{"adminCode1":"CA","lng":"-121.70639","geonameId":5367404,"toponymName":"Livermore Naval Air Station (historical)","countryId":"6252001","fcl":"S","population":0,"countryCode":"US","name":"Livermore Naval Air Station (historical)","fclName":"spot, building, farm","adminCodes1":{"ISO3166_2":"CA"},"countryName":"United States","fcodeName":"military installation","adminName1":"California","lat":"37.68528","fcode":"INSM"},{"adminCode1":"CA","lng":"-121.74071","geonameId":5323348,"toponymName":"Livermore Adult Education Center","countryId":"6252001","fcl":"S","population":0,"countryCode":"US","name":"Livermore Adult Education Center","fclName":"spot, building, farm","adminCodes1":{"ISO3166_2":"CA"},"countryName":"United States","fcodeName":"school","adminName1":"California","lat":"37.67642","fcode":"SCH"},{"adminCode1":"NH","lng":"-71.48366","geonameId":6697273,"toponymName":"Mount South Hancock","countryId":"6252001","fcl":"T","population":0,"countryCode":"US","name":"Mount South Hancock","fclName":"mountain,hill,rock,... ","adminCodes1":{"ISO3166_2":"NH"},"countryName":"United States","fcodeName":"mountain","adminName1":"New Hampshire","lat":"44.07717","fcode":"MT"},{"adminCode1":"NH","lng":"-71.56546","geonameId":6697275,"toponymName":"Scar Ridge East Peak","countryId":"6252001","fcl":"T","population":0,"countryCode":"US","name":"Scar Ridge East Peak","fclName":"mountain,hill,rock,... ","adminCodes1":{"ISO3166_2":"NH"},"countryName":"United States","fcodeName":"mountain","adminName1":"New Hampshire","lat":"44.01862","fcode":"MT"},{"adminCode1":"NH","lng":"-71.39535","geonameId":5085578,"toponymName":"Duck Pond Mountain","countryId":"6252001","fcl":"T","population":0,"countryCode":"US","name":"Duck Pond Mountain","fclName":"mountain,hill,rock,... ","adminCodes1":{"ISO3166_2":"NH"},"countryName":"United States","fcodeName":"mountain","adminName1":"New Hampshire","lat":"44.10701","fcode":"MT"},{"adminCode1":"NH","lng":"-71.49119","geonameId":5087791,"toponymName":"Mount Huntington","countryId":"6252001","fcl":"T","population":0,"countryCode":"US","name":"Mount Huntington","fclName":"mountain,hill,rock,... ","adminCodes1":{"ISO3166_2":"NH"},"countryName":"United States","fcodeName":"mountain","adminName1":"New Hampshire","lat":"44.05035","fcode":"MT"},{"adminCode1":"NH","lng":"-71.39285","geonameId":5083305,"toponymName":"Mount Bemis","countryId":"6252001","fcl":"T","population":0,"countryCode":"US","name":"Mount Bemis","fclName":"mountain,hill,rock,... ","adminCodes1":{"ISO3166_2":"NH"},"countryName":"United States","fcodeName":"mountain","adminName1":"New Hampshire","lat":"44.12701","fcode":"MT"},{"adminCode1":"NH","lng":"-71.62147","geonameId":5090404,"toponymName":"Loon Mountain North Peak","countryId":"6252001","fcl":"T","population":0,"countryCode":"US","name":"Loon Mountain North Peak","fclName":"mountain,hill,rock,... ","adminCodes1":{"ISO3166_2":"NH"},"countryName":"United States","fcodeName":"mountain","adminName1":"New Hampshire","lat":"44.0359","fcode":"MT"},{"adminCode1":"NH","lng":"-71.39841","geonameId":5093310,"toponymName":"Sugar Hill","countryId":"6252001","fcl":"T","population":0,"countryCode":"US","name":"Sugar Hill","fclName":"mountain,hill,rock,... ","adminCodes1":{"ISO3166_2":"NH"},"countryName":"United States","fcodeName":"mountain","adminName1":"New Hampshire","lat":"44.00729","fcode":"MT"},{"adminCode1":"NH","lng":"-71.5773","geonameId":5093812,"toponymName":"Tripoli Mill","countryId":"6252001","fcl":"P","population":0,"countryCode":"US","name":"Tripoli Mill","fclName":"city, village,...","adminCodes1":{"ISO3166_2":"NH"},"countryName":"United States","fcodeName":"populated place","adminName1":"New Hampshire","lat":"43.99812","fcode":"PPL"},{"adminCode1":"NH","lng":"-71.3923","geonameId":5088874,"toponymName":"Livermore Trail","countryId":"6252001","fcl":"R","population":0,"countryCode":"US","name":"Livermore Trail","fclName":"road, railroad ","adminCodes1":{"ISO3166_2":"NH"},"countryName":"United States","fcodeName":"trail","adminName1":"New Hampshire","lat":"44.06396","fcode":"TRL"},{"adminCode1":"ME","lng":"-70.16533","geonameId":4967165,"toponymName":"Hillman Cemetery","countryId":"6252001","fcl":"S","population":0,"countryCode":"US","name":"Hillman Cemetery","fclName":"spot, building, farm","adminCodes1":{"ISO3166_2":"ME"},"countryName":"United States","fcodeName":"cemetery","adminName1":"Maine","lat":"44.41673","fcode":"CMTY"},{"adminCode1":"ME","lng":"-70.24061","geonameId":4956539,"toponymName":"Alden Cemetery","countryId":"6252001","fcl":"S","population":0,"countryCode":"US","name":"Alden Cemetery","fclName":"spot, building, farm","adminCodes1":{"ISO3166_2":"ME"},"countryName":"United States","fcodeName":"cemetery","adminName1":"Maine","lat":"44.41618","fcode":"CMTY"},{"adminCode1":"ME","lng":"-70.21607","geonameId":8501536,"toponymName":"Cheney Private Yard","countryId":"6252001","fcl":"S","population":0,"countryCode":"US","name":"Cheney Private Yard","fclName":"spot, building, farm","adminCodes1":{"ISO3166_2":"ME"},"countryName":"United States","fcodeName":"cemetery","adminName1":"Maine","lat":"44.43984","fcode":"CMTY"},{"adminCode1":"ME","lng":"-70.21831","geonameId":8501814,"toponymName":"Lamb Cemetery","countryId":"6252001","fcl":"S","population":0,"countryCode":"US","name":"Lamb Cemetery","fclName":"spot, building, farm","adminCodes1":{"ISO3166_2":"ME"},"countryName":"United States","fcodeName":"cemetery","adminName1":"Maine","lat":"44.46269","fcode":"CMTY"},{"adminCode1":"ME","lng":"-70.20487","geonameId":8501940,"toponymName":"Perley Cemetery","countryId":"6252001","fcl":"S","population":0,"countryCode":"US","name":"Perley Cemetery","fclName":"spot, building, farm","adminCodes1":{"ISO3166_2":"ME"},"countryName":"United States","fcodeName":"cemetery","adminName1":"Maine","lat":"44.35575","fcode":"CMTY"},{"adminCode1":"ME","lng":"-70.1444","geonameId":8501970,"toponymName":"Stricklands Cemetery","countryId":"6252001","fcl":"S","population":0,"countryCode":"US","name":"Stricklands Cemetery","fclName":"spot, building, farm","adminCodes1":{"ISO3166_2":"ME"},"countryName":"United States","fcodeName":"cemetery","adminName1":"Maine","lat":"44.3743","fcode":"CMTY"},{"adminCode1":"ME","lng":"-70.19448","geonameId":8501981,"toponymName":"True Cemetery","countryId":"6252001","fcl":"S","population":0,"countryCode":"US","name":"True Cemetery","fclName":"spot, building, farm","adminCodes1":{"ISO3166_2":"ME"},"countryName":"United States","fcodeName":"cemetery","adminName1":"Maine","lat":"44.34858","fcode":"CMTY"},{"adminCode1":"CO","lng":"-105.21983","geonameId":8256601,"toponymName":"Livermore Fire Protection District Station 1 Livermore","countryId":"6252001","fcl":"S","population":0,"countryCode":"US","name":"Livermore Fire Protection District Station 1 Livermore","fclName":"spot, building, farm","adminCodes1":{"ISO3166_2":"CO"},"countryName":"United States","fcodeName":"building(s)","adminName1":"Colorado","lat":"40.79334","fcode":"BLDG"},{"adminCode1":"ME","lng":"-70.21825","geonameId":7305361,"toponymName":"Livermore Fire Department","countryId":"6252001","fcl":"S","population":0,"countryCode":"US","name":"Livermore Fire Department","fclName":"spot, building, farm","adminCodes1":{"ISO3166_2":"ME"},"countryName":"United States","fcodeName":"building(s)","adminName1":"Maine","lat":"44.44118","fcode":"BLDG"},{"adminCode1":"ME","lng":"-70.18978","geonameId":7305509,"toponymName":"Livermore Falls Fire Department","countryId":"6252001","fcl":"S","population":0,"countryCode":"US","name":"Livermore Falls Fire Department","fclName":"spot, building, farm","adminCodes1":{"ISO3166_2":"ME"},"countryName":"United States","fcodeName":"building(s)","adminName1":"Maine","lat":"44.47229","fcode":"BLDG"},{"adminCode1":"ME","lng":"-70.18034","geonameId":4970216,"toponymName":"Livermore Falls Cemetery","countryId":"6252001","fcl":"S","population":0,"countryCode":"US","name":"Livermore Falls Cemetery","fclName":"spot, building, farm","adminCodes1":{"ISO3166_2":"ME"},"countryName":"United States","fcodeName":"cemetery","adminName1":"Maine","lat":"44.4709","fcode":"CMTY"},{"adminCode1":"ME","lng":"-70.18089","geonameId":4970219,"toponymName":"Livermore Falls Middle School (historical)","countryId":"6252001","fcl":"S","population":0,"countryCode":"US","name":"Livermore Falls Middle School (historical)","fclName":"spot, building, farm","adminCodes1":{"ISO3166_2":"ME"},"countryName":"United States","fcodeName":"school","adminName1":"Maine","lat":"44.4684","fcode":"SCH"},{"adminCode1":"ME","lng":"-70.21972","geonameId":4973607,"toponymName":"North Livermore Cemetery","countryId":"6252001","fcl":"S","population":0,"countryCode":"US","name":"North Livermore Cemetery","fclName":"spot, building, farm","adminCodes1":{"ISO3166_2":"ME"},"countryName":"United States","fcodeName":"cemetery","adminName1":"Maine","lat":"44.44374","fcode":"CMTY"},{"adminCode1":"ME","lng":"-70.12561","geonameId":4963303,"toponymName":"East Livermore Church","countryId":"6252001","fcl":"S","population":0,"countryCode":"US","name":"East Livermore Church","fclName":"spot, building, farm","adminCodes1":{"ISO3166_2":"ME"},"countryName":"United States","fcodeName":"church","adminName1":"Maine","lat":"44.42396","fcode":"CH"},{"adminCode1":"ME","lng":"-70.25049","geonameId":9680010,"toponymName":"Livermore Public Library","countryId":"6252001","fcl":"S","population":0,"countryCode":"US","name":"Livermore Public Library","fclName":"spot, building, farm","adminCodes1":{"ISO3166_2":"ME"},"countryName":"United States","fcodeName":"library","adminName1":"Maine","lat":"44.38425","fcode":"LIBR"}]}
