{"totalResultsCount":508,"geonames":[{"adminCode1":"IA","lng":"-91.42599","geonameId":4865338,"toponymName":"Lone Tree","countryId":"6252001","fcl":"P","population":1415,"countryCode":"US","name":"Lone Tree","fclName":"city, village,...","adminCodes1":{"ISO3166_2":"IA"},"countryName":"United States","fcodeName":"populated place","adminName1":"Iowa","lat":"41.48808","fcode":"PPL"},{"adminCode1":"CO","lng":"-104.8863","geonameId":5429208,"toponymName":"Lone Tree","countryId":"6252001","fcl":"P","population":13175,"countryCode":"US","name":"Lone Tree","fclName":"city, village,...","adminCodes1":{"ISO3166_2":"CO"},"countryName":"United States","fcodeName":"populated place","adminName1":"Colorado","lat":"39.55171","fcode":"PPL"},{"adminCode1":"AK","lng":"-132.88722","geonameId":5555246,"toponymName":"Lone Tree Island","countryId":"6252001","fcl":"T","population":0,"countryCode":"US","name":"Lone Tree Island","fclName":"mountain,hill,rock,... ","adminCodes1":{"ISO3166_2":"AK"},"countryName":"United States","fcodeName":"island","adminName1":"Alaska","lat":"55.16583","fcode":"ISL"},{"adminCode1":"KS","lng":"-97.53758","geonameId":4274759,"toponymName":"Township of Lone Tree","countryId":"6252001","fcl":"A","population":0,"countryCode":"US","name":"Lone Tree Township","fclName":"country, state, region,...","adminCodes1":{"ISO3166_2":"KS"},"countryName":"United States","fcodeName":"third-order administrative division","adminName1":"Kansas","lat":"38.30437","fcode":"ADM3"},{"adminCode1":"KS","lng":"-96.29538","geonameId":4274760,"toponymName":"Township of Lone Tree","countryId":"6252001","fcl":"A","population":0,"countryCode":"US","name":"Lone Tree Township","fclName":"country, state, region,...","adminCodes1":{"ISO3166_2":"KS"},"countryName":"United States","fcodeName":"third-order administrative division","adminName1":"Kansas","lat":"39.52242","fcode":"ADM3"},{"adminCode1":"IA","lng":"-95.32865","geonameId":4865359,"toponymName":"Township of Lone Tree","countryId":"6252001","fcl":"A","population":0,"countryCode":"US","name":"Lone Tree Township","fclName":"country, state, region,...","adminCodes1":{"ISO3166_2":"IA"},"countryName":"United States","fcodeName":"third-order administrative division","adminName1":"Iowa","lat":"43.12664","fcode":"ADM3"},{"adminCode1":"NE","lng":"-98.10881","geonameId":5072272,"toponymName":"Township of Lone Tree","countryId":"6252001","fcl":"A","population":0,"countryCode":"US","name":"Lone Tree Township","fclName":"country, state, region,...","adminCodes1":{"ISO3166_2":"NE"},"countryName":"United States","fcodeName":"third-order administrative division","adminName1":"Nebraska","lat":"40.48089","fcode":"ADM3"},{"adminCode1":"NE","lng":"-98.02769","geonameId":5072273,"toponymName":"Township of Lone Tree","countryId":"6252001","fcl":"A","population":0,"countryCode":"US","name":"Lone Tree Township","fclName":"country, state, region,...","adminCodes1":{"ISO3166_2":"NE"},"countryName":"United States","fcodeName":"third-order administrative division","adminName1":"Nebraska","lat":"41.11842","fcode":"ADM3"},{"adminCode1":"MN","lng":"-95.30915","geonameId":5035467,"toponymName":"Township of Lone Tree","countryId":"6252001","fcl":"A","population":0,"countryCode":"US","name":"Lone Tree Township","fclName":"country, state, region,...","adminCodes1":{"ISO3166_2":"MN"},"countryName":"United States","fcodeName":"third-order administrative division","adminName1":"Minnesota","lat":"45.02188","fcode":"ADM3"},{"adminCode1":"IN","lng":"-87.1289","geonameId":4260674,"toponymName":"Lone Tree","countryId":"6252001","fcl":"P","population":0,"countryCode":"US","name":"Lone Tree","fclName":"city, village,...","adminCodes1":{"ISO3166_2":"IN"},"countryName":"United States","fcodeName":"populated place","adminName1":"Indiana","lat":"39.12588","fcode":"PPL"},{"adminCode1":"IA","lng":"-95.3275","geonameId":4855862,"toponymName":"Everly","countryId":"6252001","fcl":"P","population":581,"countryCode":"US","name":"Everly","fclName":"city, village,...","adminCodes1":{"ISO3166_2":"IA"},"countryName":"United States","fcodeName":"populated place","adminName1":"Iowa","lat":"43.15997","fcode":"PPL"},{"adminCode1":"MT","lng":"-107.39704","geonameId":5663347,"toponymName":"Lone Tree Coulee","countryId":"6252001","fcl":"T","population":0,"countryCode":"US","name":"Lone Tree Coulee","fclName":"mountain,hill,rock,... ","adminCodes1":{"ISO3166_2":"MT"},"countryName":"United States","fcodeName":"valley","adminName1":"Montana","lat":"47.87834","fcode":"VAL"},{"adminCode1":"IL","lng":"-89.48565","geonameId":4900402,"toponymName":"Lone Tree Corners","countryId":"6252001","fcl":"P","population":0,"countryCode":"US","name":"Lone Tree Corners","fclName":"city, village,...","adminCodes1":{"ISO3166_2":"IL"},"countryName":"United States","fcodeName":"populated place","adminName1":"Illinois","lat":"41.18476","fcode":"PPL"},{"adminCode1":"MO","lng":"-94.36106","geonameId":4396175,"toponymName":"Lone Tree","countryId":"6252001","fcl":"P","population":0,"countryCode":"US","name":"Lone Tree","fclName":"city, village,...","adminCodes1":{"ISO3166_2":"MO"},"countryName":"United States","fcodeName":"populated place","adminName1":"Missouri","lat":"38.57223","fcode":"PPL"},{"adminCode1":"CO","lng":"-105.63305","geonameId":8081544,"toponymName":"Lone Tree Ranch Airport","countryId":"6252001","fcl":"S","population":0,"countryCode":"US","name":"Lone Tree Ranch Airport","fclName":"spot, building, farm","adminCodes1":{"ISO3166_2":"CO"},"countryName":"United States","fcodeName":"airport","adminName1":"Colorado","lat":"40.85165","fcode":"AIRP"},{"adminCode1":"MT","lng":"-107.63732","geonameId":5663381,"toponymName":"Lone Tree Lake (historical)","countryId":"6252001","fcl":"H","population":0,"countryCode":"US","name":"Lone Tree Lake (historical)","fclName":"stream, lake, ...","adminCodes1":{"ISO3166_2":"MT"},"countryName":"United States","fcodeName":"lake","adminName1":"Montana","lat":"48.49055","fcode":"LK"},{"adminCode1":"NV","lng":"-117.20428","geonameId":5705871,"toponymName":"Lone Tree Hill","countryId":"6252001","fcl":"T","population":0,"countryCode":"US","name":"Lone Tree Hill","fclName":"mountain,hill,rock,... ","adminCodes1":{"ISO3166_2":"NV"},"countryName":"United States","fcodeName":"mountain","adminName1":"Nevada","lat":"40.83352","fcode":"MT"},{"adminCode1":"VT","lng":"-72.18566","geonameId":5238068,"toponymName":"Lone Tree Hill","countryId":"6252001","fcl":"T","population":0,"countryCode":"US","name":"Lone Tree Hill","fclName":"mountain,hill,rock,... ","adminCodes1":{"ISO3166_2":"VT"},"countryName":"United States","fcodeName":"mountain","adminName1":"Vermont","lat":"44.70672","fcode":"MT"},{"adminCode1":"KS","lng":"-96.32084","geonameId":4281664,"toponymName":"Wheaton","countryId":"6252001","fcl":"P","population":101,"countryCode":"US","name":"Wheaton","fclName":"city, village,...","adminCodes1":{"ISO3166_2":"KS"},"countryName":"United States","fcodeName":"populated place","adminName1":"Kansas","lat":"39.50222","fcode":"PPL"},{"adminCode1":"OR","lng":"-123.0501","geonameId":5760901,"toponymName":"Willamette Mission State Park","countryId":"6252001","fcl":"L","population":0,"countryCode":"US","name":"Willamette Mission State Park","fclName":"parks,area, ...","adminCodes1":{"ISO3166_2":"OR"},"countryName":"United States","fcodeName":"park","adminName1":"Oregon","lat":"45.0754","fcode":"PRK"},{"adminCode1":"NE","lng":"-100.83987","geonameId":5697136,"toponymName":"Lone Tree Lake","countryId":"6252001","fcl":"H","population":0,"countryCode":"US","name":"Lone Tree Lake","fclName":"stream, lake, ...","adminCodes1":{"ISO3166_2":"NE"},"countryName":"United States","fcodeName":"lake","adminName1":"Nebraska","lat":"42.50084","fcode":"LK"},{"adminCode1":"MT","lng":"-104.22687","geonameId":5663404,"toponymName":"Lone Tree Lake","countryId":"6252001","fcl":"H","population":0,"countryCode":"US","name":"Lone Tree Lake","fclName":"stream, lake, ...","adminCodes1":{"ISO3166_2":"MT"},"countryName":"United States","fcodeName":"lake","adminName1":"Montana","lat":"48.94124","fcode":"LK"},{"adminCode1":"WY","lng":"-104.90858","geonameId":5830937,"toponymName":"Lone Tree Creek Oil Field","countryId":"6252001","fcl":"L","population":0,"countryCode":"US","name":"Lone Tree Creek Oil Field","fclName":"parks,area, ...","adminCodes1":{"ISO3166_2":"WY"},"countryName":"United States","fcodeName":"oilfield","adminName1":"Wyoming","lat":"43.87914","fcode":"OILF"},{"adminCode1":"WY","lng":"-104.90886","geonameId":5830952,"toponymName":"Lone Tree Oil Field","countryId":"6252001","fcl":"L","population":0,"countryCode":"US","name":"Lone Tree Oil Field","fclName":"parks,area, ...","adminCodes1":{"ISO3166_2":"WY"},"countryName":"United States","fcodeName":"oilfield","adminName1":"Wyoming","lat":"43.85803","fcode":"OILF"},{"adminCode1":"CO","lng":"-104.87101","geonameId":7173690,"toponymName":"City of Lone Tree","countryId":"6252001","fcl":"A","population":10218,"countryCode":"US","name":"City of Lone Tree","fclName":"country, state, region,...","adminCodes1":{"ISO3166_2":"CO"},"countryName":"United States","fcodeName":"administrative division","adminName1":"Colorado","lat":"39.53066","fcode":"ADMD"},{"adminCode1":"IA","lng":"-91.42621","geonameId":7317179,"toponymName":"City of Lone Tree","countryId":"6252001","fcl":"A","population":1300,"countryCode":"US","name":"City of Lone Tree","fclName":"country, state, region,...","adminCodes1":{"ISO3166_2":"IA"},"countryName":"United States","fcodeName":"administrative division","adminName1":"Iowa","lat":"41.48665","fcode":"ADMD"},{"adminCode1":"IA","lng":"-95.99196","geonameId":4865351,"toponymName":"Lone Tree Lake (historical)","countryId":"6252001","fcl":"H","population":0,"countryCode":"US","name":"Lone Tree Lake (historical)","fclName":"stream, lake, ...","adminCodes1":{"ISO3166_2":"IA"},"countryName":"United States","fcodeName":"lake","adminName1":"Iowa","lat":"41.5361","fcode":"LK"},{"adminCode1":"AZ","lng":"-111.79351","geonameId":5302665,"toponymName":"Lone Tree Pothole","countryId":"6252001","fcl":"H","population":0,"countryCode":"US","name":"Lone Tree Pothole","fclName":"stream, lake, ...","adminCodes1":{"ISO3166_2":"AZ"},"countryName":"United States","fcodeName":"lake","adminName1":"Arizona","lat":"35.88224","fcode":"LK"},{"adminCode1":"WI","lng":"-89.50354","geonameId":5260775,"toponymName":"Lone Tree Lake","countryId":"6252001","fcl":"H","population":0,"countryCode":"US","name":"Lone Tree Lake","fclName":"stream, lake, ...","adminCodes1":{"ISO3166_2":"WI"},"countryName":"United States","fcodeName":"lake","adminName1":"Wisconsin","lat":"46.0471","fcode":"LK"},{"adminCode1":"NE","lng":"-98.00172","geonameId":5072267,"toponymName":"Lone Tree Historical Marker","countryId":"6252001","fcl":"L","population":0,"countryCode":"US","name":"Lone Tree Historical Marker","fclName":"parks,area, ...","adminCodes1":{"ISO3166_2":"NE"},"countryName":"United States","fcodeName":"park","adminName1":"Nebraska","lat":"41.11585","fcode":"PRK"},{"adminCode1":"NE","lng":"-98.00089","geonameId":5072269,"toponymName":"Lone Tree Park","countryId":"6252001","fcl":"L","population":0,"countryCode":"US","name":"Lone Tree Park","fclName":"parks,area, ...","adminCodes1":{"ISO3166_2":"NE"},"countryName":"United States","fcodeName":"park","adminName1":"Nebraska","lat":"41.10585","fcode":"PRK"},{"adminCode1":"MN","lng":"-94.80796","geonameId":5035460,"toponymName":"Lone Tree Lake","countryId":"6252001","fcl":"H","population":0,"countryCode":"US","name":"Lone Tree Lake","fclName":"stream, lake, ...","adminCodes1":{"ISO3166_2":"MN"},"countryName":"United States","fcodeName":"lake","adminName1":"Minnesota","lat":"44.43614","fcode":"LK"},{"adminCode1":"MN","lng":"-95.708","geonameId":5035461,"toponymName":"Lone Tree Lake","countryId":"6252001","fcl":"H","population":0,"countryCode":"US","name":"Lone Tree Lake","fclName":"stream, lake, ...","adminCodes1":{"ISO3166_2":"MN"},"countryName":"United States","fcodeName":"lake","adminName1":"Minnesota","lat":"44.626","fcode":"LK"},{"adminCode1":"MN","lng":"-95.44495","geonameId":5035462,"toponymName":"Lone Tree Lake","countryId":"6252001","fcl":"H","population":0,"countryCode":"US","name":"Lone Tree Lake","fclName":"stream, lake, ...","adminCodes1":{"ISO3166_2":"MN"},"countryName":"United States","fcodeName":"lake","adminName1":"Minnesota","lat":"44.68947","fcode":"LK"},{"adminCode1":"MN","lng":"-95.6239","geonameId":5035466,"toponymName":"Lone Tree State Wildlife Management Area","countryId":"6252001","fcl":"L","population":0,"countryCode":"US","name":"Lone Tree State Wildlife Management Area","fclName":"parks,area, ...","adminCodes1":{"ISO3166_2":"MN"},"countryName":"United States","fcodeName":"park","adminName1":"Minnesota","lat":"43.81107","fcode":"PRK"},{"adminCode1":"ND","lng":"-103.95301","geonameId":5690261,"toponymName":"Township of Lone Tree","countryId":"6252001","fcl":"A","population":0,"countryCode":"US","name":"Lone Tree Township","fclName":"country, state, region,...","adminCodes1":{"ISO3166_2":"ND"},"countryName":"United States","fcodeName":"third-order administrative division","adminName1":"North Dakota","lat":"46.71656","fcode":"ADM3"},{"adminCode1":"SD","lng":"-102.39552","geonameId":5766673,"toponymName":"Township of Lone Tree","countryId":"6252001","fcl":"A","population":0,"countryCode":"US","name":"Lone Tree Township","fclName":"country, state, region,...","adminCodes1":{"ISO3166_2":"SD"},"countryName":"United States","fcodeName":"third-order administrative division","adminName1":"South Dakota","lat":"45.4293","fcode":"ADM3"},{"adminCode1":"SD","lng":"-100.0407","geonameId":5766674,"toponymName":"Township of Lone Tree","countryId":"6252001","fcl":"A","population":0,"countryCode":"US","name":"Lone Tree Township","fclName":"country, state, region,...","adminCodes1":{"ISO3166_2":"SD"},"countryName":"United States","fcodeName":"third-order administrative division","adminName1":"South Dakota","lat":"43.5434","fcode":"ADM3"},{"adminCode1":"RI","lng":"-71.43478","geonameId":5223173,"toponymName":"Lone Tree Point","countryId":"6252001","fcl":"T","population":0,"countryCode":"US","name":"Lone Tree Point","fclName":"mountain,hill,rock,... ","adminCodes1":{"ISO3166_2":"RI"},"countryName":"United States","fcodeName":"cape","adminName1":"Rhode Island","lat":"41.56121","fcode":"CAPE"},{"adminCode1":"OR","lng":"-123.67785","geonameId":5737645,"toponymName":"Lone Tree Ridge","countryId":"6252001","fcl":"T","population":0,"countryCode":"US","name":"Lone Tree Ridge","fclName":"mountain,hill,rock,... ","adminCodes1":{"ISO3166_2":"OR"},"countryName":"United States","fcodeName":"ridge(s)","adminName1":"Oregon","lat":"42.49372","fcode":"RDGE"},{"adminCode1":"WA","lng":"-122.55545","geonameId":5801506,"toponymName":"Lone Tree Point","countryId":"6252001","fcl":"T","population":0,"countryCode":"US","name":"Lone Tree Point","fclName":"mountain,hill,rock,... ","adminCodes1":{"ISO3166_2":"WA"},"countryName":"United States","fcodeName":"cape","adminName1":"Washington","lat":"48.40705","fcode":"CAPE"},{"adminCode1":"CA","lng":"-121.70718","geonameId":5367909,"toponymName":"Lone Tree Valley","countryId":"6252001","fcl":"T","population":0,"countryCode":"US","name":"Lone Tree Valley","fclName":"mountain,hill,rock,... ","adminCodes1":{"ISO3166_2":"CA"},"countryName":"United States","fcodeName":"valley","adminName1":"California","lat":"37.93798","fcode":"VAL"},{"adminCode1":"TX","lng":"-103.99824","geonameId":5525396,"toponymName":"Lone Tree Hill","countryId":"6252001","fcl":"T","population":0,"countryCode":"US","name":"Lone Tree Hill","fclName":"mountain,hill,rock,... ","adminCodes1":{"ISO3166_2":"TX"},"countryName":"United States","fcodeName":"mountain","adminName1":"Texas","lat":"30.5571","fcode":"MT"},{"adminCode1":"IN","lng":"-85.03358","geonameId":4922976,"toponymName":"Lone Tree Point","countryId":"6252001","fcl":"T","population":0,"countryCode":"US","name":"Lone Tree Point","fclName":"mountain,hill,rock,... ","adminCodes1":{"ISO3166_2":"IN"},"countryName":"United States","fcodeName":"cape","adminName1":"Indiana","lat":"41.69561","fcode":"CAPE"},{"adminCode1":"SD","lng":"-98.16841","geonameId":5229404,"toponymName":"Township of Lone Tree","countryId":"6252001","fcl":"A","population":0,"countryCode":"US","name":"Lone Tree Township","fclName":"country, state, region,...","adminCodes1":{"ISO3166_2":"SD"},"countryName":"United States","fcodeName":"third-order administrative division","adminName1":"South Dakota","lat":"43.03871","fcode":"ADM3"},{"adminCode1":"CT","lng":"-73.48623","geonameId":5282996,"toponymName":"Brushy Ridge","countryId":"6252001","fcl":"T","population":0,"countryCode":"US","name":"Brushy Ridge","fclName":"mountain,hill,rock,... ","adminCodes1":{"ISO3166_2":"CT"},"countryName":"United States","fcodeName":"ridge(s)","adminName1":"Connecticut","lat":"41.15815","fcode":"RDGE"},{"adminCode1":"IL","lng":"-90.52317","geonameId":4243439,"toponymName":"Lone Tree Indian Mound","countryId":"6252001","fcl":"T","population":0,"countryCode":"US","name":"Lone Tree Indian Mound","fclName":"mountain,hill,rock,... ","adminCodes1":{"ISO3166_2":"IL"},"countryName":"United States","fcodeName":"mountain","adminName1":"Illinois","lat":"38.90866","fcode":"MT"},{"adminCode1":"WA","lng":"-121.83862","geonameId":5801503,"toponymName":"Lone Tree Lake","countryId":"6252001","fcl":"H","population":0,"countryCode":"US","name":"Lone Tree Lake","fclName":"stream, lake, ...","adminCodes1":{"ISO3166_2":"WA"},"countryName":"United States","fcodeName":"lake","adminName1":"Washington","lat":"46.48249","fcode":"LK"},{"adminCode1":"CA","lng":"-121.33996","geonameId":5367884,"toponymName":"Lone Tree","countryId":"6252001","fcl":"L","population":0,"countryCode":"US","name":"Lone Tree","fclName":"parks,area, ...","adminCodes1":{"ISO3166_2":"CA"},"countryName":"United States","fcodeName":"park","adminName1":"California","lat":"39.14517","fcode":"PRK"},{"adminCode1":"CA","lng":"-121.91524","geonameId":5367895,"toponymName":"Lone Tree Creek Park","countryId":"6252001","fcl":"L","population":0,"countryCode":"US","name":"Lone Tree Creek Park","fclName":"parks,area, ...","adminCodes1":{"ISO3166_2":"CA"},"countryName":"United States","fcodeName":"park","adminName1":"California","lat":"37.47494","fcode":"PRK"},{"adminCode1":"CA","lng":"-121.87551","geonameId":5367902,"toponymName":"Lone Tree Prairie","countryId":"6252001","fcl":"L","population":0,"countryCode":"US","name":"Lone Tree Prairie","fclName":"parks,area, ...","adminCodes1":{"ISO3166_2":"CA"},"countryName":"United States","fcodeName":"area","adminName1":"California","lat":"37.06523","fcode":"AREA"},{"adminCode1":"SD","lng":"-101.09653","geonameId":5766671,"toponymName":"Township of Lone Tree","countryId":"6252001","fcl":"A","population":0,"countryCode":"US","name":"Lone Tree Township","fclName":"country, state, region,...","adminCodes1":{"ISO3166_2":"SD"},"countryName":"United States","fcodeName":"administrative division","adminName1":"South Dakota","lat":"44.11804","fcode":"ADMD"},{"adminCode1":"SD","lng":"-103.62408","geonameId":5766672,"toponymName":"Township of Lone Tree","countryId":"6252001","fcl":"A","population":0,"countryCode":"US","name":"Lone Tree Township","fclName":"country, state, region,...","adminCodes1":{"ISO3166_2":"SD"},"countryName":"United States","fcodeName":"administrative division","adminName1":"South Dakota","lat":"45.25055","fcode":"ADMD"},{"adminCode1":"WI","lng":"-92.59992","geonameId":5246335,"toponymName":"Boardman","countryId":"6252001","fcl":"P","population":0,"countryCode":"US","name":"Boardman","fclName":"city, village,...","adminCodes1":{"ISO3166_2":"WI"},"countryName":"United States","fcodeName":"populated place","adminName1":"Wisconsin","lat":"45.06552","fcode":"PPL"},{"adminCode1":"MT","lng":"-110.75744","geonameId":5663383,"toponymName":"Lone Tree Park","countryId":"6252001","fcl":"T","population":0,"countryCode":"US","name":"Lone Tree Park","fclName":"mountain,hill,rock,... ","adminCodes1":{"ISO3166_2":"MT"},"countryName":"United States","fcodeName":"plain(s)","adminName1":"Montana","lat":"46.87885","fcode":"PLN"},{"adminCode1":"MT","lng":"-111.53857","geonameId":5663386,"toponymName":"Lone Tree Pass","countryId":"6252001","fcl":"T","population":0,"countryCode":"US","name":"Lone Tree Pass","fclName":"mountain,hill,rock,... ","adminCodes1":{"ISO3166_2":"MT"},"countryName":"United States","fcodeName":"gap","adminName1":"Montana","lat":"44.64631","fcode":"GAP"},{"adminCode1":"MT","lng":"-113.88732","geonameId":5663387,"toponymName":"Lone Tree Pass","countryId":"6252001","fcl":"T","population":0,"countryCode":"US","name":"Lone Tree Pass","fclName":"mountain,hill,rock,... ","adminCodes1":{"ISO3166_2":"MT"},"countryName":"United States","fcodeName":"gap","adminName1":"Montana","lat":"47.36549","fcode":"GAP"},{"adminCode1":"ID","lng":"-116.1718","geonameId":5599361,"toponymName":"Lone Tree","countryId":"6252001","fcl":"T","population":0,"countryCode":"US","name":"Lone Tree","fclName":"mountain,hill,rock,... ","adminCodes1":{"ISO3166_2":"ID"},"countryName":"United States","fcodeName":"mountain","adminName1":"Idaho","lat":"44.656","fcode":"MT"},{"adminCode1":"ID","lng":"-116.71022","geonameId":5599364,"toponymName":"Lone Tree Peak","countryId":"6252001","fcl":"T","population":0,"countryCode":"US","name":"Lone Tree Peak","fclName":"mountain,hill,rock,... ","adminCodes1":{"ISO3166_2":"ID"},"countryName":"United States","fcodeName":"mountain","adminName1":"Idaho","lat":"48.94355","fcode":"MT"},{"adminCode1":"CO","lng":"-104.58857","geonameId":5579216,"toponymName":"Lone Tree Creek","countryId":"6252001","fcl":"H","population":0,"countryCode":"US","name":"Lone Tree Creek","fclName":"stream, lake, ...","adminCodes1":{"ISO3166_2":"CO"},"countryName":"United States","fcodeName":"stream","adminName1":"Colorado","lat":"40.42415","fcode":"STM"},{"adminCode1":"CO","lng":"-106.33642","geonameId":5429222,"toponymName":"Lone Tree Gulch","countryId":"6252001","fcl":"T","population":0,"countryCode":"US","name":"Lone Tree Gulch","fclName":"mountain,hill,rock,... ","adminCodes1":{"ISO3166_2":"CO"},"countryName":"United States","fcodeName":"valley","adminName1":"Colorado","lat":"38.15167","fcode":"VAL"},{"adminCode1":"CO","lng":"-107.31283","geonameId":5429225,"toponymName":"Lone Tree Park","countryId":"6252001","fcl":"T","population":0,"countryCode":"US","name":"Lone Tree Park","fclName":"mountain,hill,rock,... ","adminCodes1":{"ISO3166_2":"CO"},"countryName":"United States","fcodeName":"plain(s)","adminName1":"Colorado","lat":"37.39917","fcode":"PLN"},{"adminCode1":"UT","lng":"-111.10684","geonameId":5542373,"toponymName":"Lone Pine Tree Ridge","countryId":"6252001","fcl":"T","population":0,"countryCode":"US","name":"Lone Pine Tree Ridge","fclName":"mountain,hill,rock,... ","adminCodes1":{"ISO3166_2":"UT"},"countryName":"United States","fcodeName":"ridge(s)","adminName1":"Utah","lat":"39.58663","fcode":"RDGE"},{"adminCode1":"UT","lng":"-113.02578","geonameId":5542384,"toponymName":"Lone Tree Mountain","countryId":"6252001","fcl":"T","population":0,"countryCode":"US","name":"Lone Tree Mountain","fclName":"mountain,hill,rock,... ","adminCodes1":{"ISO3166_2":"UT"},"countryName":"United States","fcodeName":"mountain","adminName1":"Utah","lat":"37.63331","fcode":"MT"},{"adminCode1":"CO","lng":"-103.81414","geonameId":8081585,"toponymName":"Lone Tree Ranch Airport","countryId":"6252001","fcl":"S","population":0,"countryCode":"US","name":"Lone Tree Ranch Airport","fclName":"spot, building, farm","adminCodes1":{"ISO3166_2":"CO"},"countryName":"United States","fcodeName":"airport","adminName1":"Colorado","lat":"38.88513","fcode":"AIRP"},{"adminCode1":"ND","lng":"-103.53021","geonameId":5690258,"toponymName":"Lone Tree Lake","countryId":"6252001","fcl":"H","population":0,"countryCode":"US","name":"Lone Tree Lake","fclName":"stream, lake, ...","adminCodes1":{"ISO3166_2":"ND"},"countryName":"United States","fcodeName":"lake","adminName1":"North Dakota","lat":"48.43928","fcode":"LK"},{"adminCode1":"ND","lng":"-100.16038","geonameId":5690263,"toponymName":"Lone Tree Lake","countryId":"6252001","fcl":"H","population":0,"countryCode":"US","name":"Lone Tree Lake","fclName":"stream, lake, ...","adminCodes1":{"ISO3166_2":"ND"},"countryName":"United States","fcodeName":"lake","adminName1":"North Dakota","lat":"47.65958","fcode":"LK"},{"adminCode1":"SD","lng":"-96.58304","geonameId":5229401,"toponymName":"Lone Tree Lake","countryId":"6252001","fcl":"H","population":0,"countryCode":"US","name":"Lone Tree Lake","fclName":"stream, lake, ...","adminCodes1":{"ISO3166_2":"SD"},"countryName":"United States","fcodeName":"lake","adminName1":"South Dakota","lat":"44.87274","fcode":"LK"},{"adminCode1":"SD","lng":"-96.577","geonameId":5229402,"toponymName":"Lone Tree Lake State Public Shooting Area","countryId":"6252001","fcl":"L","population":0,"countryCode":"US","name":"Lone Tree Lake State Public Shooting Area","fclName":"parks,area, ...","adminCodes1":{"ISO3166_2":"SD"},"countryName":"United States","fcodeName":"park","adminName1":"South Dakota","lat":"44.87635","fcode":"PRK"},{"adminCode1":"SD","lng":"-97.87154","geonameId":5229407,"toponymName":"Lone Tree Lake","countryId":"6252001","fcl":"H","population":0,"countryCode":"US","name":"Lone Tree Lake","fclName":"stream, lake, ...","adminCodes1":{"ISO3166_2":"SD"},"countryName":"United States","fcodeName":"lake","adminName1":"South Dakota","lat":"45.14365","fcode":"LK"},{"adminCode1":"ND","lng":"-97.95898","geonameId":5060199,"toponymName":"Lone Tree Lake","countryId":"6252001","fcl":"H","population":0,"countryCode":"US","name":"Lone Tree Lake","fclName":"stream, lake, ...","adminCodes1":{"ISO3166_2":"ND"},"countryName":"United States","fcodeName":"lake","adminName1":"North Dakota","lat":"46.42112","fcode":"LK"},{"adminCode1":"ND","lng":"-97.89105","geonameId":5060200,"toponymName":"Lone Tree Lake","countryId":"6252001","fcl":"H","population":0,"countryCode":"US","name":"Lone Tree Lake","fclName":"stream, lake, ...","adminCodes1":{"ISO3166_2":"ND"},"countryName":"United States","fcodeName":"lake","adminName1":"North Dakota","lat":"47.28928","fcode":"LK"},{"adminCode1":"RI","lng":"-71.43395","geonameId":5223155,"toponymName":"Little Tree Point","countryId":"6252001","fcl":"T","population":0,"countryCode":"US","name":"Little Tree Point","fclName":"mountain,hill,rock,... ","adminCodes1":{"ISO3166_2":"RI"},"countryName":"United States","fcodeName":"cape","adminName1":"Rhode Island","lat":"41.56177","fcode":"CAPE"},{"adminCode1":"KS","lng":"-97.01504","geonameId":4267427,"toponymName":"Akron","countryId":"6252001","fcl":"P","population":0,"countryCode":"US","name":"Akron","fclName":"city, village,...","adminCodes1":{"ISO3166_2":"KS"},"countryName":"United States","fcodeName":"populated place","adminName1":"Kansas","lat":"37.35169","fcode":"PPL"},{"adminCode1":"MT","lng":"-107.70176","geonameId":5663348,"toponymName":"Lone Tree Coulee","countryId":"6252001","fcl":"T","population":0,"countryCode":"US","name":"Lone Tree Coulee","fclName":"mountain,hill,rock,... ","adminCodes1":{"ISO3166_2":"MT"},"countryName":"United States","fcodeName":"valley","adminName1":"Montana","lat":"48.82029","fcode":"VAL"},{"adminCode1":"MT","lng":"-107.83732","geonameId":5663349,"toponymName":"Lone Tree Coulee","countryId":"6252001","fcl":"T","population":0,"countryCode":"US","name":"Lone Tree Coulee","fclName":"mountain,hill,rock,... ","adminCodes1":{"ISO3166_2":"MT"},"countryName":"United States","fcodeName":"valley","adminName1":"Montana","lat":"48.92224","fcode":"VAL"},{"adminCode1":"MT","lng":"-107.66094","geonameId":5663394,"toponymName":"Lone Tree Sag","countryId":"6252001","fcl":"T","population":0,"countryCode":"US","name":"Lone Tree Sag","fclName":"mountain,hill,rock,... ","adminCodes1":{"ISO3166_2":"MT"},"countryName":"United States","fcodeName":"depression(s)","adminName1":"Montana","lat":"48.50361","fcode":"DPR"},{"adminCode1":"MT","lng":"-107.43343","geonameId":5638178,"toponymName":"Badland Coulee","countryId":"6252001","fcl":"T","population":0,"countryCode":"US","name":"Badland Coulee","fclName":"mountain,hill,rock,... ","adminCodes1":{"ISO3166_2":"MT"},"countryName":"United States","fcodeName":"valley","adminName1":"Montana","lat":"47.88972","fcode":"VAL"},{"adminCode1":"MT","lng":"-104.13522","geonameId":5663382,"toponymName":"Lone Tree Lutheran Church (historical)","countryId":"6252001","fcl":"S","population":0,"countryCode":"US","name":"Lone Tree Lutheran Church (historical)","fclName":"spot, building, farm","adminCodes1":{"ISO3166_2":"MT"},"countryName":"United States","fcodeName":"church","adminName1":"Montana","lat":"48.96864","fcode":"CH"},{"adminCode1":"WI","lng":"-88.96706","geonameId":5272174,"toponymName":"Sandstone Bluff","countryId":"6252001","fcl":"P","population":0,"countryCode":"US","name":"Sandstone Bluff","fclName":"city, village,...","adminCodes1":{"ISO3166_2":"WI"},"countryName":"United States","fcodeName":"populated place","adminName1":"Wisconsin","lat":"43.8172","fcode":"PPL"},{"adminCode1":"CO","lng":"-108.13842","geonameId":5580892,"toponymName":"Pine Tree Gulch","countryId":"6252001","fcl":"T","population":0,"countryCode":"US","name":"Pine Tree Gulch","fclName":"mountain,hill,rock,... ","adminCodes1":{"ISO3166_2":"CO"},"countryName":"United States","fcodeName":"valley","adminName1":"Colorado","lat":"40.3983","fcode":"VAL"},{"adminCode1":"AK","lng":"-134.6387","geonameId":5555248,"toponymName":"Lone Tree Islet","countryId":"6252001","fcl":"T","population":0,"countryCode":"US","name":"Lone Tree Islet","fclName":"mountain,hill,rock,... ","adminCodes1":{"ISO3166_2":"AK"},"countryName":"United States","fcodeName":"island","adminName1":"Alaska","lat":"57.24885","fcode":"ISL"},{"adminCode1":"MT","lng":"-105.39888","geonameId":5663369,"toponymName":"Lone Tree Creek","countryId":"6252001","fcl":"H","population":0,"countryCode":"US","name":"Lone Tree Creek","fclName":"stream, lake, ...","adminCodes1":{"ISO3166_2":"MT"},"countryName":"United States","fcodeName":"stream","adminName1":"Montana","lat":"45.43888","fcode":"STM"},{"adminCode1":"IA","lng":"-91.42544","geonameId":4865354,"toponymName":"Lone Tree Post Office","countryId":"6252001","fcl":"S","population":0,"countryCode":"US","name":"Lone Tree Post Office","fclName":"spot, building, farm","adminCodes1":{"ISO3166_2":"IA"},"countryName":"United States","fcodeName":"post office","adminName1":"Iowa","lat":"41.4878","fcode":"PO"},{"adminCode1":"NM","lng":"-107.74783","geonameId":5476616,"toponymName":"Lone Pine Tree Hill","countryId":"6252001","fcl":"T","population":0,"countryCode":"US","name":"Lone Pine Tree Hill","fclName":"mountain,hill,rock,... ","adminCodes1":{"ISO3166_2":"NM"},"countryName":"United States","fcodeName":"mountain","adminName1":"New Mexico","lat":"35.71363","fcode":"MT"},{"adminCode1":"NM","lng":"-107.99368","geonameId":5476630,"toponymName":"Lone Tree Mountain","countryId":"6252001","fcl":"T","population":0,"countryCode":"US","name":"Lone Tree Mountain","fclName":"mountain,hill,rock,... ","adminCodes1":{"ISO3166_2":"NM"},"countryName":"United States","fcodeName":"mountain","adminName1":"New Mexico","lat":"36.97889","fcode":"MT"},{"adminCode1":"NM","lng":"-104.19192","geonameId":5476643,"toponymName":"Lone Tree Hill","countryId":"6252001","fcl":"T","population":0,"countryCode":"US","name":"Lone Tree Hill","fclName":"mountain,hill,rock,... ","adminCodes1":{"ISO3166_2":"NM"},"countryName":"United States","fcodeName":"mountain","adminName1":"New Mexico","lat":"36.51753","fcode":"MT"},{"adminCode1":"IA","lng":"-91.42804","geonameId":4865349,"toponymName":"Lone Tree Volunteer Fire and Rescue - Volunteer First Responders","countryId":"6252001","fcl":"S","population":0,"countryCode":"US","name":"Lone Tree Volunteer Fire and Rescue - Volunteer First Responders","fclName":"spot, building, farm","adminCodes1":{"ISO3166_2":"IA"},"countryName":"United States","fcodeName":"building(s)","adminName1":"Iowa","lat":"41.48802","fcode":"BLDG"},{"adminCode1":"CA","lng":"-118.06896","geonameId":5383060,"toponymName":"Pine Tree Canyon","countryId":"6252001","fcl":"T","population":0,"countryCode":"US","name":"Pine Tree Canyon","fclName":"mountain,hill,rock,... ","adminCodes1":{"ISO3166_2":"CA"},"countryName":"United States","fcodeName":"valley","adminName1":"California","lat":"35.23607","fcode":"VAL"},{"adminCode1":"TX","lng":"-96.66053","geonameId":4719432,"toponymName":"Placedo Creek","countryId":"6252001","fcl":"H","population":0,"countryCode":"US","name":"Placedo Creek","fclName":"stream, lake, ...","adminCodes1":{"ISO3166_2":"TX"},"countryName":"United States","fcodeName":"stream","adminName1":"Texas","lat":"28.70166","fcode":"STM"},{"adminCode1":"NM","lng":"-105.24144","geonameId":5476654,"toponymName":"Lonetree Lake","countryId":"6252001","fcl":"H","population":0,"countryCode":"US","name":"Lonetree Lake","fclName":"stream, lake, ...","adminCodes1":{"ISO3166_2":"NM"},"countryName":"United States","fcodeName":"lake","adminName1":"New Mexico","lat":"33.7238","fcode":"LK"},{"adminCode1":"OR","lng":"-123.06232","geonameId":5737633,"toponymName":"Lone Tree Bar","countryId":"6252001","fcl":"T","population":0,"countryCode":"US","name":"Lone Tree Bar","fclName":"mountain,hill,rock,... ","adminCodes1":{"ISO3166_2":"OR"},"countryName":"United States","fcodeName":"bar","adminName1":"Oregon","lat":"45.06873","fcode":"BAR"},{"adminCode1":"OR","lng":"-118.92437","geonameId":5737639,"toponymName":"Lone Tree Lake","countryId":"6252001","fcl":"T","population":0,"countryCode":"US","name":"Lone Tree Lake","fclName":"mountain,hill,rock,... ","adminCodes1":{"ISO3166_2":"OR"},"countryName":"United States","fcodeName":"plain(s)","adminName1":"Oregon","lat":"42.9521","fcode":"PLN"},{"adminCode1":"OR","lng":"-124.11373","geonameId":5737640,"toponymName":"Lone Tree Point","countryId":"6252001","fcl":"T","population":0,"countryCode":"US","name":"Lone Tree Point","fclName":"mountain,hill,rock,... ","adminCodes1":{"ISO3166_2":"OR"},"countryName":"United States","fcodeName":"cape","adminName1":"Oregon","lat":"43.80262","fcode":"CAPE"},{"adminCode1":"OR","lng":"-123.66646","geonameId":5737647,"toponymName":"Lone Tree Pass","countryId":"6252001","fcl":"T","population":0,"countryCode":"US","name":"Lone Tree Pass","fclName":"mountain,hill,rock,... ","adminCodes1":{"ISO3166_2":"OR"},"countryName":"United States","fcodeName":"gap","adminName1":"Oregon","lat":"42.47733","fcode":"GAP"},{"adminCode1":"MT","lng":"-109.34796","geonameId":5663336,"toponymName":"Lone Tree Bench","countryId":"6252001","fcl":"T","population":0,"countryCode":"US","name":"Lone Tree Bench","fclName":"mountain,hill,rock,... ","adminCodes1":{"ISO3166_2":"MT"},"countryName":"United States","fcodeName":"bench","adminName1":"Montana","lat":"47.86665","fcode":"BNCH"},{"adminCode1":"MT","lng":"-107.63703","geonameId":5663341,"toponymName":"Lone Tree Coulee","countryId":"6252001","fcl":"T","population":0,"countryCode":"US","name":"Lone Tree Coulee","fclName":"mountain,hill,rock,... ","adminCodes1":{"ISO3166_2":"MT"},"countryName":"United States","fcodeName":"valley","adminName1":"Montana","lat":"45.83109","fcode":"VAL"},{"adminCode1":"MT","lng":"-108.42431","geonameId":5663342,"toponymName":"Lone Tree Coulee","countryId":"6252001","fcl":"T","population":0,"countryCode":"US","name":"Lone Tree Coulee","fclName":"mountain,hill,rock,... ","adminCodes1":{"ISO3166_2":"MT"},"countryName":"United States","fcodeName":"valley","adminName1":"Montana","lat":"48.09833","fcode":"VAL"},{"adminCode1":"MT","lng":"-108.41848","geonameId":5663343,"toponymName":"Lone Tree Coulee","countryId":"6252001","fcl":"T","population":0,"countryCode":"US","name":"Lone Tree Coulee","fclName":"mountain,hill,rock,... ","adminCodes1":{"ISO3166_2":"MT"},"countryName":"United States","fcodeName":"valley","adminName1":"Montana","lat":"48.28694","fcode":"VAL"},{"adminCode1":"MT","lng":"-108.54431","geonameId":5663344,"toponymName":"Lone Tree Coulee","countryId":"6252001","fcl":"T","population":0,"countryCode":"US","name":"Lone Tree Coulee","fclName":"mountain,hill,rock,... ","adminCodes1":{"ISO3166_2":"MT"},"countryName":"United States","fcodeName":"valley","adminName1":"Montana","lat":"48.58694","fcode":"VAL"}]}
