{"totalResultsCount":455,"geonames":[{"adminCode1":"NY","lng":"-73.06622","geonameId":5125123,"toponymName":"Long Island","countryId":"6252001","fcl":"T","population":7838822,"countryCode":"US","name":"Long Island","fclName":"mountain,hill,rock,... ","adminCodes1":{"ISO3166_2":"NY"},"countryName":"United States","fcodeName":"island","adminName1":"New York","lat":"40.81677","fcode":"ISL"},{"adminCode1":"NY","lng":"-73.91327","geonameId":6955102,"toponymName":"New York-Northern New Jersey-Long Island","countryId":"6252001","fcl":"L","population":19006798,"countryCode":"US","name":"New York-Northern New Jersey-Long Island","fclName":"parks,area, ...","adminCodes1":{"ISO3166_2":"NY"},"countryName":"United States","fcodeName":"economic region","adminName1":"New York","lat":"40.75766","fcode":"RGNE"},{"adminCode1":"NY","lng":"-73.94875","geonameId":5125125,"toponymName":"Long Island City","countryId":"6252001","fcl":"P","population":25595,"countryCode":"US","name":"Long Island","fclName":"city, village,...","adminCodes1":{"ISO3166_2":"NY"},"countryName":"United States","fcodeName":"section of populated place","adminName1":"New York","lat":"40.74482","fcode":"PPLX"},{"adminCode1":"NY","lng":"-73.09764","geonameId":5125130,"toponymName":"Long Island Mac Arthur Airport","countryId":"6252001","fcl":"S","population":0,"countryCode":"US","name":"Long Island Mac Arthur Airport","fclName":"spot, building, farm","adminCodes1":{"ISO3166_2":"NY"},"countryName":"United States","fcodeName":"airport","adminName1":"New York","lat":"40.78992","fcode":"AIRP"},{"adminCode1":"KS","lng":"-99.53594","geonameId":4274772,"toponymName":"Long Island","countryId":"6252001","fcl":"P","population":128,"countryCode":"US","name":"Long Island","fclName":"city, village,...","adminCodes1":{"ISO3166_2":"KS"},"countryName":"United States","fcodeName":"populated place","adminName1":"Kansas","lat":"39.94945","fcode":"PPL"},{"adminCode1":"RI","lng":"-71.78716","geonameId":5225768,"toponymName":"Winnapaug Pond","countryId":"6252001","fcl":"H","population":0,"countryCode":"US","name":"Winnapaug Pond","fclName":"stream, lake, ...","adminCodes1":{"ISO3166_2":"RI"},"countryName":"United States","fcodeName":"lake","adminName1":"Rhode Island","lat":"41.33079","fcode":"LK"},{"adminCode1":"ME","lng":"-70.17116","geonameId":4970331,"toponymName":"Long Island","countryId":"6252001","fcl":"P","population":210,"countryCode":"US","name":"Long Island","fclName":"city, village,...","adminCodes1":{"ISO3166_2":"ME"},"countryName":"United States","fcodeName":"populated place","adminName1":"Maine","lat":"43.68425","fcode":"PPL"},{"adminCode1":"AK","lng":"-152.27509","geonameId":5867785,"toponymName":"Long Island","countryId":"6252001","fcl":"T","population":0,"countryCode":"US","name":"Long Island","fclName":"mountain,hill,rock,... ","adminCodes1":{"ISO3166_2":"AK"},"countryName":"United States","fcodeName":"island","adminName1":"Alaska","lat":"57.76623","fcode":"ISL"},{"adminCode1":"AK","lng":"-135.35167","geonameId":5555258,"toponymName":"Long Island","countryId":"6252001","fcl":"T","population":0,"countryCode":"US","name":"Long Island","fclName":"mountain,hill,rock,... ","adminCodes1":{"ISO3166_2":"AK"},"countryName":"United States","fcodeName":"island","adminName1":"Alaska","lat":"56.99944","fcode":"ISL"},{"adminCode1":"CT","lng":"-73.41623","geonameId":4842888,"toponymName":"Sheffield Island","countryId":"6252001","fcl":"T","population":0,"countryCode":"US","name":"Sheffield Island","fclName":"mountain,hill,rock,... ","adminCodes1":{"ISO3166_2":"CT"},"countryName":"United States","fcodeName":"island","adminName1":"Connecticut","lat":"41.05149","fcode":"ISL"},{"adminCode1":"AK","lng":"-132.71861","geonameId":5555254,"toponymName":"Long Island","countryId":"6252001","fcl":"T","population":0,"countryCode":"US","name":"Long Island","fclName":"mountain,hill,rock,... ","adminCodes1":{"ISO3166_2":"AK"},"countryName":"United States","fcodeName":"island","adminName1":"Alaska","lat":"54.87111","fcode":"ISL"},{"adminCode1":"NY","lng":"-72.87966","geonameId":5125132,"toponymName":"Long Island Sound","countryId":"6252001","fcl":"H","population":0,"countryCode":"US","name":"Long Island Sound","fclName":"stream, lake, ...","adminCodes1":{"ISO3166_2":"NY"},"countryName":"United States","fcodeName":"bay","adminName1":"New York","lat":"41.09694","fcode":"BAY"},{"adminCode1":"FL","lng":"-80.82173","geonameId":4162685,"toponymName":"Long Key","countryId":"6252001","fcl":"T","population":0,"countryCode":"US","name":"Long Key","fclName":"mountain,hill,rock,... ","adminCodes1":{"ISO3166_2":"FL"},"countryName":"United States","fcodeName":"island","adminName1":"Florida","lat":"24.81986","fcode":"ISL"},{"adminCode1":"WA","lng":"-122.64795","geonameId":5801574,"toponymName":"Long Point","countryId":"6252001","fcl":"T","population":0,"countryCode":"US","name":"Long Point","fclName":"mountain,hill,rock,... ","adminCodes1":{"ISO3166_2":"WA"},"countryName":"United States","fcodeName":"cape","adminName1":"Washington","lat":"48.22677","fcode":"CAPE"},{"adminCode1":"TN","lng":"-82.56682","geonameId":4638039,"toponymName":"Long Island","countryId":"6252001","fcl":"T","population":0,"countryCode":"US","name":"Long Island","fclName":"mountain,hill,rock,... ","adminCodes1":{"ISO3166_2":"TN"},"countryName":"United States","fcodeName":"island","adminName1":"Tennessee","lat":"36.53732","fcode":"ISL"},{"adminCode1":"KS","lng":"-99.57061","geonameId":4274774,"toponymName":"Township of Long Island","countryId":"6252001","fcl":"A","population":0,"countryCode":"US","name":"Long Island Township","fclName":"country, state, region,...","adminCodes1":{"ISO3166_2":"KS"},"countryName":"United States","fcodeName":"third-order administrative division","adminName1":"Kansas","lat":"39.95841","fcode":"ADM3"},{"adminCode1":"WI","lng":"-90.78491","geonameId":5260794,"toponymName":"Long Island","countryId":"6252001","fcl":"T","population":0,"countryCode":"US","name":"Long Island","fclName":"mountain,hill,rock,... ","adminCodes1":{"ISO3166_2":"WI"},"countryName":"United States","fcodeName":"island","adminName1":"Wisconsin","lat":"46.72688","fcode":"ISL"},{"adminCode1":"CA","lng":"-122.01441","geonameId":5389441,"toponymName":"Ryer Island","countryId":"6252001","fcl":"T","population":0,"countryCode":"US","name":"Ryer Island","fclName":"mountain,hill,rock,... ","adminCodes1":{"ISO3166_2":"CA"},"countryName":"United States","fcodeName":"island","adminName1":"California","lat":"38.0827","fcode":"ISL"},{"adminCode1":"NY","lng":"-74.22639","geonameId":7176474,"toponymName":"Long Pond Park","countryId":"6252001","fcl":"L","population":0,"countryCode":"US","name":"Long Pond Park","fclName":"parks,area, ...","adminCodes1":{"ISO3166_2":"NY"},"countryName":"United States","fcodeName":"park","adminName1":"New York","lat":"40.51611","fcode":"PRK"},{"adminCode1":"ME","lng":"-68.90448","geonameId":4968145,"toponymName":"Islesboro Island","countryId":"6252001","fcl":"T","population":0,"countryCode":"US","name":"Islesboro Island","fclName":"mountain,hill,rock,... ","adminCodes1":{"ISO3166_2":"ME"},"countryName":"United States","fcodeName":"island","adminName1":"Maine","lat":"44.30174","fcode":"ISL"},{"adminCode1":"VA","lng":"-79.09419","geonameId":4770569,"toponymName":"Long Island","countryId":"6252001","fcl":"P","population":0,"countryCode":"US","name":"Long Island","fclName":"city, village,...","adminCodes1":{"ISO3166_2":"VA"},"countryName":"United States","fcodeName":"populated place","adminName1":"Virginia","lat":"37.07847","fcode":"PPL"},{"adminCode1":"AL","lng":"-85.67108","geonameId":4073651,"toponymName":"Long Island","countryId":"6252001","fcl":"P","population":0,"countryCode":"US","name":"Long Island","fclName":"city, village,...","adminCodes1":{"ISO3166_2":"AL"},"countryName":"United States","fcodeName":"populated place","adminName1":"Alabama","lat":"34.97369","fcode":"PPL"},{"adminCode1":"GA","lng":"-80.89844","geonameId":4188618,"toponymName":"Cockspur Island","countryId":"6252001","fcl":"T","population":0,"countryCode":"US","name":"Cockspur Island","fclName":"mountain,hill,rock,... ","adminCodes1":{"ISO3166_2":"GA"},"countryName":"United States","fcodeName":"island","adminName1":"Georgia","lat":"32.02771","fcode":"ISL"},{"adminCode1":"NH","lng":"-70.74811","geonameId":5086300,"toponymName":"Four Tree Island","countryId":"6252001","fcl":"T","population":0,"countryCode":"US","name":"Four Tree Island","fclName":"mountain,hill,rock,... ","adminCodes1":{"ISO3166_2":"NH"},"countryName":"United States","fcodeName":"island","adminName1":"New Hampshire","lat":"43.07676","fcode":"ISL"},{"adminCode1":"CT","lng":"-73.11344","geonameId":4837925,"toponymName":"Long Island","countryId":"6252001","fcl":"T","population":0,"countryCode":"US","name":"Long Island","fclName":"mountain,hill,rock,... ","adminCodes1":{"ISO3166_2":"CT"},"countryName":"United States","fcodeName":"island","adminName1":"Connecticut","lat":"41.21815","fcode":"ISL"},{"adminCode1":"MA","lng":"-70.96616","geonameId":4942412,"toponymName":"Long Island","countryId":"6252001","fcl":"T","population":0,"countryCode":"US","name":"Long Island","fclName":"mountain,hill,rock,... ","adminCodes1":{"ISO3166_2":"MA"},"countryName":"United States","fcodeName":"island","adminName1":"Massachusetts","lat":"42.32093","fcode":"ISL"},{"adminCode1":"OH","lng":"-84.79106","geonameId":4517057,"toponymName":"Long Island Beach","countryId":"6252001","fcl":"T","population":0,"countryCode":"US","name":"Long Island Beach","fclName":"mountain,hill,rock,... ","adminCodes1":{"ISO3166_2":"OH"},"countryName":"United States","fcodeName":"beach","adminName1":"Ohio","lat":"39.18228","fcode":"BCH"},{"adminCode1":"AK","lng":"-132.97417","geonameId":5845792,"toponymName":"Dolgoi Island","countryId":"6252001","fcl":"T","population":0,"countryCode":"US","name":"Dolgoi Island","fclName":"mountain,hill,rock,... ","adminCodes1":{"ISO3166_2":"AK"},"countryName":"United States","fcodeName":"island","adminName1":"Alaska","lat":"54.82139","fcode":"ISL"},{"adminCode1":"GA","lng":"-81.33315","geonameId":4221800,"toponymName":"Sea Island","countryId":"6252001","fcl":"T","population":0,"countryCode":"US","name":"Sea Island","fclName":"mountain,hill,rock,... ","adminCodes1":{"ISO3166_2":"GA"},"countryName":"United States","fcodeName":"island","adminName1":"Georgia","lat":"31.20023","fcode":"ISL"},{"adminCode1":"CA","lng":"-123.0591","geonameId":5347698,"toponymName":"Farallon Islands","countryId":"6252001","fcl":"T","population":0,"countryCode":"US","name":"Farallon Islands","fclName":"mountain,hill,rock,... ","adminCodes1":{"ISO3166_2":"CA"},"countryName":"United States","fcodeName":"island","adminName1":"California","lat":"37.74251","fcode":"ISL"},{"adminCode1":"WA","lng":"-122.4618","geonameId":5801480,"toponymName":"Lone Lake","countryId":"6252001","fcl":"H","population":0,"countryCode":"US","name":"Lone Lake","fclName":"stream, lake, ...","adminCodes1":{"ISO3166_2":"WA"},"countryName":"United States","fcodeName":"lake","adminName1":"Washington","lat":"48.02113","fcode":"LK"},{"adminCode1":"IL","lng":"-90.57541","geonameId":4900475,"toponymName":"Longview Park","countryId":"6252001","fcl":"L","population":0,"countryCode":"US","name":"Longview Park","fclName":"parks,area, ...","adminCodes1":{"ISO3166_2":"IL"},"countryName":"United States","fcodeName":"park","adminName1":"Illinois","lat":"41.49559","fcode":"PRK"},{"adminCode1":"NC","lng":"-78.16111","geonameId":4482916,"toponymName":"Oak Island","countryId":"6252001","fcl":"P","population":7507,"countryCode":"US","name":"Oak Island","fclName":"city, village,...","adminCodes1":{"ISO3166_2":"NC"},"countryName":"United States","fcodeName":"populated place","adminName1":"North Carolina","lat":"33.91656","fcode":"PPL"},{"adminCode1":"AK","lng":"-152.33291","geonameId":5867797,"toponymName":"Long Lake","countryId":"6252001","fcl":"H","population":0,"countryCode":"US","name":"Long Lake","fclName":"stream, lake, ...","adminCodes1":{"ISO3166_2":"AK"},"countryName":"United States","fcodeName":"lake","adminName1":"Alaska","lat":"57.78645","fcode":"LK"},{"adminCode1":"RI","lng":"-71.33144","geonameId":5223194,"toponymName":"Long Wharf Mill","countryId":"6252001","fcl":"L","population":0,"countryCode":"US","name":"Long Wharf Mill","fclName":"parks,area, ...","adminCodes1":{"ISO3166_2":"RI"},"countryName":"United States","fcodeName":"park","adminName1":"Rhode Island","lat":"41.49094","fcode":"PRK"},{"adminCode1":"MA","lng":"-70.75644","geonameId":4942410,"toponymName":"Long Island","countryId":"6252001","fcl":"T","population":0,"countryCode":"US","name":"Long Island","fclName":"mountain,hill,rock,... ","adminCodes1":{"ISO3166_2":"MA"},"countryName":"United States","fcodeName":"island","adminName1":"Massachusetts","lat":"42.66954","fcode":"ISL"},{"adminCode1":"FL","lng":"-82.71899","geonameId":4146085,"toponymName":"Anna Maria Island","countryId":"6252001","fcl":"T","population":0,"countryCode":"US","name":"Anna Maria Island","fclName":"mountain,hill,rock,... ","adminCodes1":{"ISO3166_2":"FL"},"countryName":"United States","fcodeName":"island","adminName1":"Florida","lat":"27.5142","fcode":"ISL"},{"adminCode1":"WA","lng":"-123.96877","geonameId":5801541,"toponymName":"Long Island","countryId":"6252001","fcl":"T","population":0,"countryCode":"US","name":"Long Island","fclName":"mountain,hill,rock,... ","adminCodes1":{"ISO3166_2":"WA"},"countryName":"United States","fcodeName":"island","adminName1":"Washington","lat":"46.45204","fcode":"ISL"},{"adminCode1":"NJ","lng":"-74.1708","geonameId":6327278,"toponymName":"Long Beach Island","countryId":"6252001","fcl":"T","population":0,"countryCode":"US","name":"Long Beach Island","fclName":"mountain,hill,rock,... ","adminCodes1":{"ISO3166_2":"NJ"},"countryName":"United States","fcodeName":"island","adminName1":"New Jersey","lat":"39.6598","fcode":"ISL"},{"adminCode1":"ME","lng":"-70.11227","geonameId":4970346,"toponymName":"Town of Long Island","countryId":"6252001","fcl":"A","population":238,"countryCode":"US","name":"Town of Long Island","fclName":"country, state, region,...","adminCodes1":{"ISO3166_2":"ME"},"countryName":"United States","fcodeName":"third-order administrative division","adminName1":"Maine","lat":"43.63775","fcode":"ADM3"},{"adminCode1":"ME","lng":"-69.94338","geonameId":4970403,"toponymName":"Long Point Island","countryId":"6252001","fcl":"T","population":0,"countryCode":"US","name":"Long Point Island","fclName":"mountain,hill,rock,... ","adminCodes1":{"ISO3166_2":"ME"},"countryName":"United States","fcodeName":"island","adminName1":"Maine","lat":"43.76647","fcode":"ISL"},{"adminCode1":"MA","lng":"-70.95644","geonameId":4942415,"toponymName":"Long Island Head","countryId":"6252001","fcl":"T","population":0,"countryCode":"US","name":"Long Island Head","fclName":"mountain,hill,rock,... ","adminCodes1":{"ISO3166_2":"MA"},"countryName":"United States","fcodeName":"cliff(s)","adminName1":"Massachusetts","lat":"42.32982","fcode":"CLF"},{"adminCode1":"FL","lng":"-80.98729","geonameId":4162725,"toponymName":"Long Point Key","countryId":"6252001","fcl":"T","population":0,"countryCode":"US","name":"Long Point Key","fclName":"mountain,hill,rock,... ","adminCodes1":{"ISO3166_2":"FL"},"countryName":"United States","fcodeName":"island","adminName1":"Florida","lat":"24.74597","fcode":"ISL"},{"adminCode1":"OR","lng":"-119.61642","geonameId":5737848,"toponymName":"Long Walk Island","countryId":"6252001","fcl":"T","population":0,"countryCode":"US","name":"Long Walk Island","fclName":"mountain,hill,rock,... ","adminCodes1":{"ISO3166_2":"OR"},"countryName":"United States","fcodeName":"island","adminName1":"Oregon","lat":"45.90152","fcode":"ISL"},{"adminCode1":"AK","lng":"-162.81446","geonameId":5867782,"toponymName":"Long Island","countryId":"6252001","fcl":"T","population":0,"countryCode":"US","name":"Long Island","fclName":"mountain,hill,rock,... ","adminCodes1":{"ISO3166_2":"AK"},"countryName":"United States","fcodeName":"island","adminName1":"Alaska","lat":"54.40804","fcode":"ISL"},{"adminCode1":"TN","lng":"-84.5491","geonameId":4638036,"toponymName":"Long Island","countryId":"6252001","fcl":"T","population":0,"countryCode":"US","name":"Long Island","fclName":"mountain,hill,rock,... ","adminCodes1":{"ISO3166_2":"TN"},"countryName":"United States","fcodeName":"island","adminName1":"Tennessee","lat":"35.2323","fcode":"ISL"},{"adminCode1":"TN","lng":"-84.50327","geonameId":4638037,"toponymName":"Long Island","countryId":"6252001","fcl":"T","population":0,"countryCode":"US","name":"Long Island","fclName":"mountain,hill,rock,... ","adminCodes1":{"ISO3166_2":"TN"},"countryName":"United States","fcodeName":"island","adminName1":"Tennessee","lat":"35.82341","fcode":"ISL"},{"adminCode1":"AL","lng":"-85.69914","geonameId":4073648,"toponymName":"Long Island","countryId":"6252001","fcl":"T","population":0,"countryCode":"US","name":"Long Island","fclName":"mountain,hill,rock,... ","adminCodes1":{"ISO3166_2":"AL"},"countryName":"United States","fcodeName":"island","adminName1":"Alabama","lat":"34.96147","fcode":"ISL"},{"adminCode1":"ME","lng":"-68.62058","geonameId":4970335,"toponymName":"Long Island","countryId":"6252001","fcl":"T","population":0,"countryCode":"US","name":"Long Island","fclName":"mountain,hill,rock,... ","adminCodes1":{"ISO3166_2":"ME"},"countryName":"United States","fcodeName":"island","adminName1":"Maine","lat":"45.19895","fcode":"ISL"},{"adminCode1":"ME","lng":"-68.16248","geonameId":4970460,"toponymName":"Long Porcupine Island","countryId":"6252001","fcl":"T","population":0,"countryCode":"US","name":"Long Porcupine Island","fclName":"mountain,hill,rock,... ","adminCodes1":{"ISO3166_2":"ME"},"countryName":"United States","fcodeName":"island","adminName1":"Maine","lat":"44.40692","fcode":"ISL"},{"adminCode1":"OH","lng":"-83.8516","geonameId":5161193,"toponymName":"Long Island","countryId":"6252001","fcl":"T","population":0,"countryCode":"US","name":"Long Island","fclName":"mountain,hill,rock,... ","adminCodes1":{"ISO3166_2":"OH"},"countryName":"United States","fcodeName":"island","adminName1":"Ohio","lat":"40.50477","fcode":"ISL"},{"adminCode1":"ME","lng":"-69.34533","geonameId":4964946,"toponymName":"Friendship Long Island","countryId":"6252001","fcl":"T","population":0,"countryCode":"US","name":"Friendship Long Island","fclName":"mountain,hill,rock,... ","adminCodes1":{"ISO3166_2":"ME"},"countryName":"United States","fcodeName":"island","adminName1":"Maine","lat":"43.95203","fcode":"ISL"},{"adminCode1":"MI","lng":"-88.79953","geonameId":4999939,"toponymName":"Long Island","countryId":"6252001","fcl":"T","population":0,"countryCode":"US","name":"Long Island","fclName":"mountain,hill,rock,... ","adminCodes1":{"ISO3166_2":"MI"},"countryName":"United States","fcodeName":"island","adminName1":"Michigan","lat":"47.93461","fcode":"ISL"},{"adminCode1":"KS","lng":"-99.53401","geonameId":7164104,"toponymName":"City of Long Island","countryId":"6252001","fcl":"A","population":134,"countryCode":"US","name":"City of Long Island","fclName":"country, state, region,...","adminCodes1":{"ISO3166_2":"KS"},"countryName":"United States","fcodeName":"administrative division","adminName1":"Kansas","lat":"39.94618","fcode":"ADMD"},{"adminCode1":"NY","lng":"-74.97826","geonameId":5114125,"toponymName":"Croil Island","countryId":"6252001","fcl":"T","population":0,"countryCode":"US","name":"Croil Island","fclName":"mountain,hill,rock,... ","adminCodes1":{"ISO3166_2":"NY"},"countryName":"United States","fcodeName":"island","adminName1":"New York","lat":"44.97338","fcode":"ISL"},{"adminCode1":"WA","lng":"-119.61919","geonameId":5787503,"toponymName":"Blalock Island","countryId":"6252001","fcl":"T","population":0,"countryCode":"US","name":"Blalock Island","fclName":"mountain,hill,rock,... ","adminCodes1":{"ISO3166_2":"WA"},"countryName":"United States","fcodeName":"island","adminName1":"Washington","lat":"45.91458","fcode":"ISL"},{"adminCode1":"VT","lng":"-73.3268","geonameId":5238080,"toponymName":"Long Point Island","countryId":"6252001","fcl":"T","population":0,"countryCode":"US","name":"Long Point Island","fclName":"mountain,hill,rock,... ","adminCodes1":{"ISO3166_2":"VT"},"countryName":"United States","fcodeName":"island","adminName1":"Vermont","lat":"44.74782","fcode":"ISL"},{"adminCode1":"SC","lng":"-79.7948","geonameId":4583114,"toponymName":"Isle of Palms","countryId":"6252001","fcl":"P","population":4133,"countryCode":"US","name":"Isle of Palms","fclName":"city, village,...","adminCodes1":{"ISO3166_2":"SC"},"countryName":"United States","fcodeName":"populated place","adminName1":"South Carolina","lat":"32.78684","fcode":"PPL"},{"adminCode1":"GA","lng":"-81.79845","geonameId":4211933,"toponymName":"Negro Island","countryId":"6252001","fcl":"T","population":0,"countryCode":"US","name":"Negro Island","fclName":"mountain,hill,rock,... ","adminCodes1":{"ISO3166_2":"GA"},"countryName":"United States","fcodeName":"island","adminName1":"Georgia","lat":"31.6591","fcode":"ISL"},{"adminCode1":"GA","lng":"-81.7015","geonameId":4215984,"toponymName":"Pine Island","countryId":"6252001","fcl":"T","population":0,"countryCode":"US","name":"Pine Island","fclName":"mountain,hill,rock,... ","adminCodes1":{"ISO3166_2":"GA"},"countryName":"United States","fcodeName":"island","adminName1":"Georgia","lat":"31.65216","fcode":"ISL"},{"adminCode1":"GA","lng":"-81.80234","geonameId":4217069,"toponymName":"Popple Island","countryId":"6252001","fcl":"T","population":0,"countryCode":"US","name":"Popple Island","fclName":"mountain,hill,rock,... ","adminCodes1":{"ISO3166_2":"GA"},"countryName":"United States","fcodeName":"island","adminName1":"Georgia","lat":"31.66244","fcode":"ISL"},{"adminCode1":"GA","lng":"-81.79261","geonameId":4222666,"toponymName":"Shoe Island","countryId":"6252001","fcl":"T","population":0,"countryCode":"US","name":"Shoe Island","fclName":"mountain,hill,rock,... ","adminCodes1":{"ISO3166_2":"GA"},"countryName":"United States","fcodeName":"island","adminName1":"Georgia","lat":"31.65299","fcode":"ISL"},{"adminCode1":"GA","lng":"-81.70122","geonameId":4197117,"toponymName":"Gill Island","countryId":"6252001","fcl":"T","population":0,"countryCode":"US","name":"Gill Island","fclName":"mountain,hill,rock,... ","adminCodes1":{"ISO3166_2":"GA"},"countryName":"United States","fcodeName":"island","adminName1":"Georgia","lat":"31.62855","fcode":"ISL"},{"adminCode1":"GA","lng":"-81.77956","geonameId":4199062,"toponymName":"Hanner Island","countryId":"6252001","fcl":"T","population":0,"countryCode":"US","name":"Hanner Island","fclName":"mountain,hill,rock,... ","adminCodes1":{"ISO3166_2":"GA"},"countryName":"United States","fcodeName":"island","adminName1":"Georgia","lat":"31.63327","fcode":"ISL"},{"adminCode1":"GA","lng":"-81.70095","geonameId":4201175,"toponymName":"Honey Island","countryId":"6252001","fcl":"T","population":0,"countryCode":"US","name":"Honey Island","fclName":"mountain,hill,rock,... ","adminCodes1":{"ISO3166_2":"GA"},"countryName":"United States","fcodeName":"island","adminName1":"Georgia","lat":"31.61411","fcode":"ISL"},{"adminCode1":"GA","lng":"-81.71622","geonameId":4203424,"toponymName":"Joyner Island","countryId":"6252001","fcl":"T","population":0,"countryCode":"US","name":"Joyner Island","fclName":"mountain,hill,rock,... ","adminCodes1":{"ISO3166_2":"GA"},"countryName":"United States","fcodeName":"island","adminName1":"Georgia","lat":"31.59994","fcode":"ISL"},{"adminCode1":"GA","lng":"-81.744","geonameId":4185008,"toponymName":"Buck Island","countryId":"6252001","fcl":"T","population":0,"countryCode":"US","name":"Buck Island","fclName":"mountain,hill,rock,... ","adminCodes1":{"ISO3166_2":"GA"},"countryName":"United States","fcodeName":"island","adminName1":"Georgia","lat":"31.63244","fcode":"ISL"},{"adminCode1":"GA","lng":"-81.68289","geonameId":4185142,"toponymName":"Bug Island","countryId":"6252001","fcl":"T","population":0,"countryCode":"US","name":"Bug Island","fclName":"mountain,hill,rock,... ","adminCodes1":{"ISO3166_2":"GA"},"countryName":"United States","fcodeName":"island","adminName1":"Georgia","lat":"31.57522","fcode":"ISL"},{"adminCode1":"GA","lng":"-81.88039","geonameId":4186488,"toponymName":"Carter Island","countryId":"6252001","fcl":"T","population":0,"countryCode":"US","name":"Carter Island","fclName":"mountain,hill,rock,... ","adminCodes1":{"ISO3166_2":"GA"},"countryName":"United States","fcodeName":"island","adminName1":"Georgia","lat":"31.71688","fcode":"ISL"},{"adminCode1":"CT","lng":"-72.74593","geonameId":4832317,"toponymName":"Cut in Two Island","countryId":"6252001","fcl":"T","population":0,"countryCode":"US","name":"Cut in Two Island","fclName":"mountain,hill,rock,... ","adminCodes1":{"ISO3166_2":"CT"},"countryName":"United States","fcodeName":"island","adminName1":"Connecticut","lat":"41.25843","fcode":"ISL"},{"adminCode1":"RI","lng":"-71.38561","geonameId":5223884,"toponymName":"Pawtuxet Neck","countryId":"6252001","fcl":"T","population":0,"countryCode":"US","name":"Pawtuxet Neck","fclName":"mountain,hill,rock,... ","adminCodes1":{"ISO3166_2":"RI"},"countryName":"United States","fcodeName":"cape","adminName1":"Rhode Island","lat":"41.76399","fcode":"CAPE"},{"adminCode1":"AK","lng":"-161.74417","geonameId":5860823,"toponymName":"Dolgoi Island","countryId":"6252001","fcl":"T","population":0,"countryCode":"US","name":"Dolgoi Island","fclName":"mountain,hill,rock,... ","adminCodes1":{"ISO3166_2":"AK"},"countryName":"United States","fcodeName":"island","adminName1":"Alaska","lat":"55.12444","fcode":"ISL"},{"adminCode1":"RI","lng":"-71.1791","geonameId":5223182,"toponymName":"Long Pond","countryId":"6252001","fcl":"H","population":0,"countryCode":"US","name":"Long Pond","fclName":"stream, lake, ...","adminCodes1":{"ISO3166_2":"RI"},"countryName":"United States","fcodeName":"lake","adminName1":"Rhode Island","lat":"41.46557","fcode":"LK"},{"adminCode1":"AK","lng":"-132.35222","geonameId":5554268,"toponymName":"Kasaan Island","countryId":"6252001","fcl":"T","population":0,"countryCode":"US","name":"Kasaan Island","fclName":"mountain,hill,rock,... ","adminCodes1":{"ISO3166_2":"AK"},"countryName":"United States","fcodeName":"island","adminName1":"Alaska","lat":"55.4975","fcode":"ISL"},{"adminCode1":"TN","lng":"-84.50327","geonameId":4638044,"toponymName":"Long Island Wildlife Management Area","countryId":"6252001","fcl":"L","population":0,"countryCode":"US","name":"Long Island Wildlife Management Area","fclName":"parks,area, ...","adminCodes1":{"ISO3166_2":"TN"},"countryName":"United States","fcodeName":"park","adminName1":"Tennessee","lat":"35.82369","fcode":"PRK"},{"adminCode1":"IA","lng":"-96.4017","geonameId":4867361,"toponymName":"Mile Long Island Wildlife Management Area","countryId":"6252001","fcl":"L","population":0,"countryCode":"US","name":"Mile Long Island Wildlife Management Area","fclName":"parks,area, ...","adminCodes1":{"ISO3166_2":"IA"},"countryName":"United States","fcodeName":"park","adminName1":"Iowa","lat":"42.33888","fcode":"PRK"},{"adminCode1":"MN","lng":"-90.75845","geonameId":5035479,"toponymName":"Long Island Lake","countryId":"6252001","fcl":"H","population":0,"countryCode":"US","name":"Long Island Lake","fclName":"stream, lake, ...","adminCodes1":{"ISO3166_2":"MN"},"countryName":"United States","fcodeName":"lake","adminName1":"Minnesota","lat":"48.00833","fcode":"LK"},{"adminCode1":"IL","lng":"-91.47366","geonameId":9689051,"toponymName":"Long Island Lake","countryId":"6252001","fcl":"H","population":0,"countryCode":"US","name":"Long Island Lake","fclName":"stream, lake, ...","adminCodes1":{"ISO3166_2":"IL"},"countryName":"United States","fcodeName":"lake","adminName1":"Illinois","lat":"40.04209","fcode":"LK"},{"adminCode1":"RI","lng":"-71.56654","geonameId":5223176,"toponymName":"Long Lot Pond","countryId":"6252001","fcl":"H","population":0,"countryCode":"US","name":"Long Lot Pond","fclName":"stream, lake, ...","adminCodes1":{"ISO3166_2":"RI"},"countryName":"United States","fcodeName":"lake","adminName1":"Rhode Island","lat":"41.21183","fcode":"LK"},{"adminCode1":"RI","lng":"-71.81339","geonameId":5223183,"toponymName":"Long Pond","countryId":"6252001","fcl":"H","population":0,"countryCode":"US","name":"Long Pond","fclName":"stream, lake, ...","adminCodes1":{"ISO3166_2":"RI"},"countryName":"United States","fcodeName":"lake","adminName1":"Rhode Island","lat":"41.34145","fcode":"LK"},{"adminCode1":"RI","lng":"-71.64587","geonameId":5223184,"toponymName":"Long Pond","countryId":"6252001","fcl":"H","population":0,"countryCode":"US","name":"Long Pond","fclName":"stream, lake, ...","adminCodes1":{"ISO3166_2":"RI"},"countryName":"United States","fcodeName":"lake","adminName1":"Rhode Island","lat":"41.50735","fcode":"LK"},{"adminCode1":"RI","lng":"-71.55352","geonameId":5223185,"toponymName":"Long Pond","countryId":"6252001","fcl":"H","population":0,"countryCode":"US","name":"Long Pond","fclName":"stream, lake, ...","adminCodes1":{"ISO3166_2":"RI"},"countryName":"United States","fcodeName":"lake","adminName1":"Rhode Island","lat":"41.41041","fcode":"LK"},{"adminCode1":"RI","lng":"-71.77332","geonameId":5223186,"toponymName":"Long Pond","countryId":"6252001","fcl":"H","population":0,"countryCode":"US","name":"Long Pond","fclName":"stream, lake, ...","adminCodes1":{"ISO3166_2":"RI"},"countryName":"United States","fcodeName":"lake","adminName1":"Rhode Island","lat":"41.50654","fcode":"LK"},{"adminCode1":"RI","lng":"-71.42922","geonameId":5223187,"toponymName":"Long Pond (historical)","countryId":"6252001","fcl":"H","population":0,"countryCode":"US","name":"Long Pond (historical)","fclName":"stream, lake, ...","adminCodes1":{"ISO3166_2":"RI"},"countryName":"United States","fcodeName":"lake","adminName1":"Rhode Island","lat":"41.80677","fcode":"LK"},{"adminCode1":"FL","lng":"-80.54978","geonameId":4168796,"toponymName":"Plantation Key","countryId":"6252001","fcl":"T","population":0,"countryCode":"US","name":"Plantation Key","fclName":"mountain,hill,rock,... ","adminCodes1":{"ISO3166_2":"FL"},"countryName":"United States","fcodeName":"island","adminName1":"Florida","lat":"24.97958","fcode":"ISL"},{"adminCode1":"SD","lng":"-100.25291","geonameId":5764698,"toponymName":"Farm Island","countryId":"6252001","fcl":"T","population":0,"countryCode":"US","name":"Farm Island","fclName":"mountain,hill,rock,... ","adminCodes1":{"ISO3166_2":"SD"},"countryName":"United States","fcodeName":"island","adminName1":"South Dakota","lat":"44.33609","fcode":"ISL"},{"adminCode1":"ME","lng":"-70.39838","geonameId":4980812,"toponymName":"Timber Island","countryId":"6252001","fcl":"T","population":0,"countryCode":"US","name":"Timber Island","fclName":"mountain,hill,rock,... ","adminCodes1":{"ISO3166_2":"ME"},"countryName":"United States","fcodeName":"island","adminName1":"Maine","lat":"43.39481","fcode":"ISL"},{"adminCode1":"AK","lng":"-130.99056","geonameId":5845674,"toponymName":"De Long Islands","countryId":"6252001","fcl":"T","population":0,"countryCode":"US","name":"De Long Islands","fclName":"mountain,hill,rock,... ","adminCodes1":{"ISO3166_2":"AK"},"countryName":"United States","fcodeName":"island","adminName1":"Alaska","lat":"54.9625","fcode":"ISL"},{"adminCode1":"NC","lng":"-80.99341","geonameId":4477113,"toponymName":"Long Island","countryId":"6252001","fcl":"P","population":0,"countryCode":"US","name":"Long Island","fclName":"city, village,...","adminCodes1":{"ISO3166_2":"NC"},"countryName":"United States","fcodeName":"populated place","adminName1":"North Carolina","lat":"35.67791","fcode":"PPL"},{"adminCode1":"NC","lng":"-76.9805","geonameId":4477112,"toponymName":"Long Island","countryId":"6252001","fcl":"T","population":0,"countryCode":"US","name":"Long Island","fclName":"mountain,hill,rock,... ","adminCodes1":{"ISO3166_2":"NC"},"countryName":"United States","fcodeName":"island","adminName1":"North Carolina","lat":"34.681","fcode":"ISL"},{"adminCode1":"AK","lng":"-152.16611","geonameId":5858207,"toponymName":"Bull Island","countryId":"6252001","fcl":"T","population":0,"countryCode":"US","name":"Bull Island","fclName":"mountain,hill,rock,... ","adminCodes1":{"ISO3166_2":"AK"},"countryName":"United States","fcodeName":"island","adminName1":"Alaska","lat":"65.17083","fcode":"ISL"},{"adminCode1":"AK","lng":"-147.74639","geonameId":5867740,"toponymName":"Lone Island","countryId":"6252001","fcl":"T","population":0,"countryCode":"US","name":"Lone Island","fclName":"mountain,hill,rock,... ","adminCodes1":{"ISO3166_2":"AK"},"countryName":"United States","fcodeName":"island","adminName1":"Alaska","lat":"60.68333","fcode":"ISL"},{"adminCode1":"FL","lng":"-81.51731","geonameId":4161698,"toponymName":"Le Baron Island","countryId":"6252001","fcl":"T","population":0,"countryCode":"US","name":"Le Baron Island","fclName":"mountain,hill,rock,... ","adminCodes1":{"ISO3166_2":"FL"},"countryName":"United States","fcodeName":"island","adminName1":"Florida","lat":"30.40163","fcode":"ISL"},{"adminCode1":"VT","lng":"-73.27791","geonameId":5239191,"toponymName":"North Hero Island","countryId":"6252001","fcl":"T","population":0,"countryCode":"US","name":"North Hero Island","fclName":"mountain,hill,rock,... ","adminCodes1":{"ISO3166_2":"VT"},"countryName":"United States","fcodeName":"island","adminName1":"Vermont","lat":"44.84921","fcode":"ISL"},{"adminCode1":"ME","lng":"-68.81475","geonameId":4974986,"toponymName":"Penobscot Island","countryId":"6252001","fcl":"T","population":0,"countryCode":"US","name":"Penobscot Island","fclName":"mountain,hill,rock,... ","adminCodes1":{"ISO3166_2":"ME"},"countryName":"United States","fcodeName":"island","adminName1":"Maine","lat":"44.09064","fcode":"ISL"},{"adminCode1":"SC","lng":"-80.799","geonameId":4585749,"toponymName":"Long Island","countryId":"6252001","fcl":"T","population":0,"countryCode":"US","name":"Long Island","fclName":"mountain,hill,rock,... ","adminCodes1":{"ISO3166_2":"SC"},"countryName":"United States","fcodeName":"island","adminName1":"South Carolina","lat":"32.14826","fcode":"ISL"},{"adminCode1":"IA","lng":"-94.88665","geonameId":4865388,"toponymName":"Long Island Marsh Public Hunting Area","countryId":"6252001","fcl":"L","population":0,"countryCode":"US","name":"Long Island Marsh Public Hunting Area","fclName":"parks,area, ...","adminCodes1":{"ISO3166_2":"IA"},"countryName":"United States","fcodeName":"area","adminName1":"Iowa","lat":"43.1833","fcode":"AREA"},{"adminCode1":"FL","lng":"-82.64177","geonameId":4162775,"toponymName":"Longboat Key","countryId":"6252001","fcl":"T","population":0,"countryCode":"US","name":"Longboat Key","fclName":"mountain,hill,rock,... ","adminCodes1":{"ISO3166_2":"FL"},"countryName":"United States","fcodeName":"island","adminName1":"Florida","lat":"27.39088","fcode":"ISL"},{"adminCode1":"CT","lng":"-73.40095","geonameId":4839831,"toponymName":"Norwalk Islands","countryId":"6252001","fcl":"T","population":0,"countryCode":"US","name":"Norwalk Islands","fclName":"mountain,hill,rock,... ","adminCodes1":{"ISO3166_2":"CT"},"countryName":"United States","fcodeName":"island","adminName1":"Connecticut","lat":"41.06315","fcode":"ISL"},{"adminCode1":"RI","lng":"-71.43478","geonameId":5223173,"toponymName":"Lone Tree Point","countryId":"6252001","fcl":"T","population":0,"countryCode":"US","name":"Lone Tree Point","fclName":"mountain,hill,rock,... ","adminCodes1":{"ISO3166_2":"RI"},"countryName":"United States","fcodeName":"cape","adminName1":"Rhode Island","lat":"41.56121","fcode":"CAPE"}]}
