{"totalResultsCount":34,"geonames":[{"adminCode1":"OH","lng":"-83.42464","geonameId":4522170,"toponymName":"Range","countryId":"6252001","fcl":"P","population":0,"countryCode":"US","name":"Range","fclName":"city, village,...","adminCodes1":{"ISO3166_2":"OH"},"countryName":"United States","fcodeName":"populated place","adminName1":"Ohio","lat":"39.732","fcode":"PPL"},{"adminCode1":"MT","lng":"-112.09471","geonameId":5678660,"toponymName":"Snowcrest Range","countryId":"6252001","fcl":"T","population":0,"countryCode":"US","name":"Snowcrest Range","fclName":"mountain,hill,rock,... ","adminCodes1":{"ISO3166_2":"MT"},"countryName":"United States","fcodeName":"mountains","adminName1":"Montana","lat":"44.84269","fcode":"MTS"},{"adminCode1":"MT","lng":"-112.23444","geonameId":5674978,"toponymName":"Ruby Range","countryId":"6252001","fcl":"T","population":0,"countryCode":"US","name":"Ruby Range","fclName":"mountain,hill,rock,... ","adminCodes1":{"ISO3166_2":"MT"},"countryName":"United States","fcodeName":"mountains","adminName1":"Montana","lat":"45.28409","fcode":"MTS"},{"adminCode1":"MT","lng":"-111.85692","geonameId":5655159,"toponymName":"Gravelly Range","countryId":"6252001","fcl":"T","population":0,"countryCode":"US","name":"Gravelly Range","fclName":"mountain,hill,rock,... ","adminCodes1":{"ISO3166_2":"MT"},"countryName":"United States","fcodeName":"mountains","adminName1":"Montana","lat":"45.08909","fcode":"MTS"},{"adminCode1":"MT","lng":"-111.96803","geonameId":5655385,"toponymName":"Greenhorn Range","countryId":"6252001","fcl":"T","population":0,"countryCode":"US","name":"Greenhorn Range","fclName":"mountain,hill,rock,... ","adminCodes1":{"ISO3166_2":"MT"},"countryName":"United States","fcodeName":"mountains","adminName1":"Montana","lat":"45.10881","fcode":"MTS"},{"adminCode1":"OH","lng":"-83.35742","geonameId":4508383,"toponymName":"Chenoweth","countryId":"6252001","fcl":"P","population":0,"countryCode":"US","name":"Chenoweth","fclName":"city, village,...","adminCodes1":{"ISO3166_2":"OH"},"countryName":"United States","fcodeName":"populated place","adminName1":"Ohio","lat":"39.73117","fcode":"PPL"},{"adminCode1":"OH","lng":"-83.4777","geonameId":4518289,"toponymName":"Midway","countryId":"6252001","fcl":"P","population":327,"countryCode":"US","name":"Midway","fclName":"city, village,...","adminCodes1":{"ISO3166_2":"OH"},"countryName":"United States","fcodeName":"populated place","adminName1":"Ohio","lat":"39.73339","fcode":"PPL"},{"adminCode1":"OH","lng":"-83.41603","geonameId":4522173,"toponymName":"Township of Range","countryId":"6252001","fcl":"A","population":0,"countryCode":"US","name":"Range Township","fclName":"country, state, region,...","adminCodes1":{"ISO3166_2":"OH"},"countryName":"United States","fcodeName":"third-order administrative division","adminName1":"Ohio","lat":"39.74284","fcode":"ADM3"},{"adminCode1":"MT","lng":"-111.97443","geonameId":5682677,"toponymName":"Tobacco Root Mountains","countryId":"6252001","fcl":"T","population":0,"countryCode":"US","name":"Tobacco Root Mountains","fclName":"mountain,hill,rock,... ","adminCodes1":{"ISO3166_2":"MT"},"countryName":"United States","fcodeName":"mountains","adminName1":"Montana","lat":"45.55437","fcode":"MTS"},{"adminCode1":"WY","lng":"-110.8841","geonameId":5825770,"toponymName":"Gallatin Range","countryId":"6252001","fcl":"T","population":0,"countryCode":"US","name":"Gallatin Range","fclName":"mountain,hill,rock,... ","adminCodes1":{"ISO3166_2":"WY"},"countryName":"United States","fcodeName":"mountains","adminName1":"Wyoming","lat":"44.9166","fcode":"MTS"},{"adminCode1":"MT","lng":"-111.5008","geonameId":5664314,"toponymName":"Madison Range","countryId":"6252001","fcl":"T","population":0,"countryCode":"US","name":"Madison Range","fclName":"mountain,hill,rock,... ","adminCodes1":{"ISO3166_2":"MT"},"countryName":"United States","fcodeName":"mountains","adminName1":"Montana","lat":"45.24993","fcode":"MTS"},{"adminCode1":"OH","lng":"-83.39353","geonameId":4506309,"toponymName":"Bethel","countryId":"6252001","fcl":"P","population":2530,"countryCode":"US","name":"Bethel","fclName":"city, village,...","adminCodes1":{"ISO3166_2":"OH"},"countryName":"United States","fcodeName":"populated place","adminName1":"Ohio","lat":"39.73034","fcode":"PPL"},{"adminCode1":"OH","lng":"-83.46492","geonameId":4522171,"toponymName":"Range Cemetery","countryId":"6252001","fcl":"S","population":0,"countryCode":"US","name":"Range Cemetery","fclName":"spot, building, farm","adminCodes1":{"ISO3166_2":"OH"},"countryName":"United States","fcodeName":"cemetery","adminName1":"Ohio","lat":"39.732","fcode":"CMTY"},{"adminCode1":"OH","lng":"-83.46797","geonameId":4509487,"toponymName":"Counts Cemetery","countryId":"6252001","fcl":"S","population":0,"countryCode":"US","name":"Counts Cemetery","fclName":"spot, building, farm","adminCodes1":{"ISO3166_2":"OH"},"countryName":"United States","fcodeName":"cemetery","adminName1":"Ohio","lat":"39.71589","fcode":"CMTY"},{"adminCode1":"OH","lng":"-83.4127","geonameId":4520450,"toponymName":"Old Johnston Cemetery","countryId":"6252001","fcl":"S","population":0,"countryCode":"US","name":"Old Johnston Cemetery","fclName":"spot, building, farm","adminCodes1":{"ISO3166_2":"OH"},"countryName":"United States","fcodeName":"cemetery","adminName1":"Ohio","lat":"39.79089","fcode":"CMTY"},{"adminCode1":"MT","lng":"-111.96275","geonameId":5684494,"toponymName":"Vigilante Forest Service Station","countryId":"6252001","fcl":"S","population":0,"countryCode":"US","name":"Vigilante Forest Service Station","fclName":"spot, building, farm","adminCodes1":{"ISO3166_2":"MT"},"countryName":"United States","fcodeName":"","adminName1":"Montana","lat":"45.0177"},{"adminCode1":"OH","lng":"-83.47655","geonameId":7245103,"toponymName":"Range Township Fire Department","countryId":"6252001","fcl":"S","population":0,"countryCode":"US","name":"Range Township Fire Department","fclName":"spot, building, farm","adminCodes1":{"ISO3166_2":"OH"},"countryName":"United States","fcodeName":"building(s)","adminName1":"Ohio","lat":"39.73362","fcode":"BLDG"},{"adminCode1":"OH","lng":"-83.42492","geonameId":4522172,"toponymName":"Range Post Office (historical)","countryId":"6252001","fcl":"S","population":0,"countryCode":"US","name":"Range Post Office (historical)","fclName":"spot, building, farm","adminCodes1":{"ISO3166_2":"OH"},"countryName":"United States","fcodeName":"post office","adminName1":"Ohio","lat":"39.732","fcode":"PO"},{"adminCode1":"IL","lng":"-89.72676","geonameId":4253070,"toponymName":"Wider Range School (historical)","countryId":"6252001","fcl":"S","population":0,"countryCode":"US","name":"Wider Range School (historical)","fclName":"spot, building, farm","adminCodes1":{"ISO3166_2":"IL"},"countryName":"United States","fcodeName":"school","adminName1":"Illinois","lat":"38.84394","fcode":"SCH"},{"adminCode1":"MT","lng":"-111.91969","geonameId":5684493,"toponymName":"Vigilante Experimental Range","countryId":"6252001","fcl":"S","population":0,"countryCode":"US","name":"Vigilante Experimental Range","fclName":"spot, building, farm","adminCodes1":{"ISO3166_2":"MT"},"countryName":"United States","fcodeName":"","adminName1":"Montana","lat":"44.98381"},{"adminCode1":"OH","lng":"-83.35742","geonameId":4505705,"toponymName":"Baldwin Cemetery","countryId":"6252001","fcl":"S","population":0,"countryCode":"US","name":"Baldwin Cemetery","fclName":"spot, building, farm","adminCodes1":{"ISO3166_2":"OH"},"countryName":"United States","fcodeName":"cemetery","adminName1":"Ohio","lat":"39.70089","fcode":"CMTY"},{"adminCode1":"OH","lng":"-83.39047","geonameId":4506339,"toponymName":"Bethel Cemetery","countryId":"6252001","fcl":"S","population":0,"countryCode":"US","name":"Bethel Cemetery","fclName":"spot, building, farm","adminCodes1":{"ISO3166_2":"OH"},"countryName":"United States","fcodeName":"cemetery","adminName1":"Ohio","lat":"39.73034","fcode":"CMTY"},{"adminCode1":"OH","lng":"-83.39325","geonameId":4506400,"toponymName":"Bethel Methodist Episcopal Church (historical)","countryId":"6252001","fcl":"S","population":0,"countryCode":"US","name":"Bethel Methodist Episcopal Church (historical)","fclName":"spot, building, farm","adminCodes1":{"ISO3166_2":"OH"},"countryName":"United States","fcodeName":"church","adminName1":"Ohio","lat":"39.73062","fcode":"CH"},{"adminCode1":"OH","lng":"-83.38297","geonameId":4515623,"toponymName":"Johnston-McClimans Cemetery","countryId":"6252001","fcl":"S","population":0,"countryCode":"US","name":"Johnston-McClimans Cemetery","fclName":"spot, building, farm","adminCodes1":{"ISO3166_2":"OH"},"countryName":"United States","fcodeName":"cemetery","adminName1":"Ohio","lat":"39.76728","fcode":"CMTY"},{"adminCode1":"OH","lng":"-83.44964","geonameId":4508003,"toponymName":"Carson Cemetery","countryId":"6252001","fcl":"S","population":0,"countryCode":"US","name":"Carson Cemetery","fclName":"spot, building, farm","adminCodes1":{"ISO3166_2":"OH"},"countryName":"United States","fcodeName":"cemetery","adminName1":"Ohio","lat":"39.75978","fcode":"CMTY"},{"adminCode1":"OH","lng":"-83.35825","geonameId":4508392,"toponymName":"Chenoweth Post Office (historical)","countryId":"6252001","fcl":"S","population":0,"countryCode":"US","name":"Chenoweth Post Office (historical)","fclName":"spot, building, farm","adminCodes1":{"ISO3166_2":"OH"},"countryName":"United States","fcodeName":"post office","adminName1":"Ohio","lat":"39.73062","fcode":"PO"},{"adminCode1":"OH","lng":"-83.44659","geonameId":4509267,"toponymName":"Concord Methodist Episcopal Church (historical)","countryId":"6252001","fcl":"S","population":0,"countryCode":"US","name":"Concord Methodist Episcopal Church (historical)","fclName":"spot, building, farm","adminCodes1":{"ISO3166_2":"OH"},"countryName":"United States","fcodeName":"church","adminName1":"Ohio","lat":"39.76645","fcode":"CH"},{"adminCode1":"OH","lng":"-83.44325","geonameId":4509272,"toponymName":"Concord School (historical)","countryId":"6252001","fcl":"S","population":0,"countryCode":"US","name":"Concord School (historical)","fclName":"spot, building, farm","adminCodes1":{"ISO3166_2":"OH"},"countryName":"United States","fcodeName":"school","adminName1":"Ohio","lat":"39.76228","fcode":"SCH"},{"adminCode1":"OH","lng":"-83.42631","geonameId":4524606,"toponymName":"Shepherd Cemetery","countryId":"6252001","fcl":"S","population":0,"countryCode":"US","name":"Shepherd Cemetery","fclName":"spot, building, farm","adminCodes1":{"ISO3166_2":"OH"},"countryName":"United States","fcodeName":"cemetery","adminName1":"Ohio","lat":"39.77728","fcode":"CMTY"},{"adminCode1":"OH","lng":"-83.47742","geonameId":4518293,"toponymName":"Midway Elementary School","countryId":"6252001","fcl":"S","population":0,"countryCode":"US","name":"Midway Elementary School","fclName":"spot, building, farm","adminCodes1":{"ISO3166_2":"OH"},"countryName":"United States","fcodeName":"school","adminName1":"Ohio","lat":"39.73145","fcode":"SCH"},{"adminCode1":"OH","lng":"-83.4377","geonameId":8502012,"toponymName":"Bock Farms","countryId":"6252001","fcl":"S","population":0,"countryCode":"US","name":"Bock Farms","fclName":"spot, building, farm","adminCodes1":{"ISO3166_2":"OH"},"countryName":"United States","fcodeName":"farm","adminName1":"Ohio","lat":"39.7486","fcode":"FRM"},{"adminCode1":"OH","lng":"-83.4125","geonameId":8502016,"toponymName":"Century Two Farms","countryId":"6252001","fcl":"S","population":0,"countryCode":"US","name":"Century Two Farms","fclName":"spot, building, farm","adminCodes1":{"ISO3166_2":"OH"},"countryName":"United States","fcodeName":"farm","adminName1":"Ohio","lat":"39.7554","fcode":"FRM"},{"adminCode1":"OH","lng":"-83.4369","geonameId":8502017,"toponymName":"Clearview Farm","countryId":"6252001","fcl":"S","population":0,"countryCode":"US","name":"Clearview Farm","fclName":"spot, building, farm","adminCodes1":{"ISO3166_2":"OH"},"countryName":"United States","fcodeName":"farm","adminName1":"Ohio","lat":"39.7633","fcode":"FRM"},{"adminCode1":"WY","lng":"-110.98133","geonameId":5831430,"toponymName":"Madison Range Overlook","countryId":"6252001","fcl":"S","population":0,"countryCode":"US","name":"Madison Range Overlook","fclName":"spot, building, farm","adminCodes1":{"ISO3166_2":"WY"},"countryName":"United States","fcodeName":"","adminName1":"Wyoming","lat":"44.6691"}]}
