{"totalResultsCount":94,"geonames":[{"adminCode1":"091","lng":"-66.49267","geonameId":4566138,"toponymName":"Manatí Municipio","countryId":"4566966","fcl":"A","population":44113,"countryCode":"PR","name":"Manatí","fclName":"country, state, region,...","adminCodes1":{},"countryName":"Puerto Rico","fcodeName":"first-order administrative division","adminName1":"Manatí","lat":"18.41884","fcode":"ADM1"},{"adminCode1":"091","lng":"-66.49212","geonameId":4566137,"toponymName":"Manatí","countryId":"4566966","fcl":"P","population":16092,"countryCode":"PR","name":"Manatí","fclName":"city, village,...","adminCodes1":{},"countryName":"Puerto Rico","fcodeName":"seat of a first-order administrative division","adminName1":"Manatí","lat":"18.42745","fcode":"PPLA"},{"adminCode1":"091","lng":"-66.4863","geonameId":7268611,"toponymName":"Manatí Barrio-Pueblo","countryId":"4566966","fcl":"A","population":0,"countryCode":"PR","name":"Manatí Barrio-Pueblo","fclName":"country, state, region,...","adminCodes1":{},"countryName":"Puerto Rico","fcodeName":"second-order administrative division","adminName1":"Manatí","lat":"18.43104","fcode":"ADM2"},{"adminCode1":"091","lng":"-66.46094","geonameId":7268116,"toponymName":"Coto Norte Barrio","countryId":"4566966","fcl":"A","population":0,"countryCode":"PR","name":"Coto Norte Barrio","fclName":"country, state, region,...","adminCodes1":{},"countryName":"Puerto Rico","fcodeName":"second-order administrative division","adminName1":"Manatí","lat":"18.437","fcode":"ADM2"},{"adminCode1":"091","lng":"-66.46599","geonameId":7268117,"toponymName":"Coto Sur Barrio","countryId":"4566966","fcl":"A","population":0,"countryCode":"PR","name":"Coto Sur Barrio","fclName":"country, state, region,...","adminCodes1":{},"countryName":"Puerto Rico","fcodeName":"second-order administrative division","adminName1":"Manatí","lat":"18.41269","fcode":"ADM2"},{"adminCode1":"091","lng":"-66.52578","geonameId":7268224,"toponymName":"Bajura Adentro Barrio","countryId":"4566966","fcl":"A","population":0,"countryCode":"PR","name":"Bajura Adentro Barrio","fclName":"country, state, region,...","adminCodes1":{},"countryName":"Puerto Rico","fcodeName":"second-order administrative division","adminName1":"Manatí","lat":"18.4105","fcode":"ADM2"},{"adminCode1":"091","lng":"-66.51167","geonameId":7268225,"toponymName":"Bajura Afuera Barrio","countryId":"4566966","fcl":"A","population":0,"countryCode":"PR","name":"Bajura Afuera Barrio","fclName":"country, state, region,...","adminCodes1":{},"countryName":"Puerto Rico","fcodeName":"second-order administrative division","adminName1":"Manatí","lat":"18.43228","fcode":"ADM2"},{"adminCode1":"091","lng":"-66.51479","geonameId":7269036,"toponymName":"Tierras Nuevas Poniente Barrio","countryId":"4566966","fcl":"A","population":0,"countryCode":"PR","name":"Tierras Nuevas Poniente Barrio","fclName":"country, state, region,...","adminCodes1":{},"countryName":"Puerto Rico","fcodeName":"second-order administrative division","adminName1":"Manatí","lat":"18.46338","fcode":"ADM2"},{"adminCode1":"091","lng":"-66.46977","geonameId":7269037,"toponymName":"Tierras Nuevas Saliente Barrio","countryId":"4566966","fcl":"A","population":0,"countryCode":"PR","name":"Tierras Nuevas Saliente Barrio","fclName":"country, state, region,...","adminCodes1":{},"countryName":"Puerto Rico","fcodeName":"second-order administrative division","adminName1":"Manatí","lat":"18.45882","fcode":"ADM2"},{"adminCode1":"091","lng":"-66.51138","geonameId":7268893,"toponymName":"Río Arriba Poniente Barrio","countryId":"4566966","fcl":"A","population":0,"countryCode":"PR","name":"Río Arriba Poniente Barrio","fclName":"country, state, region,...","adminCodes1":{},"countryName":"Puerto Rico","fcodeName":"second-order administrative division","adminName1":"Manatí","lat":"18.38251","fcode":"ADM2"},{"adminCode1":"091","lng":"-66.47132","geonameId":7268894,"toponymName":"Río Arriba Saliente Barrio","countryId":"4566966","fcl":"A","population":0,"countryCode":"PR","name":"Río Arriba Saliente Barrio","fclName":"country, state, region,...","adminCodes1":{},"countryName":"Puerto Rico","fcodeName":"second-order administrative division","adminName1":"Manatí","lat":"18.38684","fcode":"ADM2"},{"adminCode1":"091","lng":"-66.49212","geonameId":4566139,"toponymName":"Municipio de Manati","countryId":"4566966","fcl":"A","population":0,"countryCode":"PR","name":"Municipio de Manati","fclName":"country, state, region,...","adminCodes1":{},"countryName":"Puerto Rico","fcodeName":"administrative division","adminName1":"Manatí","lat":"18.42745","fcode":"ADMD"},{"adminCode1":"091","lng":"-66.44128","geonameId":4565886,"toponymName":"Laguna Tortuguero","countryId":"4566966","fcl":"H","population":0,"countryCode":"PR","name":"Laguna Tortuguero","fclName":"stream, lake, ...","adminCodes1":{},"countryName":"Puerto Rico","fcodeName":"lake","adminName1":"Manatí","lat":"18.46328","fcode":"LK"},{"adminCode1":"091","lng":"-66.48545","geonameId":4566599,"toponymName":"Parque Vending","countryId":"4566966","fcl":"L","population":0,"countryCode":"PR","name":"Parque Vending","fclName":"parks,area, ...","adminCodes1":{},"countryName":"Puerto Rico","fcodeName":"park","adminName1":"Manatí","lat":"18.42856","fcode":"PRK"},{"adminCode1":"091","lng":"-66.45323","geonameId":4568060,"toponymName":"El Salto","countryId":"4566966","fcl":"H","population":0,"countryCode":"PR","name":"El Salto","fclName":"stream, lake, ...","adminCodes1":{},"countryName":"Puerto Rico","fcodeName":"lake","adminName1":"Manatí","lat":"18.39106","fcode":"LK"},{"adminCode1":"091","lng":"-66.43962","geonameId":7316025,"toponymName":"Laguna Tortuguero Nature Reserve","countryId":"4566966","fcl":"L","population":0,"countryCode":"PR","name":"Laguna Tortuguero Nature Reserve","fclName":"parks,area, ...","adminCodes1":{},"countryName":"Puerto Rico","fcodeName":"park","adminName1":"Manatí","lat":"18.46328","fcode":"PRK"},{"adminCode1":"091","lng":"-66.49479","geonameId":7268811,"toponymName":"Pueblo Poniente Subbarrio","countryId":"4566966","fcl":"A","population":0,"countryCode":"PR","name":"Pueblo Poniente Subbarrio","fclName":"country, state, region,...","adminCodes1":{},"countryName":"Puerto Rico","fcodeName":"third-order administrative division","adminName1":"Manatí","lat":"18.42812","fcode":"ADM3"},{"adminCode1":"091","lng":"-66.48406","geonameId":7268812,"toponymName":"Pueblo Saliente Subbarrio","countryId":"4566966","fcl":"A","population":0,"countryCode":"PR","name":"Pueblo Saliente Subbarrio","fclName":"country, state, region,...","adminCodes1":{},"countryName":"Puerto Rico","fcodeName":"third-order administrative division","adminName1":"Manatí","lat":"18.43177","fcode":"ADM3"},{"adminCode1":"091","lng":"-66.38767","geonameId":4568535,"toponymName":"Municipio de Vega Baja","countryId":"4566966","fcl":"A","population":0,"countryCode":"PR","name":"Municipio de Vega Baja","fclName":"country, state, region,...","adminCodes1":{},"countryName":"Puerto Rico","fcodeName":"administrative division","adminName1":"Manatí","lat":"18.44439","fcode":"ADMD"},{"adminCode1":"091","lng":"-66.53323","geonameId":4565078,"toponymName":"Río Grande de Manati","countryId":"4566966","fcl":"H","population":0,"countryCode":"PR","name":"Río Grande de Manati","fclName":"stream, lake, ...","adminCodes1":{},"countryName":"Puerto Rico","fcodeName":"stream","adminName1":"Manatí","lat":"18.48161","fcode":"STM"},{"adminCode1":"091","lng":"-66.48239","geonameId":7276368,"toponymName":"Manatí Zona Urbana","countryId":"4566966","fcl":"P","population":0,"countryCode":"PR","name":"Manatí Zona Urbana","fclName":"city, village,...","adminCodes1":{},"countryName":"Puerto Rico","fcodeName":"populated place","adminName1":"Manatí","lat":"18.42829","fcode":"PPL"},{"adminCode1":"091","lng":"-66.50989","geonameId":4565780,"toponymName":"La Luisa","countryId":"4566966","fcl":"P","population":2887,"countryCode":"PR","name":"La Luisa","fclName":"city, village,...","adminCodes1":{},"countryName":"Puerto Rico","fcodeName":"populated place","adminName1":"Manatí","lat":"18.44884","fcode":"PPL"},{"adminCode1":"091","lng":"-66.4885","geonameId":4568399,"toponymName":"Tierras Nuevas Poniente","countryId":"4566966","fcl":"P","population":2366,"countryCode":"PR","name":"Tierras Nuevas Poniente","fclName":"city, village,...","adminCodes1":{},"countryName":"Puerto Rico","fcodeName":"populated place","adminName1":"Manatí","lat":"18.46189","fcode":"PPL"},{"adminCode1":"017","lng":"-66.55156","geonameId":4568745,"toponymName":"WBQN-AM (Barceloneta-Manati)","countryId":"4566966","fcl":"S","population":0,"countryCode":"PR","name":"WBQN-AM (Barceloneta-Manati)","fclName":"spot, building, farm","adminCodes1":{},"countryName":"Puerto Rico","fcodeName":"tower","adminName1":"Barceloneta","lat":"18.43772","fcode":"TOWR"},{"adminCode1":"039","lng":"-66.53823","geonameId":4568839,"toponymName":"WNRT-FM (Manati)","countryId":"4566966","fcl":"S","population":0,"countryCode":"PR","name":"WNRT-FM (Manati)","fclName":"spot, building, farm","adminCodes1":{},"countryName":"Puerto Rico","fcodeName":"tower","adminName1":"Ciales","lat":"18.2594","fcode":"TOWR"},{"adminCode1":"091","lng":"-66.52628","geonameId":4566140,"toponymName":"Punta Manati","countryId":"4566966","fcl":"T","population":0,"countryCode":"PR","name":"Punta Manati","fclName":"mountain,hill,rock,... ","adminCodes1":{},"countryName":"Puerto Rico","fcodeName":"cape","adminName1":"Manatí","lat":"18.48467","fcode":"CAPE"},{"adminCode1":"091","lng":"-66.48628","geonameId":4568520,"toponymName":"Valles de Manati","countryId":"4566966","fcl":"P","population":0,"countryCode":"PR","name":"Valles de Manati","fclName":"city, village,...","adminCodes1":{},"countryName":"Puerto Rico","fcodeName":"populated place","adminName1":"Manatí","lat":"18.438","fcode":"PPL"},{"adminCode1":"091","lng":"-66.49489","geonameId":4568656,"toponymName":"Villa Rosa","countryId":"4566966","fcl":"P","population":0,"countryCode":"PR","name":"Villa Rosa","fclName":"city, village,...","adminCodes1":{},"countryName":"Puerto Rico","fcodeName":"populated place","adminName1":"Manatí","lat":"18.42717","fcode":"PPL"},{"adminCode1":"091","lng":"-66.48267","geonameId":4563999,"toponymName":"Córdova Dávila","countryId":"4566966","fcl":"P","population":0,"countryCode":"PR","name":"Córdova Dávila","fclName":"city, village,...","adminCodes1":{},"countryName":"Puerto Rico","fcodeName":"populated place","adminName1":"Manatí","lat":"18.42911","fcode":"PPL"},{"adminCode1":"091","lng":"-66.48684","geonameId":4568172,"toponymName":"San Salvador","countryId":"4566966","fcl":"P","population":0,"countryCode":"PR","name":"San Salvador","fclName":"city, village,...","adminCodes1":{},"countryName":"Puerto Rico","fcodeName":"populated place","adminName1":"Manatí","lat":"18.43078","fcode":"PPL"},{"adminCode1":"091","lng":"-66.47739","geonameId":4562556,"toponymName":"Altagracia","countryId":"4566966","fcl":"P","population":0,"countryCode":"PR","name":"Altagracia","fclName":"city, village,...","adminCodes1":{},"countryName":"Puerto Rico","fcodeName":"populated place","adminName1":"Manatí","lat":"18.438","fcode":"PPL"},{"adminCode1":"091","lng":"-66.48045","geonameId":4562695,"toponymName":"Atenas","countryId":"4566966","fcl":"P","population":0,"countryCode":"PR","name":"Atenas","fclName":"city, village,...","adminCodes1":{},"countryName":"Puerto Rico","fcodeName":"populated place","adminName1":"Manatí","lat":"18.43439","fcode":"PPL"},{"adminCode1":"091","lng":"-66.44045","geonameId":4563767,"toponymName":"Punta Chivato","countryId":"4566966","fcl":"T","population":0,"countryCode":"PR","name":"Punta Chivato","fclName":"mountain,hill,rock,... ","adminCodes1":{},"countryName":"Puerto Rico","fcodeName":"cape","adminName1":"Manatí","lat":"18.48494","fcode":"CAPE"},{"adminCode1":"091","lng":"-66.48767","geonameId":4566092,"toponymName":"Luchetti","countryId":"4566966","fcl":"P","population":0,"countryCode":"PR","name":"Luchetti","fclName":"city, village,...","adminCodes1":{},"countryName":"Puerto Rico","fcodeName":"populated place","adminName1":"Manatí","lat":"18.423","fcode":"PPL"},{"adminCode1":"091","lng":"-66.4835","geonameId":4566165,"toponymName":"Punta Marchiquita","countryId":"4566966","fcl":"T","population":0,"countryCode":"PR","name":"Punta Marchiquita","fclName":"mountain,hill,rock,... ","adminCodes1":{},"countryName":"Puerto Rico","fcodeName":"cape","adminName1":"Manatí","lat":"18.47356","fcode":"CAPE"},{"adminCode1":"091","lng":"-66.45573","geonameId":4567036,"toponymName":"Quebrada Bambua","countryId":"4566966","fcl":"T","population":0,"countryCode":"PR","name":"Quebrada Bambua","fclName":"mountain,hill,rock,... ","adminCodes1":{},"countryName":"Puerto Rico","fcodeName":"valley","adminName1":"Manatí","lat":"18.38689","fcode":"VAL"},{"adminCode1":"091","lng":"-66.48712","geonameId":4567071,"toponymName":"Quebrada Canoas","countryId":"4566966","fcl":"T","population":0,"countryCode":"PR","name":"Quebrada Canoas","fclName":"mountain,hill,rock,... ","adminCodes1":{},"countryName":"Puerto Rico","fcodeName":"valley","adminName1":"Manatí","lat":"18.36717","fcode":"VAL"},{"adminCode1":"091","lng":"-66.45045","geonameId":4567152,"toponymName":"Quebrada El Salto","countryId":"4566966","fcl":"T","population":0,"countryCode":"PR","name":"Quebrada El Salto","fclName":"mountain,hill,rock,... ","adminCodes1":{},"countryName":"Puerto Rico","fcodeName":"valley","adminName1":"Manatí","lat":"18.39078","fcode":"VAL"},{"adminCode1":"091","lng":"-66.48434","geonameId":4567306,"toponymName":"Quebrada Limones","countryId":"4566966","fcl":"T","population":0,"countryCode":"PR","name":"Quebrada Limones","fclName":"mountain,hill,rock,... ","adminCodes1":{},"countryName":"Puerto Rico","fcodeName":"valley","adminName1":"Manatí","lat":"18.37495","fcode":"VAL"},{"adminCode1":"091","lng":"-66.49545","geonameId":4567321,"toponymName":"Quebrada Los Terrores","countryId":"4566966","fcl":"T","population":0,"countryCode":"PR","name":"Quebrada Los Terrores","fclName":"mountain,hill,rock,... ","adminCodes1":{},"countryName":"Puerto Rico","fcodeName":"valley","adminName1":"Manatí","lat":"18.38439","fcode":"VAL"},{"adminCode1":"091","lng":"-66.47767","geonameId":4567416,"toponymName":"Quebrada Pugnado","countryId":"4566966","fcl":"T","population":0,"countryCode":"PR","name":"Quebrada Pugnado","fclName":"mountain,hill,rock,... ","adminCodes1":{},"countryName":"Puerto Rico","fcodeName":"valley","adminName1":"Manatí","lat":"18.373","fcode":"VAL"},{"adminCode1":"091","lng":"-66.49989","geonameId":4562914,"toponymName":"Punta Boquilla","countryId":"4566966","fcl":"T","population":0,"countryCode":"PR","name":"Punta Boquilla","fclName":"mountain,hill,rock,... ","adminCodes1":{},"countryName":"Puerto Rico","fcodeName":"cape","adminName1":"Manatí","lat":"18.47689","fcode":"CAPE"},{"adminCode1":"091","lng":"-66.38378","geonameId":4829042,"toponymName":"Villa Real","countryId":"4566966","fcl":"P","population":0,"countryCode":"PR","name":"Villa Real","fclName":"city, village,...","adminCodes1":{},"countryName":"Puerto Rico","fcodeName":"populated place","adminName1":"Manatí","lat":"18.44772","fcode":"PPL"},{"adminCode1":"091","lng":"-66.50784","geonameId":7274934,"toponymName":"La Luisa Comunidad","countryId":"4566966","fcl":"P","population":0,"countryCode":"PR","name":"La Luisa Comunidad","fclName":"city, village,...","adminCodes1":{},"countryName":"Puerto Rico","fcodeName":"populated place","adminName1":"Manatí","lat":"18.44884","fcode":"PPL"},{"adminCode1":"091","lng":"-66.44082","geonameId":7275053,"toponymName":"Coto Norte Comunidad","countryId":"4566966","fcl":"P","population":0,"countryCode":"PR","name":"Coto Norte Comunidad","fclName":"city, village,...","adminCodes1":{},"countryName":"Puerto Rico","fcodeName":"populated place","adminName1":"Manatí","lat":"18.43283","fcode":"PPL"},{"adminCode1":"091","lng":"-66.47989","geonameId":4568610,"toponymName":"Villa Evangelina","countryId":"4566966","fcl":"P","population":0,"countryCode":"PR","name":"Villa Evangelina","fclName":"city, village,...","adminCodes1":{},"countryName":"Puerto Rico","fcodeName":"populated place","adminName1":"Manatí","lat":"18.4205","fcode":"PPL"},{"adminCode1":"091","lng":"-66.4635","geonameId":4563057,"toponymName":"Campo Alegre","countryId":"4566966","fcl":"P","population":0,"countryCode":"PR","name":"Campo Alegre","fclName":"city, village,...","adminCodes1":{},"countryName":"Puerto Rico","fcodeName":"populated place","adminName1":"Manatí","lat":"18.43606","fcode":"PPL"},{"adminCode1":"091","lng":"-66.50767","geonameId":4563670,"toponymName":"Cerro Pelota","countryId":"4566966","fcl":"T","population":0,"countryCode":"PR","name":"Cerro Pelota","fclName":"mountain,hill,rock,... ","adminCodes1":{},"countryName":"Puerto Rico","fcodeName":"mountain","adminName1":"Manatí","lat":"18.38023","fcode":"MT"},{"adminCode1":"091","lng":"-66.46378","geonameId":4564029,"toponymName":"Coto Sur","countryId":"4566966","fcl":"P","population":0,"countryCode":"PR","name":"Coto Sur","fclName":"city, village,...","adminCodes1":{},"countryName":"Puerto Rico","fcodeName":"populated place","adminName1":"Manatí","lat":"18.41884","fcode":"PPL"},{"adminCode1":"091","lng":"-66.49045","geonameId":4564155,"toponymName":"El Alto","countryId":"4566966","fcl":"P","population":0,"countryCode":"PR","name":"El Alto","fclName":"city, village,...","adminCodes1":{},"countryName":"Puerto Rico","fcodeName":"populated place","adminName1":"Manatí","lat":"18.46883","fcode":"PPL"},{"adminCode1":"091","lng":"-66.5117","geonameId":4564166,"toponymName":"El Cantito","countryId":"4566966","fcl":"P","population":0,"countryCode":"PR","name":"El Cantito","fclName":"city, village,...","adminCodes1":{},"countryName":"Puerto Rico","fcodeName":"populated place","adminName1":"Manatí","lat":"18.44904","fcode":"PPL"},{"adminCode1":"091","lng":"-66.44795","geonameId":4564227,"toponymName":"El Pueblito","countryId":"4566966","fcl":"P","population":0,"countryCode":"PR","name":"El Pueblito","fclName":"city, village,...","adminCodes1":{},"countryName":"Puerto Rico","fcodeName":"populated place","adminName1":"Manatí","lat":"18.42856","fcode":"PPL"},{"adminCode1":"091","lng":"-66.47073","geonameId":4564229,"toponymName":"El Pulguero","countryId":"4566966","fcl":"P","population":0,"countryCode":"PR","name":"El Pulguero","fclName":"city, village,...","adminCodes1":{},"countryName":"Puerto Rico","fcodeName":"populated place","adminName1":"Manatí","lat":"18.45995","fcode":"PPL"},{"adminCode1":"091","lng":"-66.47906","geonameId":4564929,"toponymName":"Extension O'Neill","countryId":"4566966","fcl":"P","population":0,"countryCode":"PR","name":"Extension O'Neill","fclName":"city, village,...","adminCodes1":{},"countryName":"Puerto Rico","fcodeName":"populated place","adminName1":"Manatí","lat":"18.42578","fcode":"PPL"},{"adminCode1":"091","lng":"-66.48323","geonameId":4564964,"toponymName":"Felix Cordova Davila","countryId":"4566966","fcl":"P","population":0,"countryCode":"PR","name":"Felix Cordova Davila","fclName":"city, village,...","adminCodes1":{},"countryName":"Puerto Rico","fcodeName":"populated place","adminName1":"Manatí","lat":"18.423","fcode":"PPL"},{"adminCode1":"091","lng":"-66.48267","geonameId":4565763,"toponymName":"La Glorieta","countryId":"4566966","fcl":"P","population":0,"countryCode":"PR","name":"La Glorieta","fclName":"city, village,...","adminCodes1":{},"countryName":"Puerto Rico","fcodeName":"populated place","adminName1":"Manatí","lat":"18.45717","fcode":"PPL"},{"adminCode1":"091","lng":"-66.486","geonameId":4566076,"toponymName":"Los Molinos","countryId":"4566966","fcl":"P","population":0,"countryCode":"PR","name":"Los Molinos","fclName":"city, village,...","adminCodes1":{},"countryName":"Puerto Rico","fcodeName":"populated place","adminName1":"Manatí","lat":"18.46967","fcode":"PPL"},{"adminCode1":"091","lng":"-66.52323","geonameId":4566314,"toponymName":"Montebello","countryId":"4566966","fcl":"P","population":0,"countryCode":"PR","name":"Montebello","fclName":"city, village,...","adminCodes1":{},"countryName":"Puerto Rico","fcodeName":"populated place","adminName1":"Manatí","lat":"18.36801","fcode":"PPL"},{"adminCode1":"091","lng":"-66.44795","geonameId":4566489,"toponymName":"Palo Alto","countryId":"4566966","fcl":"P","population":0,"countryCode":"PR","name":"Palo Alto","fclName":"city, village,...","adminCodes1":{},"countryName":"Puerto Rico","fcodeName":"populated place","adminName1":"Manatí","lat":"18.42161","fcode":"PPL"},{"adminCode1":"091","lng":"-66.48212","geonameId":4566777,"toponymName":"Playa Mar Chiquita","countryId":"4566966","fcl":"T","population":0,"countryCode":"PR","name":"Playa Mar Chiquita","fclName":"mountain,hill,rock,... ","adminCodes1":{},"countryName":"Puerto Rico","fcodeName":"beach","adminName1":"Manatí","lat":"18.47161","fcode":"BCH"},{"adminCode1":"091","lng":"-66.45878","geonameId":4566791,"toponymName":"Playa Tortuguero","countryId":"4566966","fcl":"T","population":0,"countryCode":"PR","name":"Playa Tortuguero","fclName":"mountain,hill,rock,... ","adminCodes1":{},"countryName":"Puerto Rico","fcodeName":"beach","adminName1":"Manatí","lat":"18.46911","fcode":"BCH"},{"adminCode1":"091","lng":"-66.48489","geonameId":4567657,"toponymName":"Residencial Enrique Zorilla","countryId":"4566966","fcl":"P","population":0,"countryCode":"PR","name":"Residencial Enrique Zorilla","fclName":"city, village,...","adminCodes1":{},"countryName":"Puerto Rico","fcodeName":"populated place","adminName1":"Manatí","lat":"18.42411","fcode":"PPL"},{"adminCode1":"091","lng":"-66.47489","geonameId":4568022,"toponymName":"Sabana Seca","countryId":"4566966","fcl":"P","population":0,"countryCode":"PR","name":"Sabana Seca","fclName":"city, village,...","adminCodes1":{},"countryName":"Puerto Rico","fcodeName":"populated place","adminName1":"Manatí","lat":"18.41578","fcode":"PPL"},{"adminCode1":"091","lng":"-66.48795","geonameId":4568117,"toponymName":"San José","countryId":"4566966","fcl":"P","population":0,"countryCode":"PR","name":"San José","fclName":"city, village,...","adminCodes1":{},"countryName":"Puerto Rico","fcodeName":"populated place","adminName1":"Manatí","lat":"18.438","fcode":"PPL"},{"adminCode1":"091","lng":"-66.48767","geonameId":4562795,"toponymName":"Barriada San Jose","countryId":"4566966","fcl":"P","population":0,"countryCode":"PR","name":"Barriada San Jose","fclName":"city, village,...","adminCodes1":{},"countryName":"Puerto Rico","fcodeName":"populated place","adminName1":"Manatí","lat":"18.43634","fcode":"PPL"},{"adminCode1":"091","lng":"-66.48823","geonameId":4562915,"toponymName":"Boquillas","countryId":"4566966","fcl":"P","population":0,"countryCode":"PR","name":"Boquillas","fclName":"city, village,...","adminCodes1":{},"countryName":"Puerto Rico","fcodeName":"populated place","adminName1":"Manatí","lat":"18.46245","fcode":"PPL"},{"adminCode1":"091","lng":"-66.48902","geonameId":7275012,"toponymName":"Tierras Nuevas Poniente Comunidad","countryId":"4566966","fcl":"P","population":0,"countryCode":"PR","name":"Tierras Nuevas Poniente Comunidad","fclName":"city, village,...","adminCodes1":{},"countryName":"Puerto Rico","fcodeName":"populated place","adminName1":"Manatí","lat":"18.46273","fcode":"PPL"},{"adminCode1":"091","lng":"-66.49934","geonameId":4565658,"toponymName":"Jardines de Monaco","countryId":"4566966","fcl":"P","population":0,"countryCode":"PR","name":"Jardines de Monaco","fclName":"city, village,...","adminCodes1":{},"countryName":"Puerto Rico","fcodeName":"populated place","adminName1":"Manatí","lat":"18.41439","fcode":"PPL"},{"adminCode1":"091","lng":"-66.51406","geonameId":4563159,"toponymName":"Caño de Los Nachos","countryId":"4566966","fcl":"H","population":0,"countryCode":"PR","name":"Caño de Los Nachos","fclName":"stream, lake, ...","adminCodes1":{},"countryName":"Puerto Rico","fcodeName":"canal","adminName1":"Manatí","lat":"18.44189","fcode":"CNL"},{"adminCode1":"091","lng":"-66.48462","geonameId":4568828,"toponymName":"WMTI-AM (Manati)","countryId":"4566966","fcl":"S","population":0,"countryCode":"PR","name":"WMTI-AM (Manati)","fclName":"spot, building, farm","adminCodes1":{},"countryName":"Puerto Rico","fcodeName":"tower","adminName1":"Manatí","lat":"18.42495","fcode":"TOWR"},{"adminCode1":"091","lng":"-66.49795","geonameId":4568825,"toponymName":"WMNT-AM (Manati)","countryId":"4566966","fcl":"S","population":0,"countryCode":"PR","name":"WMNT-AM (Manati)","fclName":"spot, building, farm","adminCodes1":{},"countryName":"Puerto Rico","fcodeName":"tower","adminName1":"Manatí","lat":"18.433","fcode":"TOWR"},{"adminCode1":"091","lng":"-66.47073","geonameId":4568829,"toponymName":"WMTI-AM (Manati)","countryId":"4566966","fcl":"S","population":0,"countryCode":"PR","name":"WMTI-AM (Manati)","fclName":"spot, building, farm","adminCodes1":{},"countryName":"Puerto Rico","fcodeName":"tower","adminName1":"Manatí","lat":"18.42245","fcode":"TOWR"},{"adminCode1":"091","lng":"-66.4764","geonameId":10235777,"toponymName":"Hyatt Place Manatí","countryId":"4566966","fcl":"S","population":0,"countryCode":"PR","name":"Hyatt Place Manatí","fclName":"spot, building, farm","adminCodes1":{},"countryName":"Puerto Rico","fcodeName":"hotel","adminName1":"Manatí","lat":"18.43341","fcode":"HTL"},{"adminCode1":"091","lng":"-66.48469","geonameId":7269333,"toponymName":"Doctor Alejandro Otero Lopez Hospital","countryId":"4566966","fcl":"S","population":0,"countryCode":"PR","name":"Doctor Alejandro Otero Lopez Hospital","fclName":"spot, building, farm","adminCodes1":{},"countryName":"Puerto Rico","fcodeName":"hospital","adminName1":"Manatí","lat":"18.42844","fcode":"HSP"},{"adminCode1":"091","lng":"-66.4935","geonameId":4563524,"toponymName":"Centro de Salud Mental","countryId":"4566966","fcl":"S","population":0,"countryCode":"PR","name":"Centro de Salud Mental","fclName":"spot, building, farm","adminCodes1":{},"countryName":"Puerto Rico","fcodeName":"hospital","adminName1":"Manatí","lat":"18.42717","fcode":"HSP"},{"adminCode1":"091","lng":"-66.48239","geonameId":4565399,"toponymName":"Hospital Municipal","countryId":"4566966","fcl":"S","population":0,"countryCode":"PR","name":"Hospital Municipal","fclName":"spot, building, farm","adminCodes1":{},"countryName":"Puerto Rico","fcodeName":"hospital","adminName1":"Manatí","lat":"18.43522","fcode":"HSP"},{"adminCode1":"091","lng":"-66.496","geonameId":4568064,"toponymName":"San Agustin Hospital","countryId":"4566966","fcl":"S","population":0,"countryCode":"PR","name":"San Agustin Hospital","fclName":"spot, building, farm","adminCodes1":{},"countryName":"Puerto Rico","fcodeName":"hospital","adminName1":"Manatí","lat":"18.42884","fcode":"HSP"},{"adminCode1":"091","lng":"-66.47795","geonameId":4562598,"toponymName":"American University","countryId":"4566966","fcl":"S","population":0,"countryCode":"PR","name":"American University","fclName":"spot, building, farm","adminCodes1":{},"countryName":"Puerto Rico","fcodeName":"school","adminName1":"Manatí","lat":"18.43384","fcode":"SCH"},{"adminCode1":"091","lng":"-66.52739","geonameId":4563152,"toponymName":"Caño Salado","countryId":"4566966","fcl":"H","population":0,"countryCode":"PR","name":"Caño Salado","fclName":"stream, lake, ...","adminCodes1":{},"countryName":"Puerto Rico","fcodeName":"inlet","adminName1":"Manatí","lat":"18.45022","fcode":"INLT"},{"adminCode1":"091","lng":"-66.50601","geonameId":4563434,"toponymName":"Central Monserrate","countryId":"4566966","fcl":"S","population":0,"countryCode":"PR","name":"Central Monserrate","fclName":"spot, building, farm","adminCodes1":{},"countryName":"Puerto Rico","fcodeName":"","adminName1":"Manatí","lat":"18.4305"},{"adminCode1":"091","lng":"-66.48517","geonameId":4563764,"toponymName":"Mar Chiquita","countryId":"4566966","fcl":"H","population":0,"countryCode":"PR","name":"Mar Chiquita","fclName":"stream, lake, ...","adminCodes1":{},"countryName":"Puerto Rico","fcodeName":"bay","adminName1":"Manatí","lat":"18.47383","fcode":"BAY"},{"adminCode1":"091","lng":"-66.45378","geonameId":4566977,"toponymName":"Puerto del Tortuguero","countryId":"4566966","fcl":"H","population":0,"countryCode":"PR","name":"Puerto del Tortuguero","fclName":"stream, lake, ...","adminCodes1":{},"countryName":"Puerto Rico","fcodeName":"bay","adminName1":"Manatí","lat":"18.473","fcode":"BAY"},{"adminCode1":"091","lng":"-66.47073","geonameId":4568830,"toponymName":"WMTI-AM (Morovis)","countryId":"4566966","fcl":"S","population":0,"countryCode":"PR","name":"WMTI-AM (Morovis)","fclName":"spot, building, farm","adminCodes1":{},"countryName":"Puerto Rico","fcodeName":"tower","adminName1":"Manatí","lat":"18.42245","fcode":"TOWR"},{"adminCode1":"091","lng":"-66.49517","geonameId":4564326,"toponymName":"Escuela Ayala","countryId":"4566966","fcl":"S","population":0,"countryCode":"PR","name":"Escuela Ayala","fclName":"spot, building, farm","adminCodes1":{},"countryName":"Puerto Rico","fcodeName":"school","adminName1":"Manatí","lat":"18.46772","fcode":"SCH"},{"adminCode1":"091","lng":"-66.44545","geonameId":4564345,"toponymName":"Escuela C Ramirez Arrellano","countryId":"4566966","fcl":"S","population":0,"countryCode":"PR","name":"Escuela C Ramirez Arrellano","fclName":"spot, building, farm","adminCodes1":{},"countryName":"Puerto Rico","fcodeName":"school","adminName1":"Manatí","lat":"18.42884","fcode":"SCH"},{"adminCode1":"091","lng":"-66.48462","geonameId":4564365,"toponymName":"Escuela Carretera Ciales","countryId":"4566966","fcl":"S","population":0,"countryCode":"PR","name":"Escuela Carretera Ciales","fclName":"spot, building, farm","adminCodes1":{},"countryName":"Puerto Rico","fcodeName":"school","adminName1":"Manatí","lat":"18.37967","fcode":"SCH"},{"adminCode1":"091","lng":"-66.53017","geonameId":4564388,"toponymName":"Escuela Cortés","countryId":"4566966","fcl":"S","population":0,"countryCode":"PR","name":"Escuela Cortés","fclName":"spot, building, farm","adminCodes1":{},"countryName":"Puerto Rico","fcodeName":"school","adminName1":"Manatí","lat":"18.413","fcode":"SCH"},{"adminCode1":"091","lng":"-66.49767","geonameId":4564392,"toponymName":"Escuela Cruz Rosa Rivas","countryId":"4566966","fcl":"S","population":0,"countryCode":"PR","name":"Escuela Cruz Rosa Rivas","fclName":"spot, building, farm","adminCodes1":{},"countryName":"Puerto Rico","fcodeName":"school","adminName1":"Manatí","lat":"18.44911","fcode":"SCH"},{"adminCode1":"091","lng":"-66.46823","geonameId":4564419,"toponymName":"Escuela Evaristo Camacho","countryId":"4566966","fcl":"S","population":0,"countryCode":"PR","name":"Escuela Evaristo Camacho","fclName":"spot, building, farm","adminCodes1":{},"countryName":"Puerto Rico","fcodeName":"school","adminName1":"Manatí","lat":"18.38134","fcode":"SCH"},{"adminCode1":"091","lng":"-66.48906","geonameId":4564499,"toponymName":"Escuela Josefa Miranda","countryId":"4566966","fcl":"S","population":0,"countryCode":"PR","name":"Escuela Josefa Miranda","fclName":"spot, building, farm","adminCodes1":{},"countryName":"Puerto Rico","fcodeName":"school","adminName1":"Manatí","lat":"18.43717","fcode":"SCH"},{"adminCode1":"091","lng":"-66.47656","geonameId":4564692,"toponymName":"Escuela Sabana Seca","countryId":"4566966","fcl":"S","population":0,"countryCode":"PR","name":"Escuela Sabana Seca","fclName":"spot, building, farm","adminCodes1":{},"countryName":"Puerto Rico","fcodeName":"school","adminName1":"Manatí","lat":"18.40939","fcode":"SCH"},{"adminCode1":"091","lng":"-66.46573","geonameId":4564729,"toponymName":"Escuela Segunda Unidad","countryId":"4566966","fcl":"S","population":0,"countryCode":"PR","name":"Escuela Segunda Unidad","fclName":"spot, building, farm","adminCodes1":{},"countryName":"Puerto Rico","fcodeName":"school","adminName1":"Manatí","lat":"18.43495","fcode":"SCH"},{"adminCode1":"091","lng":"-66.46489","geonameId":4565475,"toponymName":"Iglesia Evangélica","countryId":"4566966","fcl":"S","population":0,"countryCode":"PR","name":"Iglesia Evangélica","fclName":"spot, building, farm","adminCodes1":{},"countryName":"Puerto Rico","fcodeName":"church","adminName1":"Manatí","lat":"18.38412","fcode":"CH"},{"adminCode1":"091","lng":"-66.44739","geonameId":4565524,"toponymName":"Iglesia de Dios","countryId":"4566966","fcl":"S","population":0,"countryCode":"PR","name":"Iglesia de Dios","fclName":"spot, building, farm","adminCodes1":{},"countryName":"Puerto Rico","fcodeName":"church","adminName1":"Manatí","lat":"18.43939","fcode":"CH"}]}
