{"totalResultsCount":117,"geonames":[{"adminCode1":"OH","lng":"-81.07371","geonameId":5162859,"toponymName":"Middlefield","countryId":"6252001","fcl":"P","population":2693,"countryCode":"US","name":"Middlefield","fclName":"city, village,...","adminCodes1":{"ISO3166_2":"OH"},"countryName":"United States","fcodeName":"populated place","adminName1":"Ohio","lat":"41.462","fcode":"PPL"},{"adminCode1":"CT","lng":"-72.71204","geonameId":4838621,"toponymName":"Middlefield","countryId":"6252001","fcl":"P","population":0,"countryCode":"US","name":"Middlefield","fclName":"city, village,...","adminCodes1":{"ISO3166_2":"CT"},"countryName":"United States","fcodeName":"populated place","adminName1":"Connecticut","lat":"41.51732","fcode":"PPL"},{"adminCode1":"MA","lng":"-73.0151","geonameId":4943900,"toponymName":"Middlefield","countryId":"6252001","fcl":"P","population":551,"countryCode":"US","name":"Middlefield","fclName":"city, village,...","adminCodes1":{"ISO3166_2":"MA"},"countryName":"United States","fcodeName":"populated place","adminName1":"Massachusetts","lat":"42.34842","fcode":"PPL"},{"adminCode1":"CT","lng":"-72.71489","geonameId":4838624,"toponymName":"Town of Middlefield","countryId":"6252001","fcl":"A","population":4407,"countryCode":"US","name":"Town of Middlefield","fclName":"country, state, region,...","adminCodes1":{"ISO3166_2":"CT"},"countryName":"United States","fcodeName":"third-order administrative division","adminName1":"Connecticut","lat":"41.51754","fcode":"ADM3"},{"adminCode1":"IA","lng":"-91.65589","geonameId":4867290,"toponymName":"Township of Middlefield","countryId":"6252001","fcl":"A","population":0,"countryCode":"US","name":"Middlefield Township","fclName":"country, state, region,...","adminCodes1":{"ISO3166_2":"IA"},"countryName":"United States","fcodeName":"third-order administrative division","adminName1":"Iowa","lat":"42.42654","fcode":"ADM3"},{"adminCode1":"OH","lng":"-81.0485","geonameId":5162862,"toponymName":"Township of Middlefield","countryId":"6252001","fcl":"A","population":0,"countryCode":"US","name":"Middlefield Township","fclName":"country, state, region,...","adminCodes1":{"ISO3166_2":"OH"},"countryName":"United States","fcodeName":"third-order administrative division","adminName1":"Ohio","lat":"41.46414","fcode":"ADM3"},{"adminCode1":"MA","lng":"-73.01581","geonameId":4943904,"toponymName":"Town of Middlefield","countryId":"6252001","fcl":"A","population":527,"countryCode":"US","name":"Town of Middlefield","fclName":"country, state, region,...","adminCodes1":{"ISO3166_2":"MA"},"countryName":"United States","fcodeName":"third-order administrative division","adminName1":"Massachusetts","lat":"42.35142","fcode":"ADM3"},{"adminCode1":"OH","lng":"-81.07347","geonameId":7166997,"toponymName":"Village of Middlefield","countryId":"6252001","fcl":"A","population":2694,"countryCode":"US","name":"Village of Middlefield","fclName":"country, state, region,...","adminCodes1":{"ISO3166_2":"OH"},"countryName":"United States","fcodeName":"third-order administrative division","adminName1":"Ohio","lat":"41.46044","fcode":"ADM3"},{"adminCode1":"NY","lng":"-74.83987","geonameId":5126833,"toponymName":"Middlefield","countryId":"6252001","fcl":"P","population":0,"countryCode":"US","name":"Middlefield","fclName":"city, village,...","adminCodes1":{"ISO3166_2":"NY"},"countryName":"United States","fcodeName":"populated place","adminName1":"New York","lat":"42.6873","fcode":"PPL"},{"adminCode1":"CT","lng":"-72.74593","geonameId":5282259,"toponymName":"Beseck Mountain","countryId":"6252001","fcl":"T","population":0,"countryCode":"US","name":"Beseck Mountain","fclName":"mountain,hill,rock,... ","adminCodes1":{"ISO3166_2":"CT"},"countryName":"United States","fcodeName":"mountain","adminName1":"Connecticut","lat":"41.51343","fcode":"MT"},{"adminCode1":"CT","lng":"-72.74232","geonameId":4836057,"toponymName":"Higby Mountain","countryId":"6252001","fcl":"T","population":0,"countryCode":"US","name":"Higby Mountain","fclName":"mountain,hill,rock,... ","adminCodes1":{"ISO3166_2":"CT"},"countryName":"United States","fcodeName":"mountain","adminName1":"Connecticut","lat":"41.54399","fcode":"MT"},{"adminCode1":"NY","lng":"-74.89163","geonameId":5113666,"toponymName":"Cooperstown-Westville Airport","countryId":"6252001","fcl":"S","population":0,"countryCode":"US","name":"Cooperstown-Westville Airport","fclName":"spot, building, farm","adminCodes1":{"ISO3166_2":"NY"},"countryName":"United States","fcodeName":"airport","adminName1":"New York","lat":"42.62848","fcode":"AIRP"},{"adminCode1":"MA","lng":"-73.02871","geonameId":4929688,"toponymName":"Bancroft","countryId":"6252001","fcl":"P","population":0,"countryCode":"US","name":"Bancroft","fclName":"city, village,...","adminCodes1":{"ISO3166_2":"MA"},"countryName":"United States","fcodeName":"populated place","adminName1":"Massachusetts","lat":"42.30925","fcode":"PPL"},{"adminCode1":"NY","lng":"-74.86947","geonameId":5126835,"toponymName":"Town of Middlefield","countryId":"6252001","fcl":"A","population":2053,"countryCode":"US","name":"Town of Middlefield","fclName":"country, state, region,...","adminCodes1":{"ISO3166_2":"NY"},"countryName":"United States","fcodeName":"third-order administrative division","adminName1":"New York","lat":"42.70161","fcode":"ADM3"},{"adminCode1":"NY","lng":"-74.88238","geonameId":5128178,"toponymName":"Murphy Hill","countryId":"6252001","fcl":"T","population":0,"countryCode":"US","name":"Murphy Hill","fclName":"mountain,hill,rock,... ","adminCodes1":{"ISO3166_2":"NY"},"countryName":"United States","fcodeName":"mountain","adminName1":"New York","lat":"42.67452","fcode":"MT"},{"adminCode1":"NY","lng":"-74.9146","geonameId":5116312,"toponymName":"Eggleston Hill","countryId":"6252001","fcl":"T","population":0,"countryCode":"US","name":"Eggleston Hill","fclName":"mountain,hill,rock,... ","adminCodes1":{"ISO3166_2":"NY"},"countryName":"United States","fcodeName":"mountain","adminName1":"New York","lat":"42.6198","fcode":"MT"},{"adminCode1":"NY","lng":"-74.9121","geonameId":5113768,"toponymName":"Cornish Hill","countryId":"6252001","fcl":"T","population":0,"countryCode":"US","name":"Cornish Hill","fclName":"mountain,hill,rock,... ","adminCodes1":{"ISO3166_2":"NY"},"countryName":"United States","fcodeName":"mountain","adminName1":"New York","lat":"42.65841","fcode":"MT"},{"adminCode1":"NY","lng":"-74.83959","geonameId":5126834,"toponymName":"Middlefield Center","countryId":"6252001","fcl":"P","population":0,"countryCode":"US","name":"Middlefield Center","fclName":"city, village,...","adminCodes1":{"ISO3166_2":"NY"},"countryName":"United States","fcodeName":"populated place","adminName1":"New York","lat":"42.76452","fcode":"PPL"},{"adminCode1":"CT","lng":"-72.69454","geonameId":4841620,"toponymName":"Rockfall","countryId":"6252001","fcl":"S","population":0,"countryCode":"US","name":"Rockfall","fclName":"spot, building, farm","adminCodes1":{"ISO3166_2":"CT"},"countryName":"United States","fcodeName":"","adminName1":"Connecticut","lat":"41.53065"},{"adminCode1":"OH","lng":"-81.06774","geonameId":5155557,"toponymName":"Geauga County Airport","countryId":"6252001","fcl":"S","population":0,"countryCode":"US","name":"Geauga County Airport","fclName":"spot, building, farm","adminCodes1":{"ISO3166_2":"OH"},"countryName":"United States","fcodeName":"airport","adminName1":"Ohio","lat":"41.44897","fcode":"AIRP"},{"adminCode1":"OH","lng":"-81.06732","geonameId":5149248,"toponymName":"Cardinal High School","countryId":"6252001","fcl":"S","population":0,"countryCode":"US","name":"Cardinal High School","fclName":"spot, building, farm","adminCodes1":{"ISO3166_2":"OH"},"countryName":"United States","fcodeName":"school","adminName1":"Ohio","lat":"41.46589","fcode":"SCH"},{"adminCode1":"MA","lng":"-73.03288","geonameId":4931582,"toponymName":"Blush Hollow","countryId":"6252001","fcl":"P","population":0,"countryCode":"US","name":"Blush Hollow","fclName":"city, village,...","adminCodes1":{"ISO3166_2":"MA"},"countryName":"United States","fcodeName":"populated place","adminName1":"Massachusetts","lat":"42.34175","fcode":"PPL"},{"adminCode1":"MA","lng":"-73.03205","geonameId":4929578,"toponymName":"Baines Airport","countryId":"6252001","fcl":"S","population":0,"countryCode":"US","name":"Baines Airport","fclName":"spot, building, farm","adminCodes1":{"ISO3166_2":"MA"},"countryName":"United States","fcodeName":"airport","adminName1":"Massachusetts","lat":"42.3162","fcode":"AIRP"},{"adminCode1":"CT","lng":"-72.73482","geonameId":5282190,"toponymName":"Beseck Lake","countryId":"6252001","fcl":"P","population":0,"countryCode":"US","name":"Beseck Lake","fclName":"city, village,...","adminCodes1":{"ISO3166_2":"CT"},"countryName":"United States","fcodeName":"populated place","adminName1":"Connecticut","lat":"41.51871","fcode":"PPL"},{"adminCode1":"CT","lng":"-72.74121","geonameId":5283279,"toponymName":"Camels Hump","countryId":"6252001","fcl":"T","population":0,"countryCode":"US","name":"Camels Hump","fclName":"mountain,hill,rock,... ","adminCodes1":{"ISO3166_2":"CT"},"countryName":"United States","fcodeName":"mountain","adminName1":"Connecticut","lat":"41.54232","fcode":"MT"},{"adminCode1":"CT","lng":"-72.70315","geonameId":5283830,"toponymName":"Cherry Hill","countryId":"6252001","fcl":"T","population":0,"countryCode":"US","name":"Cherry Hill","fclName":"mountain,hill,rock,... ","adminCodes1":{"ISO3166_2":"CT"},"countryName":"United States","fcodeName":"mountain","adminName1":"Connecticut","lat":"41.51343","fcode":"MT"},{"adminCode1":"CT","lng":"-72.71398","geonameId":5284264,"toponymName":"Coe Hill","countryId":"6252001","fcl":"T","population":0,"countryCode":"US","name":"Coe Hill","fclName":"mountain,hill,rock,... ","adminCodes1":{"ISO3166_2":"CT"},"countryName":"United States","fcodeName":"mountain","adminName1":"Connecticut","lat":"41.54204","fcode":"MT"},{"adminCode1":"CT","lng":"-72.72454","geonameId":5281774,"toponymName":"Baileyville","countryId":"6252001","fcl":"P","population":0,"countryCode":"US","name":"Baileyville","fclName":"city, village,...","adminCodes1":{"ISO3166_2":"CT"},"countryName":"United States","fcodeName":"populated place","adminName1":"Connecticut","lat":"41.51315","fcode":"PPL"},{"adminCode1":"CT","lng":"-72.70093","geonameId":4843893,"toponymName":"Sugarloaf Hill","countryId":"6252001","fcl":"T","population":0,"countryCode":"US","name":"Sugarloaf Hill","fclName":"mountain,hill,rock,... ","adminCodes1":{"ISO3166_2":"CT"},"countryName":"United States","fcodeName":"mountain","adminName1":"Connecticut","lat":"41.53038","fcode":"MT"},{"adminCode1":"CT","lng":"-72.72037","geonameId":4836923,"toponymName":"Jackson Hill","countryId":"6252001","fcl":"T","population":0,"countryCode":"US","name":"Jackson Hill","fclName":"mountain,hill,rock,... ","adminCodes1":{"ISO3166_2":"CT"},"countryName":"United States","fcodeName":"mountain","adminName1":"Connecticut","lat":"41.52982","fcode":"MT"},{"adminCode1":"CT","lng":"-72.73204","geonameId":4841037,"toponymName":"Powder Hill","countryId":"6252001","fcl":"T","population":0,"countryCode":"US","name":"Powder Hill","fclName":"mountain,hill,rock,... ","adminCodes1":{"ISO3166_2":"CT"},"countryName":"United States","fcodeName":"mountain","adminName1":"Connecticut","lat":"41.50454","fcode":"MT"},{"adminCode1":"OH","lng":"-81.02259","geonameId":5157164,"toponymName":"Hayes Corners","countryId":"6252001","fcl":"P","population":0,"countryCode":"US","name":"Hayes Corners","fclName":"city, village,...","adminCodes1":{"ISO3166_2":"OH"},"countryName":"United States","fcodeName":"populated place","adminName1":"Ohio","lat":"41.45894","fcode":"PPL"},{"adminCode1":"CT","lng":"-72.71205","geonameId":7178644,"toponymName":"Middlefield Volunteer Fire Company","countryId":"6252001","fcl":"S","population":0,"countryCode":"US","name":"Middlefield Volunteer Fire Company","fclName":"spot, building, farm","adminCodes1":{"ISO3166_2":"CT"},"countryName":"United States","fcodeName":"building(s)","adminName1":"Connecticut","lat":"41.51754","fcode":"BLDG"},{"adminCode1":"NY","lng":"-74.92456","geonameId":7179279,"toponymName":"Clark Sports Center","countryId":"6252001","fcl":"S","population":0,"countryCode":"US","name":"Clark Sports Center","fclName":"spot, building, farm","adminCodes1":{"ISO3166_2":"NY"},"countryName":"United States","fcodeName":"facility","adminName1":"New York","lat":"42.68902","fcode":"FCL"},{"adminCode1":"NY","lng":"-74.9223","geonameId":7270781,"toponymName":"Iroquois Farm (historical)","countryId":"6252001","fcl":"S","population":0,"countryCode":"US","name":"F. Ambrose Clark Estate","fclName":"spot, building, farm","adminCodes1":{"ISO3166_2":"NY"},"countryName":"United States","fcodeName":"abandoned farm","adminName1":"New York","lat":"42.6897","fcode":"FRMQ"},{"adminCode1":"NY","lng":"-74.91765","geonameId":5109859,"toponymName":"Bowerstown","countryId":"6252001","fcl":"P","population":0,"countryCode":"US","name":"Bowerstown","fclName":"city, village,...","adminCodes1":{"ISO3166_2":"NY"},"countryName":"United States","fcodeName":"populated place","adminName1":"New York","lat":"42.68591","fcode":"PPL"},{"adminCode1":"NY","lng":"-74.90571","geonameId":5123440,"toponymName":"Kingfisher Tower","countryId":"6252001","fcl":"S","population":0,"countryCode":"US","name":"Kingfisher Tower","fclName":"spot, building, farm","adminCodes1":{"ISO3166_2":"NY"},"countryName":"United States","fcodeName":"historical site","adminName1":"New York","lat":"42.72785","fcode":"HSTS"},{"adminCode1":"NY","lng":"-74.80843","geonameId":8081431,"toponymName":"Watercolor Airport","countryId":"6252001","fcl":"S","population":0,"countryCode":"US","name":"Watercolor Airport","fclName":"spot, building, farm","adminCodes1":{"ISO3166_2":"NY"},"countryName":"United States","fcodeName":"airport","adminName1":"New York","lat":"42.78821","fcode":"AIRP"},{"adminCode1":"MA","lng":"-73.0226","geonameId":4946949,"toponymName":"Pelton Hill","countryId":"6252001","fcl":"T","population":0,"countryCode":"US","name":"Pelton Hill","fclName":"mountain,hill,rock,... ","adminCodes1":{"ISO3166_2":"MA"},"countryName":"United States","fcodeName":"mountain","adminName1":"Massachusetts","lat":"42.36953","fcode":"MT"},{"adminCode1":"MA","lng":"-73.01694","geonameId":4954346,"toponymName":"Walnut Hill","countryId":"6252001","fcl":"T","population":0,"countryCode":"US","name":"Walnut Hill","fclName":"mountain,hill,rock,... ","adminCodes1":{"ISO3166_2":"MA"},"countryName":"United States","fcodeName":"mountain","adminName1":"Massachusetts","lat":"42.31737","fcode":"MT"},{"adminCode1":"MA","lng":"-73.03566","geonameId":4954974,"toponymName":"West Hill","countryId":"6252001","fcl":"T","population":0,"countryCode":"US","name":"West Hill","fclName":"mountain,hill,rock,... ","adminCodes1":{"ISO3166_2":"MA"},"countryName":"United States","fcodeName":"mountain","adminName1":"Massachusetts","lat":"42.32231","fcode":"MT"},{"adminCode1":"MA","lng":"-73.01343","geonameId":4940989,"toponymName":"Johnnycake Hill","countryId":"6252001","fcl":"T","population":0,"countryCode":"US","name":"Johnnycake Hill","fclName":"mountain,hill,rock,... ","adminCodes1":{"ISO3166_2":"MA"},"countryName":"United States","fcodeName":"mountain","adminName1":"Massachusetts","lat":"42.32787","fcode":"MT"},{"adminCode1":"MA","lng":"-72.98427","geonameId":4933633,"toponymName":"Collins Hill","countryId":"6252001","fcl":"T","population":0,"countryCode":"US","name":"Collins Hill","fclName":"mountain,hill,rock,... ","adminCodes1":{"ISO3166_2":"MA"},"countryName":"United States","fcodeName":"mountain","adminName1":"Massachusetts","lat":"42.3237","fcode":"MT"},{"adminCode1":"MA","lng":"-73.04121","geonameId":4943903,"toponymName":"Middlefield State Forest","countryId":"6252001","fcl":"V","population":0,"countryCode":"US","name":"Middlefield State Forest","fclName":"forest,heath,...","adminCodes1":{"ISO3166_2":"MA"},"countryName":"United States","fcodeName":"forest(s)","adminName1":"Massachusetts","lat":"42.35425","fcode":"FRST"},{"adminCode1":"CT","lng":"-72.69648","geonameId":4845040,"toponymName":"Wadsworth Falls","countryId":"6252001","fcl":"H","population":0,"countryCode":"US","name":"Wadsworth Falls","fclName":"stream, lake, ...","adminCodes1":{"ISO3166_2":"CT"},"countryName":"United States","fcodeName":"overfalls","adminName1":"Connecticut","lat":"41.52565","fcode":"OVF"},{"adminCode1":"NY","lng":"-74.94293","geonameId":5131136,"toponymName":"Phoenix Mills","countryId":"6252001","fcl":"P","population":0,"countryCode":"US","name":"Phoenix Mills","fclName":"city, village,...","adminCodes1":{"ISO3166_2":"NY"},"countryName":"United States","fcodeName":"populated place","adminName1":"New York","lat":"42.66674","fcode":"PPL"},{"adminCode1":"NY","lng":"-74.89432","geonameId":5144231,"toponymName":"Whig Corners","countryId":"6252001","fcl":"P","population":0,"countryCode":"US","name":"Whig Corners","fclName":"city, village,...","adminCodes1":{"ISO3166_2":"NY"},"countryName":"United States","fcodeName":"populated place","adminName1":"New York","lat":"42.7098","fcode":"PPL"},{"adminCode1":"NY","lng":"-74.85932","geonameId":5124246,"toponymName":"Lentsville","countryId":"6252001","fcl":"P","population":0,"countryCode":"US","name":"Lentsville","fclName":"city, village,...","adminCodes1":{"ISO3166_2":"NY"},"countryName":"United States","fcodeName":"populated place","adminName1":"New York","lat":"42.75035","fcode":"PPL"},{"adminCode1":"NY","lng":"-74.90058","geonameId":8335462,"toponymName":"Star Field","countryId":"6252001","fcl":"T","population":0,"countryCode":"US","name":"Star Field","fclName":"mountain,hill,rock,... ","adminCodes1":{"ISO3166_2":"NY"},"countryName":"United States","fcodeName":"hill","adminName1":"New York","lat":"42.7223","fcode":"HLL"},{"adminCode1":"CT","lng":"-72.71148","geonameId":4837698,"toponymName":"Levi E Coe Library","countryId":"6252001","fcl":"S","population":0,"countryCode":"US","name":"Levi E Coe Library","fclName":"spot, building, farm","adminCodes1":{"ISO3166_2":"CT"},"countryName":"United States","fcodeName":"library","adminName1":"Connecticut","lat":"41.51649","fcode":"LIBR"},{"adminCode1":"CT","lng":"-72.71371","geonameId":4839661,"toponymName":"North Cemetery","countryId":"6252001","fcl":"S","population":0,"countryCode":"US","name":"North Cemetery","fclName":"spot, building, farm","adminCodes1":{"ISO3166_2":"CT"},"countryName":"United States","fcodeName":"cemetery","adminName1":"Connecticut","lat":"41.52926","fcode":"CMTY"},{"adminCode1":"OH","lng":"-81.0276","geonameId":5157165,"toponymName":"Hayes Corners Cemetery","countryId":"6252001","fcl":"S","population":0,"countryCode":"US","name":"Hayes Corners Cemetery","fclName":"spot, building, farm","adminCodes1":{"ISO3166_2":"OH"},"countryName":"United States","fcodeName":"cemetery","adminName1":"Ohio","lat":"41.45922","fcode":"CMTY"},{"adminCode1":"OH","lng":"-81.0501","geonameId":5145475,"toponymName":"Airwolf Heliport","countryId":"6252001","fcl":"S","population":0,"countryCode":"US","name":"Airwolf Heliport","fclName":"spot, building, farm","adminCodes1":{"ISO3166_2":"OH"},"countryName":"United States","fcodeName":"heliport","adminName1":"Ohio","lat":"41.45005","fcode":"AIRH"},{"adminCode1":"IA","lng":"-91.68628","geonameId":4867288,"toponymName":"Middlefield (historical)","countryId":"6252001","fcl":"S","population":0,"countryCode":"US","name":"Middlefield (historical)","fclName":"spot, building, farm","adminCodes1":{"ISO3166_2":"IA"},"countryName":"United States","fcodeName":"","adminName1":"Iowa","lat":"42.42832"},{"adminCode1":"IA","lng":"-91.69183","geonameId":4867289,"toponymName":"Middlefield Post Office (historical)","countryId":"6252001","fcl":"S","population":0,"countryCode":"US","name":"Middlefield Post Office (historical)","fclName":"spot, building, farm","adminCodes1":{"ISO3166_2":"IA"},"countryName":"United States","fcodeName":"post office","adminName1":"Iowa","lat":"42.40554","fcode":"PO"},{"adminCode1":"CT","lng":"-72.70954","geonameId":4838622,"toponymName":"Middlefield Federated Church","countryId":"6252001","fcl":"S","population":0,"countryCode":"US","name":"Middlefield Federated Church","fclName":"spot, building, farm","adminCodes1":{"ISO3166_2":"CT"},"countryName":"United States","fcodeName":"church","adminName1":"Connecticut","lat":"41.5201","fcode":"CH"},{"adminCode1":"CT","lng":"-72.71315","geonameId":4838623,"toponymName":"Middlefield Town Hall","countryId":"6252001","fcl":"S","population":0,"countryCode":"US","name":"Middlefield Town Hall","fclName":"spot, building, farm","adminCodes1":{"ISO3166_2":"CT"},"countryName":"United States","fcodeName":"building(s)","adminName1":"Connecticut","lat":"41.51649","fcode":"BLDG"},{"adminCode1":"OH","lng":"-81.02232","geonameId":5164987,"toponymName":"Northeast Middlefield School","countryId":"6252001","fcl":"S","population":0,"countryCode":"US","name":"Northeast Middlefield School","fclName":"spot, building, farm","adminCodes1":{"ISO3166_2":"OH"},"countryName":"United States","fcodeName":"school","adminName1":"Ohio","lat":"41.48311","fcode":"SCH"},{"adminCode1":"OH","lng":"-81.04982","geonameId":5162861,"toponymName":"Middlefield Post Office","countryId":"6252001","fcl":"S","population":0,"countryCode":"US","name":"Middlefield Post Office","fclName":"spot, building, farm","adminCodes1":{"ISO3166_2":"OH"},"countryName":"United States","fcodeName":"post office","adminName1":"Ohio","lat":"41.46255","fcode":"PO"},{"adminCode1":"CT","lng":"-72.71114","geonameId":9687599,"toponymName":"Middlefield Resident State Trooper Office","countryId":"6252001","fcl":"S","population":0,"countryCode":"US","name":"Middlefield Resident State Trooper Office","fclName":"spot, building, farm","adminCodes1":{"ISO3166_2":"CT"},"countryName":"United States","fcodeName":"building(s)","adminName1":"Connecticut","lat":"41.51804","fcode":"BLDG"},{"adminCode1":"NY","lng":"-74.88436","geonameId":9180450,"toponymName":"Pathfinder Lodge Camp","countryId":"6252001","fcl":"S","population":0,"countryCode":"US","name":"Camp Pathfinder","fclName":"spot, building, farm","adminCodes1":{"ISO3166_2":"NY"},"countryName":"United States","fcodeName":"camp(s)","adminName1":"New York","lat":"42.75966","fcode":"CMP"},{"adminCode1":"OH","lng":"-81.07375","geonameId":7245588,"toponymName":"Middlefield Fire Department Station 1","countryId":"6252001","fcl":"S","population":0,"countryCode":"US","name":"Middlefield Fire Department Station 1","fclName":"spot, building, farm","adminCodes1":{"ISO3166_2":"OH"},"countryName":"United States","fcodeName":"building(s)","adminName1":"Ohio","lat":"41.46359","fcode":"BLDG"},{"adminCode1":"OH","lng":"-81.06732","geonameId":5162860,"toponymName":"Middlefield Center Cemetery","countryId":"6252001","fcl":"S","population":0,"countryCode":"US","name":"Middlefield Center Cemetery","fclName":"spot, building, farm","adminCodes1":{"ISO3166_2":"OH"},"countryName":"United States","fcodeName":"cemetery","adminName1":"Ohio","lat":"41.46311","fcode":"CMTY"},{"adminCode1":"MA","lng":"-73.00371","geonameId":4943901,"toponymName":"Middlefield Center Cemetery","countryId":"6252001","fcl":"S","population":0,"countryCode":"US","name":"Middlefield Center Cemetery","fclName":"spot, building, farm","adminCodes1":{"ISO3166_2":"MA"},"countryName":"United States","fcodeName":"cemetery","adminName1":"Massachusetts","lat":"42.35564","fcode":"CMTY"},{"adminCode1":"MA","lng":"-73.00955","geonameId":4943902,"toponymName":"Middlefield School","countryId":"6252001","fcl":"S","population":0,"countryCode":"US","name":"Middlefield School","fclName":"spot, building, farm","adminCodes1":{"ISO3166_2":"MA"},"countryName":"United States","fcodeName":"school","adminName1":"Massachusetts","lat":"42.34453","fcode":"SCH"},{"adminCode1":"MA","lng":"-73.01378","geonameId":8101786,"toponymName":"Middlefield Fire Department","countryId":"6252001","fcl":"S","population":0,"countryCode":"US","name":"Middlefield Fire Department","fclName":"spot, building, farm","adminCodes1":{"ISO3166_2":"MA"},"countryName":"United States","fcodeName":"building(s)","adminName1":"Massachusetts","lat":"42.34897","fcode":"BLDG"},{"adminCode1":"MA","lng":"-73.00947","geonameId":9687720,"toponymName":"Middlefield Police Department","countryId":"6252001","fcl":"S","population":0,"countryCode":"US","name":"Middlefield Police Department","fclName":"spot, building, farm","adminCodes1":{"ISO3166_2":"MA"},"countryName":"United States","fcodeName":"building(s)","adminName1":"Massachusetts","lat":"42.34456","fcode":"BLDG"},{"adminCode1":"CT","lng":"-72.72253","geonameId":9829162,"toponymName":"Americas Best Value Inn-Middletown Middlefield","countryId":"6252001","fcl":"S","population":0,"countryCode":"US","name":"Americas Best Value Inn-Middletown Middlefield","fclName":"spot, building, farm","adminCodes1":{"ISO3166_2":"CT"},"countryName":"United States","fcodeName":"hotel","adminName1":"Connecticut","lat":"41.5386","fcode":"HTL"},{"adminCode1":"OH","lng":"-81.05291","geonameId":7244564,"toponymName":"Middlefield Fire Department Station 2","countryId":"6252001","fcl":"S","population":0,"countryCode":"US","name":"Middlefield Fire Department Station 2","fclName":"spot, building, farm","adminCodes1":{"ISO3166_2":"OH"},"countryName":"United States","fcodeName":"building(s)","adminName1":"Ohio","lat":"41.53414","fcode":"BLDG"},{"adminCode1":"KY","lng":"-82.35959","geonameId":4300716,"toponymName":"Middlefield Fork","countryId":"6252001","fcl":"H","population":0,"countryCode":"US","name":"Middlefield Fork","fclName":"stream, lake, ...","adminCodes1":{"ISO3166_2":"KY"},"countryName":"United States","fcodeName":"stream","adminName1":"Kentucky","lat":"37.34705","fcode":"STM"},{"adminCode1":"CA","lng":"-121.94755","geonameId":5372840,"toponymName":"Middlefield Reservoir","countryId":"6252001","fcl":"H","population":0,"countryCode":"US","name":"Middlefield Reservoir","fclName":"stream, lake, ...","adminCodes1":{"ISO3166_2":"CA"},"countryName":"United States","fcodeName":"reservoir(s)","adminName1":"California","lat":"37.52953","fcode":"RSV"},{"adminCode1":"CA","lng":"-121.94774","geonameId":5372841,"toponymName":"Middlefield Reservoir 1065-002 Dam","countryId":"6252001","fcl":"S","population":0,"countryCode":"US","name":"Middlefield Reservoir 1065-002 Dam","fclName":"spot, building, farm","adminCodes1":{"ISO3166_2":"CA"},"countryName":"United States","fcodeName":"dam","adminName1":"California","lat":"37.5291","fcode":"DAM"},{"adminCode1":"CT","lng":"-72.84427","geonameId":4844973,"toponymName":"WPKT-FM (Middlefield)","countryId":"6252001","fcl":"S","population":0,"countryCode":"US","name":"WPKT-FM (Middlefield)","fclName":"spot, building, farm","adminCodes1":{"ISO3166_2":"CT"},"countryName":"United States","fcodeName":"tower","adminName1":"Connecticut","lat":"41.56176","fcode":"TOWR"},{"adminCode1":"CT","lng":"-72.72621","geonameId":5282258,"toponymName":"Beseck Lake Dam","countryId":"6252001","fcl":"S","population":0,"countryCode":"US","name":"Beseck Lake Dam","fclName":"spot, building, farm","adminCodes1":{"ISO3166_2":"CT"},"countryName":"United States","fcodeName":"dam","adminName1":"Connecticut","lat":"41.5101","fcode":"DAM"},{"adminCode1":"CT","lng":"-72.69621","geonameId":4841995,"toponymName":"Saint Colman Church","countryId":"6252001","fcl":"S","population":0,"countryCode":"US","name":"Saint Colman Church","fclName":"spot, building, farm","adminCodes1":{"ISO3166_2":"CT"},"countryName":"United States","fcodeName":"church","adminName1":"Connecticut","lat":"41.52176","fcode":"CH"},{"adminCode1":"CT","lng":"-72.70121","geonameId":4842429,"toponymName":"Saint Sebastian Cemetery","countryId":"6252001","fcl":"S","population":0,"countryCode":"US","name":"Saint Sebastian Cemetery","fclName":"spot, building, farm","adminCodes1":{"ISO3166_2":"CT"},"countryName":"United States","fcodeName":"cemetery","adminName1":"Connecticut","lat":"41.54565","fcode":"CMTY"},{"adminCode1":"CT","lng":"-72.71065","geonameId":4844862,"toponymName":"Victory Tabernacle Church","countryId":"6252001","fcl":"S","population":0,"countryCode":"US","name":"Victory Tabernacle Church","fclName":"spot, building, farm","adminCodes1":{"ISO3166_2":"CT"},"countryName":"United States","fcodeName":"church","adminName1":"Connecticut","lat":"41.54565","fcode":"CH"},{"adminCode1":"CT","lng":"-72.72537","geonameId":4838076,"toponymName":"Lyman School","countryId":"6252001","fcl":"S","population":0,"countryCode":"US","name":"Lyman School","fclName":"spot, building, farm","adminCodes1":{"ISO3166_2":"CT"},"countryName":"United States","fcodeName":"school","adminName1":"Connecticut","lat":"41.51815","fcode":"SCH"},{"adminCode1":"CT","lng":"-72.7101","geonameId":4838090,"toponymName":"Lyman Meadow Golf Club","countryId":"6252001","fcl":"S","population":0,"countryCode":"US","name":"Lyman Meadow Golf Club","fclName":"spot, building, farm","adminCodes1":{"ISO3166_2":"CT"},"countryName":"United States","fcodeName":"golf course","adminName1":"Connecticut","lat":"41.49093","fcode":"RECG"},{"adminCode1":"OH","lng":"-81.06377","geonameId":5166273,"toponymName":"Pauls Airport (historical)","countryId":"6252001","fcl":"S","population":0,"countryCode":"US","name":"Pauls Airport (historical)","fclName":"spot, building, farm","adminCodes1":{"ISO3166_2":"OH"},"countryName":"United States","fcodeName":"abandoned airfield","adminName1":"Ohio","lat":"41.42828","fcode":"AIRQ"},{"adminCode1":"OH","lng":"-81.0976","geonameId":5156238,"toponymName":"Grandview Country Club","countryId":"6252001","fcl":"S","population":0,"countryCode":"US","name":"Grandview Country Club","fclName":"spot, building, farm","adminCodes1":{"ISO3166_2":"OH"},"countryName":"United States","fcodeName":"resort","adminName1":"Ohio","lat":"41.50116","fcode":"RSRT"},{"adminCode1":"OH","lng":"-81.02204","geonameId":5157175,"toponymName":"Hayes Road School","countryId":"6252001","fcl":"S","population":0,"countryCode":"US","name":"Hayes Road School","fclName":"spot, building, farm","adminCodes1":{"ISO3166_2":"OH"},"countryName":"United States","fcodeName":"school","adminName1":"Ohio","lat":"41.45422","fcode":"SCH"},{"adminCode1":"CT","lng":"-72.6876","geonameId":4836556,"toponymName":"Independent Day School","countryId":"6252001","fcl":"S","population":0,"countryCode":"US","name":"Independent Day School","fclName":"spot, building, farm","adminCodes1":{"ISO3166_2":"CT"},"countryName":"United States","fcodeName":"school","adminName1":"Connecticut","lat":"41.50815","fcode":"SCH"},{"adminCode1":"CT","lng":"-72.72037","geonameId":4836601,"toponymName":"Indian Springs Golf Club","countryId":"6252001","fcl":"S","population":0,"countryCode":"US","name":"Indian Springs Golf Club","fclName":"spot, building, farm","adminCodes1":{"ISO3166_2":"CT"},"countryName":"United States","fcodeName":"golf course","adminName1":"Connecticut","lat":"41.51315","fcode":"RECG"},{"adminCode1":"CT","lng":"-72.69204","geonameId":4831730,"toponymName":"Memorial School","countryId":"6252001","fcl":"S","population":0,"countryCode":"US","name":"Memorial School","fclName":"spot, building, farm","adminCodes1":{"ISO3166_2":"CT"},"countryName":"United States","fcodeName":"school","adminName1":"Connecticut","lat":"41.52288","fcode":"SCH"},{"adminCode1":"OH","lng":"-81.06306","geonameId":8097187,"toponymName":"John's Country Nursery","countryId":"6252001","fcl":"S","population":0,"countryCode":"US","name":"John's Country Nursery","fclName":"spot, building, farm","adminCodes1":{"ISO3166_2":"OH"},"countryName":"United States","fcodeName":"building(s)","adminName1":"Ohio","lat":"41.43917","fcode":"BLDG"},{"adminCode1":"NY","lng":"-74.83861","geonameId":7249677,"toponymName":"Old Middlefield Center Cemetery","countryId":"6252001","fcl":"S","population":0,"countryCode":"US","name":"Old Middlefield Center Cemetery","fclName":"spot, building, farm","adminCodes1":{"ISO3166_2":"NY"},"countryName":"United States","fcodeName":"cemetery","adminName1":"New York","lat":"42.76333","fcode":"CMTY"},{"adminCode1":"NY","lng":"-74.8375","geonameId":7249682,"toponymName":"Middlefield Cemetery","countryId":"6252001","fcl":"S","population":0,"countryCode":"US","name":"Middlefield Cemetery","fclName":"spot, building, farm","adminCodes1":{"ISO3166_2":"NY"},"countryName":"United States","fcodeName":"cemetery","adminName1":"New York","lat":"42.68917","fcode":"CMTY"},{"adminCode1":"NY","lng":"-74.83983","geonameId":9676984,"toponymName":"Middlefield Volunteer Fire Department","countryId":"6252001","fcl":"S","population":0,"countryCode":"US","name":"Middlefield Volunteer Fire Department","fclName":"spot, building, farm","adminCodes1":{"ISO3166_2":"NY"},"countryName":"United States","fcodeName":"building(s)","adminName1":"New York","lat":"42.68768","fcode":"BLDG"},{"adminCode1":"CA","lng":"-122.11137","geonameId":7237557,"toponymName":"Challenger School Middlefield Campus","countryId":"6252001","fcl":"S","population":0,"countryCode":"US","name":"Challenger School Middlefield Campus","fclName":"spot, building, farm","adminCodes1":{"ISO3166_2":"CA"},"countryName":"United States","fcodeName":"school","adminName1":"California","lat":"37.42033","fcode":"SCH"},{"adminCode1":"OH","lng":"-81.05482","geonameId":5160409,"toponymName":"Larry Peairs Memorial Lake Dam","countryId":"6252001","fcl":"S","population":0,"countryCode":"US","name":"Larry Peairs Memorial Lake Dam","fclName":"spot, building, farm","adminCodes1":{"ISO3166_2":"OH"},"countryName":"United States","fcodeName":"dam","adminName1":"Ohio","lat":"41.44339","fcode":"DAM"},{"adminCode1":"OH","lng":"-81.07343","geonameId":5162873,"toponymName":"Middlfield Post Office","countryId":"6252001","fcl":"S","population":0,"countryCode":"US","name":"Middlfield Post Office","fclName":"spot, building, farm","adminCodes1":{"ISO3166_2":"OH"},"countryName":"United States","fcodeName":"post office","adminName1":"Ohio","lat":"41.46255","fcode":"PO"},{"adminCode1":"MA","lng":"-72.96982","geonameId":4956272,"toponymName":"Wright Cemetery","countryId":"6252001","fcl":"S","population":0,"countryCode":"US","name":"Wright Cemetery","fclName":"spot, building, farm","adminCodes1":{"ISO3166_2":"MA"},"countryName":"United States","fcodeName":"cemetery","adminName1":"Massachusetts","lat":"42.3487","fcode":"CMTY"},{"adminCode1":"MA","lng":"-72.98482","geonameId":4934859,"toponymName":"Diney Grove Cemetery","countryId":"6252001","fcl":"S","population":0,"countryCode":"US","name":"Diney Grove Cemetery","fclName":"spot, building, farm","adminCodes1":{"ISO3166_2":"MA"},"countryName":"United States","fcodeName":"cemetery","adminName1":"Massachusetts","lat":"42.33481","fcode":"CMTY"},{"adminCode1":"OH","lng":"-81.08538","geonameId":5156956,"toponymName":"Harrington Square Heliport","countryId":"6252001","fcl":"S","population":0,"countryCode":"US","name":"Harrington Square Heliport","fclName":"spot, building, farm","adminCodes1":{"ISO3166_2":"OH"},"countryName":"United States","fcodeName":"heliport","adminName1":"Ohio","lat":"41.46172","fcode":"AIRH"},{"adminCode1":"OH","lng":"-81.07149","geonameId":5149250,"toponymName":"Cardinal Middle School","countryId":"6252001","fcl":"S","population":0,"countryCode":"US","name":"Cardinal Middle School","fclName":"spot, building, farm","adminCodes1":{"ISO3166_2":"OH"},"countryName":"United States","fcodeName":"school","adminName1":"Ohio","lat":"41.46339","fcode":"SCH"},{"adminCode1":"OH","lng":"-81.07093","geonameId":5145335,"toponymName":"A J Jordak Elementary School","countryId":"6252001","fcl":"S","population":0,"countryCode":"US","name":"A J Jordak Elementary School","fclName":"spot, building, farm","adminCodes1":{"ISO3166_2":"OH"},"countryName":"United States","fcodeName":"school","adminName1":"Ohio","lat":"41.46228","fcode":"SCH"},{"adminCode1":"MA","lng":"-72.98288","geonameId":4930253,"toponymName":"Bell Cemetery","countryId":"6252001","fcl":"S","population":0,"countryCode":"US","name":"Bell Cemetery","fclName":"spot, building, farm","adminCodes1":{"ISO3166_2":"MA"},"countryName":"United States","fcodeName":"cemetery","adminName1":"Massachusetts","lat":"42.32925","fcode":"CMTY"},{"adminCode1":"NY","lng":"-74.84","geonameId":7121282,"toponymName":"School Number 9 (historical)","countryId":"6252001","fcl":"S","population":0,"countryCode":"US","name":"School Number 9 (historical)","fclName":"spot, building, farm","adminCodes1":{"ISO3166_2":"NY"},"countryName":"United States","fcodeName":"school","adminName1":"New York","lat":"42.76444","fcode":"SCH"},{"adminCode1":"NY","lng":"-74.87694","geonameId":7249701,"toponymName":"Westville Cemetery","countryId":"6252001","fcl":"S","population":0,"countryCode":"US","name":"Westville Cemetery","fclName":"spot, building, farm","adminCodes1":{"ISO3166_2":"NY"},"countryName":"United States","fcodeName":"cemetery","adminName1":"New York","lat":"42.63417","fcode":"CMTY"}]}
