{"totalResultsCount":149,"geonames":[{"adminCode1":"ID","lng":"-116.95045","geonameId":5600283,"toponymName":"Mary Minerva McCroskey Memorial State Park","countryId":"6252001","fcl":"L","population":0,"countryCode":"US","name":"Mary Minerva McCroskey Memorial State Park","fclName":"parks,area, ...","adminCodes1":{"ISO3166_2":"ID"},"countryName":"United States","fcodeName":"park","adminName1":"Idaho","lat":"47.0649","fcode":"PRK"},{"adminCode1":"OH","lng":"-81.10538","geonameId":5163143,"toponymName":"Minerva","countryId":"6252001","fcl":"P","population":3678,"countryCode":"US","name":"Minerva","fclName":"city, village,...","adminCodes1":{"ISO3166_2":"OH"},"countryName":"United States","fcodeName":"populated place","adminName1":"Ohio","lat":"40.72978","fcode":"PPL"},{"adminCode1":"OH","lng":"-82.94379","geonameId":5163149,"toponymName":"Minerva Park","countryId":"6252001","fcl":"P","population":1318,"countryCode":"US","name":"Minerva Park","fclName":"city, village,...","adminCodes1":{"ISO3166_2":"OH"},"countryName":"United States","fcodeName":"populated place","adminName1":"Ohio","lat":"40.07645","fcode":"PPL"},{"adminCode1":"KY","lng":"-83.91909","geonameId":4301080,"toponymName":"Minerva","countryId":"6252001","fcl":"P","population":0,"countryCode":"US","name":"Minerva","fclName":"city, village,...","adminCodes1":{"ISO3166_2":"KY"},"countryName":"United States","fcodeName":"populated place","adminName1":"Kentucky","lat":"38.70535","fcode":"PPL"},{"adminCode1":"IA","lng":"-93.1744","geonameId":4867549,"toponymName":"Township of Minerva","countryId":"6252001","fcl":"A","population":0,"countryCode":"US","name":"Minerva Township","fclName":"country, state, region,...","adminCodes1":{"ISO3166_2":"IA"},"countryName":"United States","fcodeName":"third-order administrative division","adminName1":"Iowa","lat":"42.07807","fcode":"ADM3"},{"adminCode1":"MN","lng":"-95.36071","geonameId":5037626,"toponymName":"Township of Minerva","countryId":"6252001","fcl":"A","population":0,"countryCode":"US","name":"Minerva Township","fclName":"country, state, region,...","adminCodes1":{"ISO3166_2":"MN"},"countryName":"United States","fcodeName":"third-order administrative division","adminName1":"Minnesota","lat":"47.3689","fcode":"ADM3"},{"adminCode1":"NY","lng":"-73.9843","geonameId":5127143,"toponymName":"Minerva","countryId":"6252001","fcl":"P","population":0,"countryCode":"US","name":"Minerva","fclName":"city, village,...","adminCodes1":{"ISO3166_2":"NY"},"countryName":"United States","fcodeName":"populated place","adminName1":"New York","lat":"43.79145","fcode":"PPL"},{"adminCode1":"IA","lng":"-93.19493","geonameId":4874060,"toponymName":"Saint Anthony","countryId":"6252001","fcl":"P","population":102,"countryCode":"US","name":"Saint Anthony","fclName":"city, village,...","adminCodes1":{"ISO3166_2":"IA"},"countryName":"United States","fcodeName":"populated place","adminName1":"Iowa","lat":"42.12221","fcode":"PPL"},{"adminCode1":"IA","lng":"-93.15604","geonameId":4851974,"toponymName":"Clemons","countryId":"6252001","fcl":"P","population":150,"countryCode":"US","name":"Clemons","fclName":"city, village,...","adminCodes1":{"ISO3166_2":"IA"},"countryName":"United States","fcodeName":"populated place","adminName1":"Iowa","lat":"42.11388","fcode":"PPL"},{"adminCode1":"OR","lng":"-123.96039","geonameId":5740972,"toponymName":"Minerva","countryId":"6252001","fcl":"P","population":0,"countryCode":"US","name":"Minerva","fclName":"city, village,...","adminCodes1":{"ISO3166_2":"OR"},"countryName":"United States","fcodeName":"populated place","adminName1":"Oregon","lat":"44.07068","fcode":"PPL"},{"adminCode1":"NV","lng":"-117.57986","geonameId":5706415,"toponymName":"Minerva Peak","countryId":"6252001","fcl":"T","population":0,"countryCode":"US","name":"Minerva Peak","fclName":"mountain,hill,rock,... ","adminCodes1":{"ISO3166_2":"NV"},"countryName":"United States","fcodeName":"mountain","adminName1":"Nevada","lat":"41.99489","fcode":"MT"},{"adminCode1":"OH","lng":"-81.10222","geonameId":7167035,"toponymName":"Village of Minerva","countryId":"6252001","fcl":"A","population":3720,"countryCode":"US","name":"Village of Minerva","fclName":"country, state, region,...","adminCodes1":{"ISO3166_2":"OH"},"countryName":"United States","fcodeName":"administrative division","adminName1":"Ohio","lat":"40.73067","fcode":"ADMD"},{"adminCode1":"OH","lng":"-82.94214","geonameId":7317564,"toponymName":"Village of Minerva Park","countryId":"6252001","fcl":"A","population":1272,"countryCode":"US","name":"Village of Minerva Park","fclName":"country, state, region,...","adminCodes1":{"ISO3166_2":"OH"},"countryName":"United States","fcodeName":"administrative division","adminName1":"Ohio","lat":"40.07773","fcode":"ADMD"},{"adminCode1":"TX","lng":"-96.99637","geonameId":4711654,"toponymName":"Minerva-Rockdale Oil Field","countryId":"6252001","fcl":"L","population":0,"countryCode":"US","name":"Minerva-Rockdale Oil Field","fclName":"parks,area, ...","adminCodes1":{"ISO3166_2":"TX"},"countryName":"United States","fcodeName":"oilfield","adminName1":"Texas","lat":"30.76353","fcode":"OILF"},{"adminCode1":"MI","lng":"-86.4771","geonameId":5002162,"toponymName":"Minerva Lake","countryId":"6252001","fcl":"H","population":0,"countryCode":"US","name":"Minerva Lake","fclName":"stream, lake, ...","adminCodes1":{"ISO3166_2":"MI"},"countryName":"United States","fcodeName":"lake","adminName1":"Michigan","lat":"46.14638","fcode":"LK"},{"adminCode1":"MN","lng":"-95.31682","geonameId":5037624,"toponymName":"Minerva Lake","countryId":"6252001","fcl":"H","population":0,"countryCode":"US","name":"Minerva Lake","fclName":"stream, lake, ...","adminCodes1":{"ISO3166_2":"MN"},"countryName":"United States","fcodeName":"lake","adminName1":"Minnesota","lat":"47.37685","fcode":"LK"},{"adminCode1":"MN","lng":"-91.24235","geonameId":5037625,"toponymName":"Minerva Lake","countryId":"6252001","fcl":"H","population":0,"countryCode":"US","name":"Minerva Lake","fclName":"stream, lake, ...","adminCodes1":{"ISO3166_2":"MN"},"countryName":"United States","fcodeName":"lake","adminName1":"Minnesota","lat":"48.05233","fcode":"LK"},{"adminCode1":"LA","lng":"-90.8162","geonameId":4333539,"toponymName":"Minerva Plantation","countryId":"6252001","fcl":"P","population":0,"countryCode":"US","name":"Minerva Plantation","fclName":"city, village,...","adminCodes1":{"ISO3166_2":"LA"},"countryName":"United States","fcodeName":"populated place","adminName1":"Louisiana","lat":"29.7091","fcode":"PPL"},{"adminCode1":"NV","lng":"-114.39222","geonameId":5508408,"toponymName":"Minerva","countryId":"6252001","fcl":"P","population":0,"countryCode":"US","name":"Minerva","fclName":"city, village,...","adminCodes1":{"ISO3166_2":"NV"},"countryName":"United States","fcodeName":"populated place","adminName1":"Nevada","lat":"38.82828","fcode":"PPL"},{"adminCode1":"WV","lng":"-82.23736","geonameId":4815069,"toponymName":"Minerva","countryId":"6252001","fcl":"P","population":0,"countryCode":"US","name":"Minerva","fclName":"city, village,...","adminCodes1":{"ISO3166_2":"WV"},"countryName":"United States","fcodeName":"populated place","adminName1":"West Virginia","lat":"38.16259","fcode":"PPL"},{"adminCode1":"NY","lng":"-73.93124","geonameId":5129808,"toponymName":"Olmstedville","countryId":"6252001","fcl":"P","population":0,"countryCode":"US","name":"Olmstedville","fclName":"city, village,...","adminCodes1":{"ISO3166_2":"NY"},"countryName":"United States","fcodeName":"populated place","adminName1":"New York","lat":"43.77145","fcode":"PPL"},{"adminCode1":"NY","lng":"-74.05544","geonameId":5127152,"toponymName":"Town of Minerva","countryId":"6252001","fcl":"A","population":797,"countryCode":"US","name":"Town of Minerva","fclName":"country, state, region,...","adminCodes1":{"ISO3166_2":"NY"},"countryName":"United States","fcodeName":"third-order administrative division","adminName1":"New York","lat":"43.85428","fcode":"ADM3"},{"adminCode1":"IA","lng":"-93.15604","geonameId":4867560,"toponymName":"Minerva Creek Bridge","countryId":"6252001","fcl":"S","population":0,"countryCode":"US","name":"Minerva Creek Bridge","fclName":"spot, building, farm","adminCodes1":{"ISO3166_2":"IA"},"countryName":"United States","fcodeName":"bridge","adminName1":"Iowa","lat":"42.13915","fcode":"BDG"},{"adminCode1":"OH","lng":"-81.14457","geonameId":5163144,"toponymName":"Minerva Airport","countryId":"6252001","fcl":"S","population":0,"countryCode":"US","name":"Minerva Airport","fclName":"spot, building, farm","adminCodes1":{"ISO3166_2":"OH"},"countryName":"United States","fcodeName":"airport","adminName1":"Ohio","lat":"40.74779","fcode":"AIRP"},{"adminCode1":"OH","lng":"-81.09788","geonameId":5163146,"toponymName":"Minerva High School","countryId":"6252001","fcl":"S","population":0,"countryCode":"US","name":"Minerva High School","fclName":"spot, building, farm","adminCodes1":{"ISO3166_2":"OH"},"countryName":"United States","fcodeName":"school","adminName1":"Ohio","lat":"40.73562","fcode":"SCH"},{"adminCode1":"NY","lng":"-73.97447","geonameId":5127144,"toponymName":"Minerva Lake","countryId":"6252001","fcl":"H","population":0,"countryCode":"US","name":"Minerva Lake","fclName":"stream, lake, ...","adminCodes1":{"ISO3166_2":"NY"},"countryName":"United States","fcodeName":"lake","adminName1":"New York","lat":"43.79325","fcode":"LK"},{"adminCode1":"IA","lng":"-93.14548","geonameId":4867261,"toponymName":"Middle Minerva Creek","countryId":"6252001","fcl":"H","population":0,"countryCode":"US","name":"Middle Minerva Creek","fclName":"stream, lake, ...","adminCodes1":{"ISO3166_2":"IA"},"countryName":"United States","fcodeName":"stream","adminName1":"Iowa","lat":"42.12193","fcode":"STM"},{"adminCode1":"IA","lng":"-93.13493","geonameId":4876972,"toponymName":"South Minerva Creek","countryId":"6252001","fcl":"H","population":0,"countryCode":"US","name":"South Minerva Creek","fclName":"stream, lake, ...","adminCodes1":{"ISO3166_2":"IA"},"countryName":"United States","fcodeName":"stream","adminName1":"Iowa","lat":"42.12776","fcode":"STM"},{"adminCode1":"MN","lng":"-95.38224","geonameId":5037623,"toponymName":"Minerva","countryId":"6252001","fcl":"P","population":0,"countryCode":"US","name":"Minerva","fclName":"city, village,...","adminCodes1":{"ISO3166_2":"MN"},"countryName":"United States","fcodeName":"populated place","adminName1":"Minnesota","lat":"47.36912","fcode":"PPL"},{"adminCode1":"TX","lng":"-97.74973","geonameId":4679003,"toponymName":"Carl","countryId":"6252001","fcl":"P","population":0,"countryCode":"US","name":"Carl","fclName":"city, village,...","adminCodes1":{"ISO3166_2":"TX"},"countryName":"United States","fcodeName":"populated place","adminName1":"Texas","lat":"30.1141","fcode":"PPL"},{"adminCode1":"NV","lng":"-114.31555","geonameId":5512205,"toponymName":"Shoshone Mining District","countryId":"6252001","fcl":"A","population":0,"countryCode":"US","name":"Shoshone Mining District","fclName":"country, state, region,...","adminCodes1":{"ISO3166_2":"NV"},"countryName":"United States","fcodeName":"administrative division","adminName1":"Nevada","lat":"38.81328","fcode":"ADMD"},{"adminCode1":"WI","lng":"-92.33186","geonameId":5263121,"toponymName":"Minerva 2WP503 Dam","countryId":"6252001","fcl":"S","population":0,"countryCode":"US","name":"Minerva 2WP503 Dam","fclName":"spot, building, farm","adminCodes1":{"ISO3166_2":"WI"},"countryName":"United States","fcodeName":"dam","adminName1":"Wisconsin","lat":"45.99994","fcode":"DAM"},{"adminCode1":"NY","lng":"-74.09598","geonameId":5142243,"toponymName":"Vanderwhacker Mountain","countryId":"6252001","fcl":"T","population":0,"countryCode":"US","name":"Vanderwhacker Mountain","fclName":"mountain,hill,rock,... ","adminCodes1":{"ISO3166_2":"NY"},"countryName":"United States","fcodeName":"mountain","adminName1":"New York","lat":"43.8984","fcode":"MT"},{"adminCode1":"ID","lng":"-116.39213","geonameId":5601135,"toponymName":"Minerva Peak","countryId":"6252001","fcl":"T","population":0,"countryCode":"US","name":"Minerva Peak","fclName":"mountain,hill,rock,... ","adminCodes1":{"ISO3166_2":"ID"},"countryName":"United States","fcodeName":"mountain","adminName1":"Idaho","lat":"48.06908","fcode":"MT"},{"adminCode1":"ID","lng":"-116.39102","geonameId":5601136,"toponymName":"Minerva Ridge","countryId":"6252001","fcl":"T","population":0,"countryCode":"US","name":"Minerva Ridge","fclName":"mountain,hill,rock,... ","adminCodes1":{"ISO3166_2":"ID"},"countryName":"United States","fcodeName":"ridge(s)","adminName1":"Idaho","lat":"48.0638","fcode":"RDGE"},{"adminCode1":"FL","lng":"-81.65831","geonameId":7190731,"toponymName":"Minerva Mobile Home Park","countryId":"6252001","fcl":"P","population":0,"countryCode":"US","name":"Minerva Mobile Home Park","fclName":"city, village,...","adminCodes1":{"ISO3166_2":"FL"},"countryName":"United States","fcodeName":"populated place","adminName1":"Florida","lat":"28.10738","fcode":"PPL"},{"adminCode1":"MS","lng":"-89.57924","geonameId":4436178,"toponymName":"Minerva","countryId":"6252001","fcl":"P","population":0,"countryCode":"US","name":"Minerva","fclName":"city, village,...","adminCodes1":{"ISO3166_2":"MS"},"countryName":"United States","fcodeName":"populated place","adminName1":"Mississippi","lat":"33.52846","fcode":"PPL"},{"adminCode1":"TX","lng":"-96.98804","geonameId":4711652,"toponymName":"Minerva","countryId":"6252001","fcl":"P","population":0,"countryCode":"US","name":"Minerva","fclName":"city, village,...","adminCodes1":{"ISO3166_2":"TX"},"countryName":"United States","fcodeName":"populated place","adminName1":"Texas","lat":"30.75825","fcode":"PPL"},{"adminCode1":"IA","lng":"-93.08798","geonameId":4867544,"toponymName":"Minerva","countryId":"6252001","fcl":"P","population":0,"countryCode":"US","name":"Minerva","fclName":"city, village,...","adminCodes1":{"ISO3166_2":"IA"},"countryName":"United States","fcodeName":"populated place","adminName1":"Iowa","lat":"42.11638","fcode":"PPL"},{"adminCode1":"NV","lng":"-114.35361","geonameId":5508409,"toponymName":"Minerva Canyon","countryId":"6252001","fcl":"T","population":0,"countryCode":"US","name":"Minerva Canyon","fclName":"mountain,hill,rock,... ","adminCodes1":{"ISO3166_2":"NV"},"countryName":"United States","fcodeName":"valley","adminName1":"Nevada","lat":"38.78745","fcode":"VAL"},{"adminCode1":"AK","lng":"-131.65417","geonameId":5555764,"toponymName":"Minerva Mountain","countryId":"6252001","fcl":"T","population":0,"countryCode":"US","name":"Minerva Mountain","fclName":"mountain,hill,rock,... ","adminCodes1":{"ISO3166_2":"AK"},"countryName":"United States","fcodeName":"mountain","adminName1":"Alaska","lat":"55.37278","fcode":"MT"},{"adminCode1":"OH","lng":"-81.15149","geonameId":5163147,"toponymName":"Minerva Junction","countryId":"6252001","fcl":"P","population":0,"countryCode":"US","name":"Minerva Junction","fclName":"city, village,...","adminCodes1":{"ISO3166_2":"OH"},"countryName":"United States","fcodeName":"populated place","adminName1":"Ohio","lat":"40.71173","fcode":"PPL"},{"adminCode1":"IA","lng":"-93.12965","geonameId":4849422,"toponymName":"Bromley","countryId":"6252001","fcl":"P","population":0,"countryCode":"US","name":"Bromley","fclName":"city, village,...","adminCodes1":{"ISO3166_2":"IA"},"countryName":"United States","fcodeName":"populated place","adminName1":"Iowa","lat":"42.11888","fcode":"PPL"},{"adminCode1":"CA","lng":"-120.92606","geonameId":5373439,"toponymName":"Minerva Bar","countryId":"6252001","fcl":"T","population":0,"countryCode":"US","name":"Minerva Bar","fclName":"mountain,hill,rock,... ","adminCodes1":{"ISO3166_2":"CA"},"countryName":"United States","fcodeName":"bar","adminName1":"California","lat":"39.84795","fcode":"BAR"},{"adminCode1":"WA","lng":"-123.15755","geonameId":7714364,"toponymName":"Minerva Beach Mobile Village Resort","countryId":"6252001","fcl":"P","population":0,"countryCode":"US","name":"Minerva Beach Mobile Village Resort","fclName":"city, village,...","adminCodes1":{"ISO3166_2":"WA"},"countryName":"United States","fcodeName":"populated place","adminName1":"Washington","lat":"47.36324","fcode":"PPL"},{"adminCode1":"CA","lng":"-116.22667","geonameId":8502262,"toponymName":"Mount Minerva Hoyt","countryId":"6252001","fcl":"T","population":0,"countryCode":"US","name":"Mount Minerva Hoyt","fclName":"mountain,hill,rock,... ","adminCodes1":{"ISO3166_2":"CA"},"countryName":"United States","fcodeName":"mountain","adminName1":"California","lat":"34.0132","fcode":"MT"},{"adminCode1":"NY","lng":"-73.98389","geonameId":7225396,"toponymName":"Minerva Theatre (historical)","countryId":"6252001","fcl":"S","population":0,"countryCode":"US","name":"Minerva Theatre (historical)","fclName":"spot, building, farm","adminCodes1":{"ISO3166_2":"NY"},"countryName":"United States","fcodeName":"building(s)","adminName1":"New York","lat":"40.66389","fcode":"BLDG"},{"adminCode1":"AL","lng":"-88.39808","geonameId":4076449,"toponymName":"Minerva Memorial Methodist Church","countryId":"6252001","fcl":"S","population":0,"countryCode":"US","name":"Minerva Memorial Methodist Church","fclName":"spot, building, farm","adminCodes1":{"ISO3166_2":"AL"},"countryName":"United States","fcodeName":"church","adminName1":"Alabama","lat":"31.61655","fcode":"CH"},{"adminCode1":"WI","lng":"-92.32627","geonameId":5263122,"toponymName":"Minerva Lake","countryId":"6252001","fcl":"H","population":0,"countryCode":"US","name":"Minerva Lake","fclName":"stream, lake, ...","adminCodes1":{"ISO3166_2":"WI"},"countryName":"United States","fcodeName":"reservoir(s)","adminName1":"Wisconsin","lat":"45.98805","fcode":"RSV"},{"adminCode1":"OH","lng":"-81.10649","geonameId":5163145,"toponymName":"Minerva Cemetery","countryId":"6252001","fcl":"S","population":0,"countryCode":"US","name":"Minerva Cemetery","fclName":"spot, building, farm","adminCodes1":{"ISO3166_2":"OH"},"countryName":"United States","fcodeName":"cemetery","adminName1":"Ohio","lat":"40.72478","fcode":"CMTY"},{"adminCode1":"NY","lng":"-74.1507","geonameId":5136084,"toponymName":"Saints Rest","countryId":"6252001","fcl":"T","population":0,"countryCode":"US","name":"Saints Rest","fclName":"mountain,hill,rock,... ","adminCodes1":{"ISO3166_2":"NY"},"countryName":"United States","fcodeName":"mountain","adminName1":"New York","lat":"43.84284","fcode":"MT"},{"adminCode1":"NY","lng":"-73.92486","geonameId":5138628,"toponymName":"Snyder Hill","countryId":"6252001","fcl":"T","population":0,"countryCode":"US","name":"Snyder Hill","fclName":"mountain,hill,rock,... ","adminCodes1":{"ISO3166_2":"NY"},"countryName":"United States","fcodeName":"mountain","adminName1":"New York","lat":"43.80229","fcode":"MT"},{"adminCode1":"NY","lng":"-74.01153","geonameId":5133073,"toponymName":"Pudding Hollow","countryId":"6252001","fcl":"P","population":0,"countryCode":"US","name":"Pudding Hollow","fclName":"city, village,...","adminCodes1":{"ISO3166_2":"NY"},"countryName":"United States","fcodeName":"populated place","adminName1":"New York","lat":"43.79729","fcode":"PPL"},{"adminCode1":"NY","lng":"-74.02236","geonameId":5133414,"toponymName":"Rankin Pond Mountain","countryId":"6252001","fcl":"T","population":0,"countryCode":"US","name":"Rankin Pond Mountain","fclName":"mountain,hill,rock,... ","adminCodes1":{"ISO3166_2":"NY"},"countryName":"United States","fcodeName":"mountain","adminName1":"New York","lat":"43.85034","fcode":"MT"},{"adminCode1":"NY","lng":"-74.03875","geonameId":5134332,"toponymName":"Roosevelt Hill","countryId":"6252001","fcl":"T","population":0,"countryCode":"US","name":"Roosevelt Hill","fclName":"mountain,hill,rock,... ","adminCodes1":{"ISO3166_2":"NY"},"countryName":"United States","fcodeName":"mountain","adminName1":"New York","lat":"43.93895","fcode":"MT"},{"adminCode1":"NY","lng":"-74.05625","geonameId":5139727,"toponymName":"Stillwater","countryId":"6252001","fcl":"P","population":0,"countryCode":"US","name":"Stillwater","fclName":"city, village,...","adminCodes1":{"ISO3166_2":"NY"},"countryName":"United States","fcodeName":"populated place","adminName1":"New York","lat":"43.85006","fcode":"PPL"},{"adminCode1":"NY","lng":"-74.03458","geonameId":5142254,"toponymName":"Venison Mountain","countryId":"6252001","fcl":"T","population":0,"countryCode":"US","name":"Venison Mountain","fclName":"mountain,hill,rock,... ","adminCodes1":{"ISO3166_2":"NY"},"countryName":"United States","fcodeName":"mountain","adminName1":"New York","lat":"43.8084","fcode":"MT"},{"adminCode1":"NY","lng":"-74.1457","geonameId":5129335,"toponymName":"Northwoods Club","countryId":"6252001","fcl":"P","population":0,"countryCode":"US","name":"Northwoods Club","fclName":"city, village,...","adminCodes1":{"ISO3166_2":"NY"},"countryName":"United States","fcodeName":"populated place","adminName1":"New York","lat":"43.84534","fcode":"PPL"},{"adminCode1":"NY","lng":"-73.9068","geonameId":5129794,"toponymName":"Oliver Hill","countryId":"6252001","fcl":"T","population":0,"countryCode":"US","name":"Oliver Hill","fclName":"mountain,hill,rock,... ","adminCodes1":{"ISO3166_2":"NY"},"countryName":"United States","fcodeName":"mountain","adminName1":"New York","lat":"43.80812","fcode":"MT"},{"adminCode1":"NY","lng":"-74.07736","geonameId":5131451,"toponymName":"Pine Mountain","countryId":"6252001","fcl":"T","population":0,"countryCode":"US","name":"Pine Mountain","fclName":"mountain,hill,rock,... ","adminCodes1":{"ISO3166_2":"NY"},"countryName":"United States","fcodeName":"mountain","adminName1":"New York","lat":"43.81006","fcode":"MT"},{"adminCode1":"NY","lng":"-74.0407","geonameId":5125343,"toponymName":"Lost Pond Mountain","countryId":"6252001","fcl":"T","population":0,"countryCode":"US","name":"Lost Pond Mountain","fclName":"mountain,hill,rock,... ","adminCodes1":{"ISO3166_2":"NY"},"countryName":"United States","fcodeName":"mountain","adminName1":"New York","lat":"43.83479","fcode":"MT"},{"adminCode1":"NY","lng":"-73.99236","geonameId":5127922,"toponymName":"Moxham Mountain","countryId":"6252001","fcl":"T","population":0,"countryCode":"US","name":"Moxham Mountain","fclName":"mountain,hill,rock,... ","adminCodes1":{"ISO3166_2":"NY"},"countryName":"United States","fcodeName":"mountain","adminName1":"New York","lat":"43.75562","fcode":"MT"},{"adminCode1":"NY","lng":"-74.16848","geonameId":5115491,"toponymName":"Dunk Hill","countryId":"6252001","fcl":"T","population":0,"countryCode":"US","name":"Dunk Hill","fclName":"mountain,hill,rock,... ","adminCodes1":{"ISO3166_2":"NY"},"countryName":"United States","fcodeName":"mountain","adminName1":"New York","lat":"43.83895","fcode":"MT"},{"adminCode1":"NY","lng":"-74.03153","geonameId":5115601,"toponymName":"Dutton Mountain","countryId":"6252001","fcl":"T","population":0,"countryCode":"US","name":"Dutton Mountain","fclName":"mountain,hill,rock,... ","adminCodes1":{"ISO3166_2":"NY"},"countryName":"United States","fcodeName":"mountain","adminName1":"New York","lat":"43.78951","fcode":"MT"},{"adminCode1":"NY","lng":"-74.07598","geonameId":5116459,"toponymName":"Elm Hill","countryId":"6252001","fcl":"T","population":0,"countryCode":"US","name":"Elm Hill","fclName":"mountain,hill,rock,... ","adminCodes1":{"ISO3166_2":"NY"},"countryName":"United States","fcodeName":"mountain","adminName1":"New York","lat":"43.87895","fcode":"MT"},{"adminCode1":"NY","lng":"-74.2946","geonameId":5117278,"toponymName":"Fishing Brook Mountain","countryId":"6252001","fcl":"T","population":0,"countryCode":"US","name":"Fishing Brook Mountain","fclName":"mountain,hill,rock,... ","adminCodes1":{"ISO3166_2":"NY"},"countryName":"United States","fcodeName":"mountain","adminName1":"New York","lat":"43.93423","fcode":"MT"},{"adminCode1":"NY","lng":"-74.06486","geonameId":5117636,"toponymName":"Forks Mountain","countryId":"6252001","fcl":"T","population":0,"countryCode":"US","name":"Forks Mountain","fclName":"mountain,hill,rock,... ","adminCodes1":{"ISO3166_2":"NY"},"countryName":"United States","fcodeName":"mountain","adminName1":"New York","lat":"43.80617","fcode":"MT"},{"adminCode1":"NY","lng":"-74.06292","geonameId":5107752,"toponymName":"Baldface Mountain","countryId":"6252001","fcl":"T","population":0,"countryCode":"US","name":"Baldface Mountain","fclName":"mountain,hill,rock,... ","adminCodes1":{"ISO3166_2":"NY"},"countryName":"United States","fcodeName":"mountain","adminName1":"New York","lat":"43.82951","fcode":"MT"},{"adminCode1":"NY","lng":"-74.01597","geonameId":5107791,"toponymName":"Balfour Mountain","countryId":"6252001","fcl":"T","population":0,"countryCode":"US","name":"Balfour Mountain","fclName":"mountain,hill,rock,... ","adminCodes1":{"ISO3166_2":"NY"},"countryName":"United States","fcodeName":"mountain","adminName1":"New York","lat":"43.86256","fcode":"MT"},{"adminCode1":"NY","lng":"-74.11876","geonameId":5108485,"toponymName":"Beaver Mountain","countryId":"6252001","fcl":"T","population":0,"countryCode":"US","name":"Beaver Mountain","fclName":"mountain,hill,rock,... ","adminCodes1":{"ISO3166_2":"NY"},"countryName":"United States","fcodeName":"mountain","adminName1":"New York","lat":"43.86895","fcode":"MT"},{"adminCode1":"NY","lng":"-74.20765","geonameId":5109118,"toponymName":"Big Pisgah Mountain","countryId":"6252001","fcl":"T","population":0,"countryCode":"US","name":"Big Pisgah Mountain","fclName":"mountain,hill,rock,... ","adminCodes1":{"ISO3166_2":"NY"},"countryName":"United States","fcodeName":"mountain","adminName1":"New York","lat":"43.84118","fcode":"MT"},{"adminCode1":"NY","lng":"-73.9632","geonameId":5109806,"toponymName":"Boreas River","countryId":"6252001","fcl":"P","population":0,"countryCode":"US","name":"Boreas River","fclName":"city, village,...","adminCodes1":{"ISO3166_2":"NY"},"countryName":"United States","fcodeName":"populated place","adminName1":"New York","lat":"43.94145","fcode":"PPL"},{"adminCode1":"NY","lng":"-74.13598","geonameId":5110533,"toponymName":"Buck Hill","countryId":"6252001","fcl":"T","population":0,"countryCode":"US","name":"Buck Hill","fclName":"mountain,hill,rock,... ","adminCodes1":{"ISO3166_2":"NY"},"countryName":"United States","fcodeName":"mountain","adminName1":"New York","lat":"43.87756","fcode":"MT"},{"adminCode1":"NY","lng":"-74.05347","geonameId":5110542,"toponymName":"Buck Mountain","countryId":"6252001","fcl":"T","population":0,"countryCode":"US","name":"Buck Mountain","fclName":"mountain,hill,rock,... ","adminCodes1":{"ISO3166_2":"NY"},"countryName":"United States","fcodeName":"mountain","adminName1":"New York","lat":"43.87173","fcode":"MT"},{"adminCode1":"NY","lng":"-73.94041","geonameId":5122319,"toponymName":"Irishtown","countryId":"6252001","fcl":"P","population":0,"countryCode":"US","name":"Irishtown","fclName":"city, village,...","adminCodes1":{"ISO3166_2":"NY"},"countryName":"United States","fcodeName":"populated place","adminName1":"New York","lat":"43.79895","fcode":"PPL"},{"adminCode1":"NY","lng":"-74.01514","geonameId":5123141,"toponymName":"Kays Hill","countryId":"6252001","fcl":"T","population":0,"countryCode":"US","name":"Kays Hill","fclName":"mountain,hill,rock,... ","adminCodes1":{"ISO3166_2":"NY"},"countryName":"United States","fcodeName":"mountain","adminName1":"New York","lat":"43.90895","fcode":"MT"},{"adminCode1":"NY","lng":"-74.04542","geonameId":5123197,"toponymName":"Kellogg Mountain","countryId":"6252001","fcl":"T","population":0,"countryCode":"US","name":"Kellogg Mountain","fclName":"mountain,hill,rock,... ","adminCodes1":{"ISO3166_2":"NY"},"countryName":"United States","fcodeName":"mountain","adminName1":"New York","lat":"43.8109","fcode":"MT"},{"adminCode1":"NY","lng":"-74.10403","geonameId":5123331,"toponymName":"Kettle Mountain","countryId":"6252001","fcl":"T","population":0,"countryCode":"US","name":"Kettle Mountain","fclName":"mountain,hill,rock,... ","adminCodes1":{"ISO3166_2":"NY"},"countryName":"United States","fcodeName":"mountain","adminName1":"New York","lat":"43.80951","fcode":"MT"},{"adminCode1":"NY","lng":"-74.11598","geonameId":5124569,"toponymName":"Little Beaver Mountain","countryId":"6252001","fcl":"T","population":0,"countryCode":"US","name":"Little Beaver Mountain","fclName":"mountain,hill,rock,... ","adminCodes1":{"ISO3166_2":"NY"},"countryName":"United States","fcodeName":"mountain","adminName1":"New York","lat":"43.88034","fcode":"MT"},{"adminCode1":"NY","lng":"-74.00264","geonameId":5106806,"toponymName":"Aiden Lair","countryId":"6252001","fcl":"P","population":0,"countryCode":"US","name":"Aiden Lair","fclName":"city, village,...","adminCodes1":{"ISO3166_2":"NY"},"countryName":"United States","fcodeName":"populated place","adminName1":"New York","lat":"43.87173","fcode":"PPL"},{"adminCode1":"NY","lng":"-74.01403","geonameId":5114282,"toponymName":"Crusher Hill","countryId":"6252001","fcl":"T","population":0,"countryCode":"US","name":"Crusher Hill","fclName":"mountain,hill,rock,... ","adminCodes1":{"ISO3166_2":"NY"},"countryName":"United States","fcodeName":"mountain","adminName1":"New York","lat":"43.83951","fcode":"MT"},{"adminCode1":"NY","lng":"-73.95652","geonameId":5119312,"toponymName":"Green Mountain","countryId":"6252001","fcl":"T","population":0,"countryCode":"US","name":"Green Mountain","fclName":"mountain,hill,rock,... ","adminCodes1":{"ISO3166_2":"NY"},"countryName":"United States","fcodeName":"mountain","adminName1":"New York","lat":"43.83256","fcode":"MT"},{"adminCode1":"NY","lng":"-73.97986","geonameId":5120626,"toponymName":"Hewitt Pond Mountain","countryId":"6252001","fcl":"T","population":0,"countryCode":"US","name":"Hewitt Pond Mountain","fclName":"mountain,hill,rock,... ","adminCodes1":{"ISO3166_2":"NY"},"countryName":"United States","fcodeName":"mountain","adminName1":"New York","lat":"43.88173","fcode":"MT"},{"adminCode1":"IA","lng":"-93.19493","geonameId":4874068,"toponymName":"Saint Anthony Post Office","countryId":"6252001","fcl":"S","population":0,"countryCode":"US","name":"Saint Anthony Post Office","fclName":"spot, building, farm","adminCodes1":{"ISO3166_2":"IA"},"countryName":"United States","fcodeName":"post office","adminName1":"Iowa","lat":"42.12221","fcode":"PO"},{"adminCode1":"IA","lng":"-93.1652","geonameId":4874390,"toponymName":"Saint Johns Cemetery","countryId":"6252001","fcl":"S","population":0,"countryCode":"US","name":"Saint Johns Cemetery","fclName":"spot, building, farm","adminCodes1":{"ISO3166_2":"IA"},"countryName":"United States","fcodeName":"cemetery","adminName1":"Iowa","lat":"42.06276","fcode":"CMTY"},{"adminCode1":"IA","lng":"-93.15854","geonameId":4851975,"toponymName":"Clemons (historical)","countryId":"6252001","fcl":"S","population":0,"countryCode":"US","name":"Clemons (historical)","fclName":"spot, building, farm","adminCodes1":{"ISO3166_2":"IA"},"countryName":"United States","fcodeName":"","adminName1":"Iowa","lat":"42.11638"},{"adminCode1":"IA","lng":"-93.16687","geonameId":4851976,"toponymName":"Clemons Cemetery","countryId":"6252001","fcl":"S","population":0,"countryCode":"US","name":"Clemons Cemetery","fclName":"spot, building, farm","adminCodes1":{"ISO3166_2":"IA"},"countryName":"United States","fcodeName":"cemetery","adminName1":"Iowa","lat":"42.1136","fcode":"CMTY"},{"adminCode1":"IA","lng":"-93.15881","geonameId":4851979,"toponymName":"Clemons Post Office","countryId":"6252001","fcl":"S","population":0,"countryCode":"US","name":"Clemons Post Office","fclName":"spot, building, farm","adminCodes1":{"ISO3166_2":"IA"},"countryName":"United States","fcodeName":"post office","adminName1":"Iowa","lat":"42.11526","fcode":"PO"},{"adminCode1":"MN","lng":"-95.38088","geonameId":5030350,"toponymName":"Hoiland Field","countryId":"6252001","fcl":"S","population":0,"countryCode":"US","name":"Hoiland Field","fclName":"spot, building, farm","adminCodes1":{"ISO3166_2":"MN"},"countryName":"United States","fcodeName":"airfield","adminName1":"Minnesota","lat":"47.38686","fcode":"AIRF"},{"adminCode1":"NY","lng":"-77.44921","geonameId":5114797,"toponymName":"Minerva Deland School","countryId":"6252001","fcl":"S","population":0,"countryCode":"US","name":"Minerva Deland School","fclName":"spot, building, farm","adminCodes1":{"ISO3166_2":"NY"},"countryName":"United States","fcodeName":"school","adminName1":"New York","lat":"43.09022","fcode":"SCH"},{"adminCode1":"OH","lng":"-81.09621","geonameId":5162062,"toponymName":"Mary Irene Day Elementary School","countryId":"6252001","fcl":"S","population":0,"countryCode":"US","name":"Mary Irene Day Elementary School","fclName":"spot, building, farm","adminCodes1":{"ISO3166_2":"OH"},"countryName":"United States","fcodeName":"school","adminName1":"Ohio","lat":"40.73062","fcode":"SCH"},{"adminCode1":"IA","lng":"-93.1452","geonameId":4867548,"toponymName":"Minerva Post Office (historical)","countryId":"6252001","fcl":"S","population":0,"countryCode":"US","name":"Minerva Post Office (historical)","fclName":"spot, building, farm","adminCodes1":{"ISO3166_2":"IA"},"countryName":"United States","fcodeName":"post office","adminName1":"Iowa","lat":"42.11721","fcode":"PO"},{"adminCode1":"OR","lng":"-123.96039","geonameId":5740973,"toponymName":"Minerva Post Office (historical)","countryId":"6252001","fcl":"S","population":0,"countryCode":"US","name":"Minerva Post Office (historical)","fclName":"spot, building, farm","adminCodes1":{"ISO3166_2":"OR"},"countryName":"United States","fcodeName":"post office","adminName1":"Oregon","lat":"44.07068","fcode":"PO"},{"adminCode1":"MT","lng":"-108.83182","geonameId":5666520,"toponymName":"Minerva Creek","countryId":"6252001","fcl":"H","population":0,"countryCode":"US","name":"Minerva Creek","fclName":"stream, lake, ...","adminCodes1":{"ISO3166_2":"MT"},"countryName":"United States","fcodeName":"stream","adminName1":"Montana","lat":"46.67191","fcode":"STM"},{"adminCode1":"MT","lng":"-112.0411","geonameId":5666521,"toponymName":"Minerva Mine","countryId":"6252001","fcl":"S","population":0,"countryCode":"US","name":"Minerva Mine","fclName":"spot, building, farm","adminCodes1":{"ISO3166_2":"MT"},"countryName":"United States","fcodeName":"mine(s)","adminName1":"Montana","lat":"45.91798","fcode":"MN"},{"adminCode1":"ID","lng":"-116.40991","geonameId":5601133,"toponymName":"Minerva Mine","countryId":"6252001","fcl":"S","population":0,"countryCode":"US","name":"Minerva Mine","fclName":"spot, building, farm","adminCodes1":{"ISO3166_2":"ID"},"countryName":"United States","fcodeName":"mine(s)","adminName1":"Idaho","lat":"48.07325","fcode":"MN"},{"adminCode1":"ID","lng":"-115.11897","geonameId":5601134,"toponymName":"Minerva Mine","countryId":"6252001","fcl":"S","population":0,"countryCode":"US","name":"Minerva Mine","fclName":"spot, building, farm","adminCodes1":{"ISO3166_2":"ID"},"countryName":"United States","fcodeName":"mine(s)","adminName1":"Idaho","lat":"43.77351","fcode":"MN"},{"adminCode1":"FL","lng":"-80.93283","geonameId":7192003,"toponymName":"Minerva Civic Center","countryId":"6252001","fcl":"S","population":0,"countryCode":"US","name":"Minerva Civic Center","fclName":"spot, building, farm","adminCodes1":{"ISO3166_2":"FL"},"countryName":"United States","fcodeName":"building(s)","adminName1":"Florida","lat":"29.02739","fcode":"BLDG"},{"adminCode1":"OH","lng":"-82.94278","geonameId":7132848,"toponymName":"Minerva Park Village Hall","countryId":"6252001","fcl":"S","population":0,"countryCode":"US","name":"Minerva Park Village Hall","fclName":"spot, building, farm","adminCodes1":{"ISO3166_2":"OH"},"countryName":"United States","fcodeName":"building(s)","adminName1":"Ohio","lat":"40.07722","fcode":"BLDG"},{"adminCode1":"FL","lng":"-82.33085","geonameId":7224264,"toponymName":"Minerva Canal","countryId":"6252001","fcl":"H","population":0,"countryCode":"US","name":"Minerva Canal","fclName":"stream, lake, ...","adminCodes1":{"ISO3166_2":"FL"},"countryName":"United States","fcodeName":"canal","adminName1":"Florida","lat":"26.93436","fcode":"CNL"}]}
