{"totalResultsCount":42,"geonames":[{"adminCode1":"MS","lng":"-90.57093","geonameId":4421935,"toponymName":"Clarksdale","countryId":"6252001","fcl":"P","population":16847,"countryCode":"US","name":"Clarksdale","fclName":"city, village,...","adminCodes1":{"ISO3166_2":"MS"},"countryName":"United States","fcodeName":"seat of a second-order administrative division","adminName1":"Mississippi","lat":"34.20011","fcode":"PPLA2"},{"adminCode1":"MS","lng":"-90.9851","geonameId":4428484,"toponymName":"Greenville International Airport","countryId":"6252001","fcl":"S","population":0,"countryCode":"US","name":"Greenville International Airport","fclName":"spot, building, farm","adminCodes1":{"ISO3166_2":"MS"},"countryName":"United States","fcodeName":"airport","adminName1":"Mississippi","lat":"33.48234","fcode":"AIRP"},{"adminCode1":"LA","lng":"-89.25338","geonameId":4333587,"toponymName":"Mississippi River Delta","countryId":"6252001","fcl":"H","population":0,"countryCode":"US","name":"Mississippi River","fclName":"stream, lake, ...","adminCodes1":{"ISO3166_2":"LA"},"countryName":"United States","fcodeName":"stream","adminName1":"Louisiana","lat":"29.15106","fcode":"STM"},{"adminCode1":"MS","lng":"-90.7951","geonameId":4423773,"toponymName":"Delta City","countryId":"6252001","fcl":"P","population":0,"countryCode":"US","name":"Delta City","fclName":"city, village,...","adminCodes1":{"ISO3166_2":"MS"},"countryName":"United States","fcodeName":"populated place","adminName1":"Mississippi","lat":"33.07401","fcode":"PPL"},{"adminCode1":"MS","lng":"-90.40565","geonameId":4451810,"toponymName":"Yazoo City","countryId":"6252001","fcl":"P","population":11245,"countryCode":"US","name":"Yazoo City","fclName":"city, village,...","adminCodes1":{"ISO3166_2":"MS"},"countryName":"United States","fcodeName":"seat of a second-order administrative division","adminName1":"Mississippi","lat":"32.85513","fcode":"PPLA2"},{"adminCode1":"MS","lng":"-90.20169","geonameId":8113352,"toponymName":"Delta Flying Service Inc","countryId":"6252001","fcl":"S","population":0,"countryCode":"US","name":"Delta Flying Service Inc","fclName":"spot, building, farm","adminCodes1":{"ISO3166_2":"MS"},"countryName":"United States","fcodeName":"airport","adminName1":"Mississippi","lat":"34.9404","fcode":"AIRP"},{"adminCode1":"MS","lng":"-90.57233","geonameId":4423797,"toponymName":"Delta","countryId":"6252001","fcl":"P","population":0,"countryCode":"US","name":"Delta","fclName":"city, village,...","adminCodes1":{"ISO3166_2":"MS"},"countryName":"United States","fcodeName":"populated place","adminName1":"Mississippi","lat":"34.40455","fcode":"PPL"},{"adminCode1":"MS","lng":"-91.15962","geonameId":4423782,"toponymName":"Delta Lake","countryId":"6252001","fcl":"H","population":0,"countryCode":"US","name":"Delta Lake","fclName":"stream, lake, ...","adminCodes1":{"ISO3166_2":"MS"},"countryName":"United States","fcodeName":"lake","adminName1":"Mississippi","lat":"31.37236","fcode":"LK"},{"adminCode1":"MS","lng":"-89.67923","geonameId":4423792,"toponymName":"The Delta","countryId":"6252001","fcl":"L","population":0,"countryCode":"US","name":"The Delta","fclName":"parks,area, ...","adminCodes1":{"ISO3166_2":"MS"},"countryName":"United States","fcodeName":"area","adminName1":"Mississippi","lat":"30.40992","fcode":"AREA"},{"adminCode1":"MS","lng":"-90.73482","geonameId":4423789,"toponymName":"Delta State University","countryId":"6252001","fcl":"S","population":0,"countryCode":"US","name":"Delta State University","fclName":"spot, building, farm","adminCodes1":{"ISO3166_2":"MS"},"countryName":"United States","fcodeName":"school","adminName1":"Mississippi","lat":"33.74706","fcode":"SCH"},{"adminCode1":"MS","lng":"-90.58926","geonameId":4421168,"toponymName":"Central Delta Academy","countryId":"6252001","fcl":"S","population":0,"countryCode":"US","name":"Central Delta Academy","fclName":"spot, building, farm","adminCodes1":{"ISO3166_2":"MS"},"countryName":"United States","fcodeName":"school","adminName1":"Mississippi","lat":"33.35234","fcode":"SCH"},{"adminCode1":"MS","lng":"-90.57538","geonameId":4423770,"toponymName":"Delta Blues Museum","countryId":"6252001","fcl":"S","population":0,"countryCode":"US","name":"Delta Blues Museum","fclName":"spot, building, farm","adminCodes1":{"ISO3166_2":"MS"},"countryName":"United States","fcodeName":"museum","adminName1":"Mississippi","lat":"34.20483","fcode":"MUS"},{"adminCode1":"MS","lng":"-90.90705","geonameId":4423771,"toponymName":"Delta Branch Experimental Station Airport","countryId":"6252001","fcl":"S","population":0,"countryCode":"US","name":"Delta Branch Experimental Station Airport","fclName":"spot, building, farm","adminCodes1":{"ISO3166_2":"MS"},"countryName":"United States","fcodeName":"airport","adminName1":"Mississippi","lat":"33.42512","fcode":"AIRP"},{"adminCode1":"LA","lng":"-89.25033","geonameId":4333588,"toponymName":"Mississippi River Delta","countryId":"6252001","fcl":"L","population":0,"countryCode":"US","name":"Mississippi River Delta","fclName":"parks,area, ...","adminCodes1":{"ISO3166_2":"LA"},"countryName":"United States","fcodeName":"area","adminName1":"Louisiana","lat":"29.16689","fcode":"AREA"},{"adminCode1":"MS","lng":"-90.49953","geonameId":4423791,"toponymName":"Delta State Junior College","countryId":"6252001","fcl":"S","population":0,"countryCode":"US","name":"Delta State Junior College","fclName":"spot, building, farm","adminCodes1":{"ISO3166_2":"MS"},"countryName":"United States","fcodeName":"school","adminName1":"Mississippi","lat":"33.44179","fcode":"SCH"},{"adminCode1":"MS","lng":"-90.12898","geonameId":4423769,"toponymName":"Delta","countryId":"6252001","fcl":"P","population":0,"countryCode":"US","name":"Delta","fclName":"city, village,...","adminCodes1":{"ISO3166_2":"MS"},"countryName":"United States","fcodeName":"populated place","adminName1":"Mississippi","lat":"34.42316","fcode":"PPL"},{"adminCode1":"MS","lng":"-90.60427","geonameId":4423793,"toponymName":"Delta-Friars Point Revetment","countryId":"6252001","fcl":"T","population":0,"countryCode":"US","name":"Delta-Friars Point Revetment","fclName":"mountain,hill,rock,... ","adminCodes1":{"ISO3166_2":"MS"},"countryName":"United States","fcodeName":"levee","adminName1":"Mississippi","lat":"34.38899","fcode":"LEV"},{"adminCode1":"MS","lng":"-90.51537","geonameId":4424525,"toponymName":"Doddsville Industrial Institute (historical)","countryId":"6252001","fcl":"S","population":0,"countryCode":"US","name":"Doddsville Industrial Institute (historical)","fclName":"spot, building, farm","adminCodes1":{"ISO3166_2":"MS"},"countryName":"United States","fcodeName":"school","adminName1":"Mississippi","lat":"33.68067","fcode":"SCH"},{"adminCode1":"MS","lng":"-89.73342","geonameId":4418987,"toponymName":"Bogue Watershed Y-30-95 Dam","countryId":"6252001","fcl":"S","population":0,"countryCode":"US","name":"Bogue Watershed Y-30-95 Dam","fclName":"spot, building, farm","adminCodes1":{"ISO3166_2":"MS"},"countryName":"United States","fcodeName":"dam","adminName1":"Mississippi","lat":"33.60345","fcode":"DAM"},{"adminCode1":"MS","lng":"-90.91435","geonameId":9409653,"toponymName":"Delta Research & Experiement Center (DREC)","countryId":"6252001","fcl":"S","population":0,"countryCode":"US","name":"Delta Research & Experiement Center (DREC)","fclName":"spot, building, farm","adminCodes1":{"ISO3166_2":"MS"},"countryName":"United States","fcodeName":"experiment station","adminName1":"Mississippi","lat":"33.4227","fcode":"STNE"},{"adminCode1":"MS","lng":"-91.0353","geonameId":4423785,"toponymName":"Delta Regional Medical Center","countryId":"6252001","fcl":"S","population":0,"countryCode":"US","name":"Delta Regional Medical Center","fclName":"spot, building, farm","adminCodes1":{"ISO3166_2":"MS"},"countryName":"United States","fcodeName":"hospital","adminName1":"Mississippi","lat":"33.41094","fcode":"HSP"},{"adminCode1":"MS","lng":"-90.27982","geonameId":4423781,"toponymName":"Delta Hills of Pritchard School","countryId":"6252001","fcl":"S","population":0,"countryCode":"US","name":"Delta Hills of Pritchard School","fclName":"spot, building, farm","adminCodes1":{"ISO3166_2":"MS"},"countryName":"United States","fcodeName":"school","adminName1":"Mississippi","lat":"34.71732","fcode":"SCH"},{"adminCode1":"MS","lng":"-91.05066","geonameId":4432419,"toponymName":"Delta Regional Medical Center West Campus","countryId":"6252001","fcl":"S","population":0,"countryCode":"US","name":"Delta Regional Medical Center West Campus","fclName":"spot, building, farm","adminCodes1":{"ISO3166_2":"MS"},"countryName":"United States","fcodeName":"hospital","adminName1":"Mississippi","lat":"33.40366","fcode":"HSP"},{"adminCode1":"MS","lng":"-90.90455","geonameId":4423778,"toponymName":"Delta Experimental Forest","countryId":"6252001","fcl":"V","population":0,"countryCode":"US","name":"Delta Experimental Forest","fclName":"forest,heath,...","adminCodes1":{"ISO3166_2":"MS"},"countryName":"United States","fcodeName":"forest(s)","adminName1":"Mississippi","lat":"33.47234","fcode":"FRST"},{"adminCode1":"MS","lng":"-90.77511","geonameId":4423786,"toponymName":"Delta National Forest","countryId":"6252001","fcl":"V","population":0,"countryCode":"US","name":"Delta National Forest","fclName":"forest,heath,...","adminCodes1":{"ISO3166_2":"MS"},"countryName":"United States","fcodeName":"forest(s)","adminName1":"Mississippi","lat":"32.74987","fcode":"FRST"},{"adminCode1":"MS","lng":"-90.50371","geonameId":4421397,"toponymName":"Cherry Hill Church (historical)","countryId":"6252001","fcl":"S","population":0,"countryCode":"US","name":"Cherry Hill Church (historical)","fclName":"spot, building, farm","adminCodes1":{"ISO3166_2":"MS"},"countryName":"United States","fcodeName":"church","adminName1":"Mississippi","lat":"34.0565","fcode":"CH"},{"adminCode1":"MS","lng":"-90.7426","geonameId":4446604,"toponymName":"South Greentree Reservoir","countryId":"6252001","fcl":"H","population":0,"countryCode":"US","name":"South Greentree Reservoir","fclName":"stream, lake, ...","adminCodes1":{"ISO3166_2":"MS"},"countryName":"United States","fcodeName":"reservoir(s)","adminName1":"Mississippi","lat":"32.69402","fcode":"RSV"},{"adminCode1":"MS","lng":"-90.91502","geonameId":9409654,"toponymName":"Yazoo Mississippi Delta Joint Water Management District (YMD)","countryId":"6252001","fcl":"S","population":0,"countryCode":"US","name":"Yazoo Mississippi Delta Joint Water Management District (YMD)","fclName":"spot, building, farm","adminCodes1":{"ISO3166_2":"MS"},"countryName":"United States","fcodeName":"office building","adminName1":"Mississippi","lat":"33.42279","fcode":"BLDO"},{"adminCode1":"MS","lng":"-90.3751","geonameId":6502885,"toponymName":"Delta Plantation Inn","countryId":"6252001","fcl":"S","population":0,"countryCode":"US","name":"Delta Plantation Inn","fclName":"spot, building, farm","adminCodes1":{"ISO3166_2":"MS"},"countryName":"United States","fcodeName":"hotel","adminName1":"Mississippi","lat":"34.7082","fcode":"HTL"},{"adminCode1":"MS","lng":"-90.57121","geonameId":4423772,"toponymName":"Delta Cemetery","countryId":"6252001","fcl":"S","population":0,"countryCode":"US","name":"Delta Cemetery","fclName":"spot, building, farm","adminCodes1":{"ISO3166_2":"MS"},"countryName":"United States","fcodeName":"cemetery","adminName1":"Mississippi","lat":"34.40483","fcode":"CMTY"},{"adminCode1":"MS","lng":"-90.80899","geonameId":4423774,"toponymName":"Delta City Cemetery","countryId":"6252001","fcl":"S","population":0,"countryCode":"US","name":"Delta City Cemetery","fclName":"spot, building, farm","adminCodes1":{"ISO3166_2":"MS"},"countryName":"United States","fcodeName":"cemetery","adminName1":"Mississippi","lat":"33.07874","fcode":"CMTY"},{"adminCode1":"MS","lng":"-90.79399","geonameId":4423775,"toponymName":"Delta City Post Office","countryId":"6252001","fcl":"S","population":0,"countryCode":"US","name":"Delta City Post Office","fclName":"spot, building, farm","adminCodes1":{"ISO3166_2":"MS"},"countryName":"United States","fcodeName":"post office","adminName1":"Mississippi","lat":"33.07401","fcode":"PO"},{"adminCode1":"MS","lng":"-90.51509","geonameId":4423776,"toponymName":"Delta Company Pond Dam","countryId":"6252001","fcl":"S","population":0,"countryCode":"US","name":"Delta Company Pond Dam","fclName":"spot, building, farm","adminCodes1":{"ISO3166_2":"MS"},"countryName":"United States","fcodeName":"dam","adminName1":"Mississippi","lat":"33.22179","fcode":"DAM"},{"adminCode1":"MS","lng":"-90.19509","geonameId":4423777,"toponymName":"Delta Crest Subdivision Lake Dam","countryId":"6252001","fcl":"S","population":0,"countryCode":"US","name":"Delta Crest Subdivision Lake Dam","fclName":"spot, building, farm","adminCodes1":{"ISO3166_2":"MS"},"countryName":"United States","fcodeName":"dam","adminName1":"Mississippi","lat":"34.82843","fcode":"DAM"},{"adminCode1":"MS","lng":"-90.89677","geonameId":4423779,"toponymName":"Delta Experimental Station Pond Dam","countryId":"6252001","fcl":"S","population":0,"countryCode":"US","name":"Delta Experimental Station Pond Dam","fclName":"spot, building, farm","adminCodes1":{"ISO3166_2":"MS"},"countryName":"United States","fcodeName":"dam","adminName1":"Mississippi","lat":"33.44512","fcode":"DAM"},{"adminCode1":"MS","lng":"-90.6926","geonameId":4423780,"toponymName":"Delta Heights Memorial Gardens","countryId":"6252001","fcl":"S","population":0,"countryCode":"US","name":"Delta Heights Memorial Gardens","fclName":"spot, building, farm","adminCodes1":{"ISO3166_2":"MS"},"countryName":"United States","fcodeName":"cemetery","adminName1":"Mississippi","lat":"33.74678","fcode":"CMTY"},{"adminCode1":"MS","lng":"-90.24953","geonameId":4423783,"toponymName":"Delta Landing (historical)","countryId":"6252001","fcl":"S","population":0,"countryCode":"US","name":"Delta Landing (historical)","fclName":"spot, building, farm","adminCodes1":{"ISO3166_2":"MS"},"countryName":"United States","fcodeName":"","adminName1":"Mississippi","lat":"33.50706"},{"adminCode1":"MS","lng":"-90.20703","geonameId":4423784,"toponymName":"Delta Mart Shopping Center","countryId":"6252001","fcl":"S","population":0,"countryCode":"US","name":"Delta Mart Shopping Center","fclName":"spot, building, farm","adminCodes1":{"ISO3166_2":"MS"},"countryName":"United States","fcodeName":"mall","adminName1":"Mississippi","lat":"32.33348","fcode":"MALL"},{"adminCode1":"MS","lng":"-90.49342","geonameId":4423787,"toponymName":"Delta Processing Pond Dam","countryId":"6252001","fcl":"S","population":0,"countryCode":"US","name":"Delta Processing Pond Dam","fclName":"spot, building, farm","adminCodes1":{"ISO3166_2":"MS"},"countryName":"United States","fcodeName":"dam","adminName1":"Mississippi","lat":"33.44679","fcode":"DAM"},{"adminCode1":"MS","lng":"-90.59066","geonameId":4423788,"toponymName":"Delta School (historical)","countryId":"6252001","fcl":"S","population":0,"countryCode":"US","name":"Delta School (historical)","fclName":"spot, building, farm","adminCodes1":{"ISO3166_2":"MS"},"countryName":"United States","fcodeName":"school","adminName1":"Mississippi","lat":"34.39372","fcode":"SCH"},{"adminCode1":"MS","lng":"-90.72704","geonameId":4423790,"toponymName":"Delta State Golf Course","countryId":"6252001","fcl":"S","population":0,"countryCode":"US","name":"Delta State Golf Course","fclName":"spot, building, farm","adminCodes1":{"ISO3166_2":"MS"},"countryName":"United States","fcodeName":"golf course","adminName1":"Mississippi","lat":"33.75289","fcode":"RECG"},{"adminCode1":"MS","lng":"-90.19574","geonameId":11382743,"toponymName":"Delta Station Post Office","countryId":"6252001","fcl":"S","population":0,"countryCode":"US","name":"Delta Station Post Office","fclName":"spot, building, farm","adminCodes1":{"ISO3166_2":"MS"},"countryName":"United States","fcodeName":"post office","adminName1":"Mississippi","lat":"32.33303","fcode":"PO"}]}
