{"totalResultsCount":161,"geonames":[{"adminCode1":"CA","lng":"-121.98857","geonameId":5350734,"toponymName":"Fremont","countryId":"6252001","fcl":"P","population":232206,"countryCode":"US","name":"Fremont","fclName":"city, village,...","adminCodes1":{"ISO3166_2":"CA"},"countryName":"United States","fcodeName":"populated place","adminName1":"California","lat":"37.54827","fcode":"PPL"},{"adminCode1":"CA","lng":"-122.41914","geonameId":5373628,"toponymName":"Mission District","countryId":"6252001","fcl":"P","population":47234,"countryCode":"US","name":"Mission District","fclName":"city, village,...","adminCodes1":{"ISO3166_2":"CA"},"countryName":"United States","fcodeName":"section of populated place","adminName1":"California","lat":"37.75993","fcode":"PPLX"},{"adminCode1":"CA","lng":"-122.42608","geonameId":5373629,"toponymName":"Mission Dolores Park","countryId":"6252001","fcl":"L","population":0,"countryCode":"US","name":"Mission Dolores Park","fclName":"parks,area, ...","adminCodes1":{"ISO3166_2":"CA"},"countryName":"United States","fcodeName":"park","adminName1":"California","lat":"37.75965","fcode":"PRK"},{"adminCode1":"CA","lng":"-117.21281","geonameId":5373755,"toponymName":"Mission Valley","countryId":"6252001","fcl":"T","population":0,"countryCode":"US","name":"Mission Valley","fclName":"mountain,hill,rock,... ","adminCodes1":{"ISO3166_2":"CA"},"countryName":"United States","fcodeName":"valley","adminName1":"California","lat":"32.76033","fcode":"VAL"},{"adminCode1":"CA","lng":"-122.42692","geonameId":5373719,"toponymName":"Mission San Francisco de Asís","countryId":"6252001","fcl":"S","population":0,"countryCode":"US","name":"Mission San Francisco de Asís","fclName":"spot, building, farm","adminCodes1":{"ISO3166_2":"CA"},"countryName":"United States","fcodeName":"church","adminName1":"California","lat":"37.7641","fcode":"CH"},{"adminCode1":"CA","lng":"-121.91079","geonameId":5373692,"toponymName":"Mission Pass","countryId":"6252001","fcl":"T","population":0,"countryCode":"US","name":"Mission Pass","fclName":"mountain,hill,rock,... ","adminCodes1":{"ISO3166_2":"CA"},"countryName":"United States","fcodeName":"gap","adminName1":"California","lat":"37.56021","fcode":"GAP"},{"adminCode1":"MT","lng":"-113.98483","geonameId":5652397,"toponymName":"Flathead Valley","countryId":"6252001","fcl":"T","population":0,"countryCode":"US","name":"Flathead Valley","fclName":"mountain,hill,rock,... ","adminCodes1":{"ISO3166_2":"MT"},"countryName":"United States","fcodeName":"plain(s)","adminName1":"Montana","lat":"48.06079","fcode":"PLN"},{"adminCode1":"MT","lng":"-114.12539","geonameId":5666636,"toponymName":"Mission Valley Historical Marker","countryId":"6252001","fcl":"L","population":0,"countryCode":"US","name":"Mission Valley Historical Marker","fclName":"parks,area, ...","adminCodes1":{"ISO3166_2":"MT"},"countryName":"United States","fcodeName":"park","adminName1":"Montana","lat":"47.30687","fcode":"PRK"},{"adminCode1":"TX","lng":"-97.20555","geonameId":4711787,"toponymName":"Mission Valley Gas Field","countryId":"6252001","fcl":"L","population":0,"countryCode":"US","name":"Mission Valley Gas Field","fclName":"parks,area, ...","adminCodes1":{"ISO3166_2":"TX"},"countryName":"United States","fcodeName":"oilfield","adminName1":"Texas","lat":"28.91665","fcode":"OILF"},{"adminCode1":"TX","lng":"-97.30582","geonameId":4711788,"toponymName":"Mission Valley West Gas Field","countryId":"6252001","fcl":"L","population":0,"countryCode":"US","name":"Mission Valley West Gas Field","fclName":"parks,area, ...","adminCodes1":{"ISO3166_2":"TX"},"countryName":"United States","fcodeName":"oilfield","adminName1":"Texas","lat":"28.85915","fcode":"OILF"},{"adminCode1":"CA","lng":"-121.88051","geonameId":5373693,"toponymName":"Mission Peak","countryId":"6252001","fcl":"T","population":0,"countryCode":"US","name":"Mission Peak","fclName":"mountain,hill,rock,... ","adminCodes1":{"ISO3166_2":"CA"},"countryName":"United States","fcodeName":"mountain","adminName1":"California","lat":"37.51244","fcode":"MT"},{"adminCode1":"KS","lng":"-96.00174","geonameId":4281088,"toponymName":"Mission Valley High School","countryId":"6252001","fcl":"S","population":0,"countryCode":"US","name":"Mission Valley High School","fclName":"spot, building, farm","adminCodes1":{"ISO3166_2":"KS"},"countryName":"United States","fcodeName":"school","adminName1":"Kansas","lat":"38.88679","fcode":"SCH"},{"adminCode1":"CA","lng":"-122.44775","geonameId":5404318,"toponymName":"Twin Peaks","countryId":"6252001","fcl":"T","population":0,"countryCode":"US","name":"Twin Peaks","fclName":"mountain,hill,rock,... ","adminCodes1":{"ISO3166_2":"CA"},"countryName":"United States","fcodeName":"mountain","adminName1":"California","lat":"37.7516","fcode":"MT"},{"adminCode1":"CA","lng":"-122.41275","geonameId":5373618,"toponymName":"Mission Community Recreation Center","countryId":"6252001","fcl":"L","population":0,"countryCode":"US","name":"Mission Community Recreation Center","fclName":"parks,area, ...","adminCodes1":{"ISO3166_2":"CA"},"countryName":"United States","fcodeName":"park","adminName1":"California","lat":"37.75826","fcode":"PRK"},{"adminCode1":"CA","lng":"-122.42719","geonameId":5373689,"toponymName":"Mission Park","countryId":"6252001","fcl":"L","population":0,"countryCode":"US","name":"Mission Park","fclName":"parks,area, ...","adminCodes1":{"ISO3166_2":"CA"},"countryName":"United States","fcodeName":"park","adminName1":"California","lat":"37.75965","fcode":"PRK"},{"adminCode1":"CA","lng":"-122.42247","geonameId":5373699,"toponymName":"Mission Playground","countryId":"6252001","fcl":"L","population":0,"countryCode":"US","name":"Mission Playground","fclName":"parks,area, ...","adminCodes1":{"ISO3166_2":"CA"},"countryName":"United States","fcodeName":"park","adminName1":"California","lat":"37.7591","fcode":"PRK"},{"adminCode1":"CA","lng":"-122.39164","geonameId":7838989,"toponymName":"Mission Bay","countryId":"6252001","fcl":"P","population":0,"countryCode":"US","name":"Mission Bay","fclName":"city, village,...","adminCodes1":{"ISO3166_2":"CA"},"countryName":"United States","fcodeName":"section of populated place","adminName1":"California","lat":"37.77017","fcode":"PPLX"},{"adminCode1":"WA","lng":"-117.25438","geonameId":5814566,"toponymName":"Valley Mission Park","countryId":"6252001","fcl":"L","population":0,"countryCode":"US","name":"Valley Mission Park","fclName":"parks,area, ...","adminCodes1":{"ISO3166_2":"WA"},"countryName":"United States","fcodeName":"park","adminName1":"Washington","lat":"47.67295","fcode":"PRK"},{"adminCode1":"CA","lng":"-121.8825","geonameId":7304729,"toponymName":"Mission Peak Regional Preserve","countryId":"6252001","fcl":"L","population":0,"countryCode":"US","name":"Mission Peak Regional Preserve","fclName":"parks,area, ...","adminCodes1":{"ISO3166_2":"CA"},"countryName":"United States","fcodeName":"park","adminName1":"California","lat":"37.51278","fcode":"PRK"},{"adminCode1":"CA","lng":"-121.96302","geonameId":5347201,"toponymName":"Ex Mission San Jose","countryId":"6252001","fcl":"A","population":0,"countryCode":"US","name":"Ex Mission San Jose","fclName":"country, state, region,...","adminCodes1":{"ISO3166_2":"CA"},"countryName":"United States","fcodeName":"administrative division","adminName1":"California","lat":"37.55021","fcode":"ADMD"},{"adminCode1":"CA","lng":"-121.87273","geonameId":5373659,"toponymName":"Mission Hills Park","countryId":"6252001","fcl":"L","population":0,"countryCode":"US","name":"Mission Hills Park","fclName":"parks,area, ...","adminCodes1":{"ISO3166_2":"CA"},"countryName":"United States","fcodeName":"park","adminName1":"California","lat":"37.65021","fcode":"PRK"},{"adminCode1":"CA","lng":"-121.93718","geonameId":5373721,"toponymName":"Mission San Jose Community Park","countryId":"6252001","fcl":"L","population":0,"countryCode":"US","name":"Mission San Jose Community Park","fclName":"parks,area, ...","adminCodes1":{"ISO3166_2":"CA"},"countryName":"United States","fcodeName":"park","adminName1":"California","lat":"37.5466","fcode":"PRK"},{"adminCode1":"CA","lng":"-121.92357","geonameId":5373725,"toponymName":"Mission San Jose Park","countryId":"6252001","fcl":"L","population":0,"countryCode":"US","name":"Mission San Jose Park","fclName":"parks,area, ...","adminCodes1":{"ISO3166_2":"CA"},"countryName":"United States","fcodeName":"park","adminName1":"California","lat":"37.52771","fcode":"PRK"},{"adminCode1":"CA","lng":"-121.94051","geonameId":5373737,"toponymName":"Mission Santa Clara De Asis Historical Monument","countryId":"6252001","fcl":"L","population":0,"countryCode":"US","name":"Mission Santa Clara De Asis Historical Monument","fclName":"parks,area, ...","adminCodes1":{"ISO3166_2":"CA"},"countryName":"United States","fcodeName":"park","adminName1":"California","lat":"37.36633","fcode":"PRK"},{"adminCode1":"CA","lng":"-121.96468","geonameId":5373771,"toponymName":"Mission View Park","countryId":"6252001","fcl":"L","population":0,"countryCode":"US","name":"Mission View Park","fclName":"parks,area, ...","adminCodes1":{"ISO3166_2":"CA"},"countryName":"United States","fcodeName":"park","adminName1":"California","lat":"37.54521","fcode":"PRK"},{"adminCode1":"MT","lng":"-107.6201","geonameId":5666599,"toponymName":"Mission Coulee","countryId":"6252001","fcl":"T","population":0,"countryCode":"US","name":"Mission Coulee","fclName":"mountain,hill,rock,... ","adminCodes1":{"ISO3166_2":"MT"},"countryName":"United States","fcodeName":"valley","adminName1":"Montana","lat":"45.31635","fcode":"VAL"},{"adminCode1":"NV","lng":"-117.60566","geonameId":5508438,"toponymName":"Mission Canyon","countryId":"6252001","fcl":"T","population":0,"countryCode":"US","name":"Mission Canyon","fclName":"mountain,hill,rock,... ","adminCodes1":{"ISO3166_2":"NV"},"countryName":"United States","fcodeName":"valley","adminName1":"Nevada","lat":"38.75854","fcode":"VAL"},{"adminCode1":"CA","lng":"-122.42741","geonameId":5373645,"toponymName":"Mission High School","countryId":"6252001","fcl":"S","population":0,"countryCode":"US","name":"Mission High School","fclName":"spot, building, farm","adminCodes1":{"ISO3166_2":"CA"},"countryName":"United States","fcodeName":"school","adminName1":"California","lat":"37.76179","fcode":"SCH"},{"adminCode1":"CA","lng":"-121.9821","geonameId":5408266,"toponymName":"Mission College","countryId":"6252001","fcl":"S","population":0,"countryCode":"US","name":"Mission College","fclName":"spot, building, farm","adminCodes1":{"ISO3166_2":"CA"},"countryName":"United States","fcodeName":"school","adminName1":"California","lat":"37.39148","fcode":"SCH"},{"adminCode1":"MT","lng":"-107.63788","geonameId":5646531,"toponymName":"Cottonwood Coulee","countryId":"6252001","fcl":"T","population":0,"countryCode":"US","name":"Cottonwood Coulee","fclName":"mountain,hill,rock,... ","adminCodes1":{"ISO3166_2":"MT"},"countryName":"United States","fcodeName":"valley","adminName1":"Montana","lat":"45.34469","fcode":"VAL"},{"adminCode1":"CA","lng":"-121.93367","geonameId":5373724,"toponymName":"Mission San Jose High School","countryId":"6252001","fcl":"S","population":0,"countryCode":"US","name":"Mission San Jose High School","fclName":"spot, building, farm","adminCodes1":{"ISO3166_2":"CA"},"countryName":"United States","fcodeName":"school","adminName1":"California","lat":"37.54506","fcode":"SCH"},{"adminCode1":"CA","lng":"-121.95218","geonameId":5393016,"toponymName":"Mission City Memorial Park","countryId":"6252001","fcl":"S","population":0,"countryCode":"US","name":"Mission City Memorial Park","fclName":"spot, building, farm","adminCodes1":{"ISO3166_2":"CA"},"countryName":"United States","fcodeName":"cemetery","adminName1":"California","lat":"37.33504","fcode":"CMTY"},{"adminCode1":"CA","lng":"-121.94412","geonameId":5373738,"toponymName":"Mission Santa Clara de Asis","countryId":"6252001","fcl":"S","population":0,"countryCode":"US","name":"Mission Santa Clara de Asis","fclName":"spot, building, farm","adminCodes1":{"ISO3166_2":"CA"},"countryName":"United States","fcodeName":"church","adminName1":"California","lat":"37.34994","fcode":"CH"},{"adminCode1":"CA","lng":"-122.42794","geonameId":5373630,"toponymName":"Mission Dolores Academy","countryId":"6252001","fcl":"S","population":0,"countryCode":"US","name":"Mission Dolores Academy","fclName":"spot, building, farm","adminCodes1":{"ISO3166_2":"CA"},"countryName":"United States","fcodeName":"school","adminName1":"California","lat":"37.76437","fcode":"SCH"},{"adminCode1":"CA","lng":"-116.95669","geonameId":5325353,"toponymName":"Avery Canyon","countryId":"6252001","fcl":"T","population":0,"countryCode":"US","name":"Avery Canyon","fclName":"mountain,hill,rock,... ","adminCodes1":{"ISO3166_2":"CA"},"countryName":"United States","fcodeName":"valley","adminName1":"California","lat":"33.70197","fcode":"VAL"},{"adminCode1":"MT","lng":"-107.05339","geonameId":5666632,"toponymName":"Mission Valley","countryId":"6252001","fcl":"T","population":0,"countryCode":"US","name":"Mission Valley","fclName":"mountain,hill,rock,... ","adminCodes1":{"ISO3166_2":"MT"},"countryName":"United States","fcodeName":"valley","adminName1":"Montana","lat":"46.31443","fcode":"VAL"},{"adminCode1":"TX","lng":"-97.19416","geonameId":4711785,"toponymName":"Mission Valley","countryId":"6252001","fcl":"P","population":0,"countryCode":"US","name":"Mission Valley","fclName":"city, village,...","adminCodes1":{"ISO3166_2":"TX"},"countryName":"United States","fcodeName":"populated place","adminName1":"Texas","lat":"28.89915","fcode":"PPL"},{"adminCode1":"IL","lng":"-89.33925","geonameId":4251892,"toponymName":"Valley Mission","countryId":"6252001","fcl":"P","population":0,"countryCode":"US","name":"Valley Mission","fclName":"city, village,...","adminCodes1":{"ISO3166_2":"IL"},"countryName":"United States","fcodeName":"populated place","adminName1":"Illinois","lat":"37.35811","fcode":"PPL"},{"adminCode1":"AZ","lng":"-111.85208","geonameId":5305119,"toponymName":"Mission Valley","countryId":"6252001","fcl":"P","population":0,"countryCode":"US","name":"Mission Valley","fclName":"city, village,...","adminCodes1":{"ISO3166_2":"AZ"},"countryName":"United States","fcodeName":"populated place","adminName1":"Arizona","lat":"33.35255","fcode":"PPL"},{"adminCode1":"CA","lng":"-122.05663","geonameId":5356945,"toponymName":"Spectrum Center School Mission Valley Campus","countryId":"6252001","fcl":"S","population":0,"countryCode":"US","name":"Spectrum Center School Mission Valley Campus","fclName":"spot, building, farm","adminCodes1":{"ISO3166_2":"CA"},"countryName":"United States","fcodeName":"school","adminName1":"California","lat":"37.66147","fcode":"SCH"},{"adminCode1":"MT","lng":"-108.66738","geonameId":5666595,"toponymName":"Mission Canyon","countryId":"6252001","fcl":"T","population":0,"countryCode":"US","name":"Mission Canyon","fclName":"mountain,hill,rock,... ","adminCodes1":{"ISO3166_2":"MT"},"countryName":"United States","fcodeName":"valley","adminName1":"Montana","lat":"47.96805","fcode":"VAL"},{"adminCode1":"MT","lng":"-107.49979","geonameId":5666597,"toponymName":"Mission Coulee","countryId":"6252001","fcl":"T","population":0,"countryCode":"US","name":"Mission Coulee","fclName":"mountain,hill,rock,... ","adminCodes1":{"ISO3166_2":"MT"},"countryName":"United States","fcodeName":"valley","adminName1":"Montana","lat":"46.02332","fcode":"VAL"},{"adminCode1":"ID","lng":"-116.34712","geonameId":5601192,"toponymName":"Mission Gulch","countryId":"6252001","fcl":"T","population":0,"countryCode":"US","name":"Mission Gulch","fclName":"mountain,hill,rock,... ","adminCodes1":{"ISO3166_2":"ID"},"countryName":"United States","fcodeName":"valley","adminName1":"Idaho","lat":"47.55881","fcode":"VAL"},{"adminCode1":"CA","lng":"-122.38254","geonameId":11886977,"toponymName":"Mission Rock (historical)","countryId":"6252001","fcl":"T","population":0,"countryCode":"US","name":"Mission Rock (historical)","fclName":"mountain,hill,rock,... ","adminCodes1":{"ISO3166_2":"CA"},"countryName":"United States","fcodeName":"rock","adminName1":"California","lat":"37.77366","fcode":"RK"},{"adminCode1":"CA","lng":"-121.92024","geonameId":5373722,"toponymName":"Mission San Jose District","countryId":"6252001","fcl":"P","population":0,"countryCode":"US","name":"Mission San Jose District","fclName":"city, village,...","adminCodes1":{"ISO3166_2":"CA"},"countryName":"United States","fcodeName":"section of populated place","adminName1":"California","lat":"37.53299","fcode":"PPLX"},{"adminCode1":"CA","lng":"-121.91913","geonameId":5373727,"toponymName":"Mission San Jose de Guadalupe","countryId":"6252001","fcl":"S","population":0,"countryCode":"US","name":"Mission San Jose de Guadalupe","fclName":"spot, building, farm","adminCodes1":{"ISO3166_2":"CA"},"countryName":"United States","fcodeName":"church","adminName1":"California","lat":"37.53271","fcode":"CH"},{"adminCode1":"SD","lng":"-97.27894","geonameId":5232569,"toponymName":"Valleyview","countryId":"6252001","fcl":"P","population":0,"countryCode":"US","name":"Valleyview","fclName":"city, village,...","adminCodes1":{"ISO3166_2":"SD"},"countryName":"United States","fcodeName":"populated place","adminName1":"South Dakota","lat":"42.96722","fcode":"PPL"},{"adminCode1":"CA","lng":"-119.70819","geonameId":5373611,"toponymName":"Mission Canyon","countryId":"6252001","fcl":"T","population":0,"countryCode":"US","name":"Mission Canyon","fclName":"mountain,hill,rock,... ","adminCodes1":{"ISO3166_2":"CA"},"countryName":"United States","fcodeName":"valley","adminName1":"California","lat":"34.445","fcode":"VAL"},{"adminCode1":"CA","lng":"-123.02833","geonameId":5373613,"toponymName":"Mission Canyon","countryId":"6252001","fcl":"T","population":0,"countryCode":"US","name":"Mission Canyon","fclName":"mountain,hill,rock,... ","adminCodes1":{"ISO3166_2":"CA"},"countryName":"United States","fcodeName":"valley","adminName1":"California","lat":"38.50408","fcode":"VAL"},{"adminCode1":"CA","lng":"-117.07086","geonameId":5373640,"toponymName":"Mission Gorge","countryId":"6252001","fcl":"T","population":0,"countryCode":"US","name":"Mission Gorge","fclName":"mountain,hill,rock,... ","adminCodes1":{"ISO3166_2":"CA"},"countryName":"United States","fcodeName":"valley","adminName1":"California","lat":"32.81227","fcode":"VAL"},{"adminCode1":"WV","lng":"-81.60151","geonameId":4815109,"toponymName":"Mission Hollow","countryId":"6252001","fcl":"T","population":0,"countryCode":"US","name":"Mission Hollow","fclName":"mountain,hill,rock,... ","adminCodes1":{"ISO3166_2":"WV"},"countryName":"United States","fcodeName":"valley","adminName1":"West Virginia","lat":"38.32593","fcode":"VAL"},{"adminCode1":"KS","lng":"-96.10374","geonameId":4271147,"toponymName":"Mission Valley School District Office","countryId":"6252001","fcl":"S","population":0,"countryCode":"US","name":"Mission Valley School District Office","fclName":"spot, building, farm","adminCodes1":{"ISO3166_2":"KS"},"countryName":"United States","fcodeName":"school","adminName1":"Kansas","lat":"38.85738","fcode":"SCH"},{"adminCode1":"CA","lng":"-121.94666","geonameId":5373791,"toponymName":"Mission Valley Elementary School","countryId":"6252001","fcl":"S","population":0,"countryCode":"US","name":"Mission Valley Elementary School","fclName":"spot, building, farm","adminCodes1":{"ISO3166_2":"CA"},"countryName":"United States","fcodeName":"school","adminName1":"California","lat":"37.53647","fcode":"SCH"},{"adminCode1":"TX","lng":"-98.10712","geonameId":4741004,"toponymName":"West Point-Pepperell Dam","countryId":"6252001","fcl":"S","population":0,"countryCode":"US","name":"West Point-Pepperell Dam","fclName":"spot, building, farm","adminCodes1":{"ISO3166_2":"TX"},"countryName":"United States","fcodeName":"dam","adminName1":"Texas","lat":"29.69793","fcode":"DAM"},{"adminCode1":"MT","lng":"-114.10372","geonameId":5666611,"toponymName":"Mission Hospital (historical)","countryId":"6252001","fcl":"S","population":0,"countryCode":"US","name":"Mission Hospital (historical)","fclName":"spot, building, farm","adminCodes1":{"ISO3166_2":"MT"},"countryName":"United States","fcodeName":"hospital","adminName1":"Montana","lat":"47.31632","fcode":"HSP"},{"adminCode1":"CA","lng":"-122.41667","geonameId":6349504,"toponymName":"Mission Station San Francisco Post Office","countryId":"6252001","fcl":"S","population":0,"countryCode":"US","name":"Mission Station San Francisco Post Office","fclName":"spot, building, farm","adminCodes1":{"ISO3166_2":"CA"},"countryName":"United States","fcodeName":"post office","adminName1":"California","lat":"37.75389","fcode":"PO"},{"adminCode1":"CA","lng":"-122.41775","geonameId":5373706,"toponymName":"Mission Presbyterian Church","countryId":"6252001","fcl":"S","population":0,"countryCode":"US","name":"Mission Presbyterian Church","fclName":"spot, building, farm","adminCodes1":{"ISO3166_2":"CA"},"countryName":"United States","fcodeName":"church","adminName1":"California","lat":"37.75354","fcode":"CH"},{"adminCode1":"CA","lng":"-122.39414","geonameId":5373595,"toponymName":"Mission Bay (historical)","countryId":"6252001","fcl":"H","population":0,"countryCode":"US","name":"Mission Bay (historical)","fclName":"stream, lake, ...","adminCodes1":{"ISO3166_2":"CA"},"countryName":"United States","fcodeName":"bay","adminName1":"California","lat":"37.77076","fcode":"BAY"},{"adminCode1":"CA","lng":"-117.14864","geonameId":5373760,"toponymName":"Mission Valley Shopping Center","countryId":"6252001","fcl":"S","population":0,"countryCode":"US","name":"Mission Valley Shopping Center","fclName":"spot, building, farm","adminCodes1":{"ISO3166_2":"CA"},"countryName":"United States","fcodeName":"mall","adminName1":"California","lat":"32.76894","fcode":"MALL"},{"adminCode1":"CA","lng":"-121.94179","geonameId":7237488,"toponymName":"Mission Hills Christian School","countryId":"6252001","fcl":"S","population":0,"countryCode":"US","name":"Mission Hills Christian School","fclName":"spot, building, farm","adminCodes1":{"ISO3166_2":"CA"},"countryName":"United States","fcodeName":"school","adminName1":"California","lat":"37.54902","fcode":"SCH"},{"adminCode1":"CA","lng":"-117.14573","geonameId":12110407,"toponymName":"Mission Valley","countryId":"6252001","fcl":"P","population":0,"countryCode":"US","name":"Mission Valley","fclName":"city, village,...","adminCodes1":{"ISO3166_2":"CA"},"countryName":"United States","fcodeName":"section of populated place","adminName1":"California","lat":"32.77337","fcode":"PPLX"},{"adminCode1":"CA","lng":"-122.43831","geonameId":8449769,"toponymName":"Mission Terrace","countryId":"6252001","fcl":"P","population":0,"countryCode":"US","name":"Mission Terrace","fclName":"city, village,...","adminCodes1":{"ISO3166_2":"CA"},"countryName":"United States","fcodeName":"section of populated place","adminName1":"California","lat":"37.72578","fcode":"PPLX"},{"adminCode1":"CA","lng":"-122.451","geonameId":8449773,"toponymName":"Outer Mission","countryId":"6252001","fcl":"P","population":0,"countryCode":"US","name":"Outer Mission","fclName":"city, village,...","adminCodes1":{"ISO3166_2":"CA"},"countryName":"United States","fcodeName":"section of populated place","adminName1":"California","lat":"37.71109","fcode":"PPLX"},{"adminCode1":"CA","lng":"-122.42695","geonameId":8449790,"toponymName":"Mission Dolores","countryId":"6252001","fcl":"P","population":0,"countryCode":"US","name":"Mission Dolores","fclName":"city, village,...","adminCodes1":{"ISO3166_2":"CA"},"countryName":"United States","fcodeName":"section of populated place","adminName1":"California","lat":"37.76423","fcode":"PPLX"},{"adminCode1":"CA","lng":"-121.95778","geonameId":5373620,"toponymName":"Mission Creek","countryId":"6252001","fcl":"H","population":0,"countryCode":"US","name":"Mission Creek","fclName":"stream, lake, ...","adminCodes1":{"ISO3166_2":"CA"},"countryName":"United States","fcodeName":"stream","adminName1":"California","lat":"37.55028","fcode":"STM"},{"adminCode1":"CA","lng":"-121.94806","geonameId":7122297,"toponymName":"Mission Oaks Hospital","countryId":"6252001","fcl":"S","population":0,"countryCode":"US","name":"Mission Oaks Hospital","fclName":"spot, building, farm","adminCodes1":{"ISO3166_2":"CA"},"countryName":"United States","fcodeName":"hospital","adminName1":"California","lat":"37.24451","fcode":"HSP"},{"adminCode1":"MT","lng":"-111.17301","geonameId":5684293,"toponymName":"Valley of the Flowers Catholic Church","countryId":"6252001","fcl":"S","population":0,"countryCode":"US","name":"Valley of the Flowers Catholic Church","fclName":"spot, building, farm","adminCodes1":{"ISO3166_2":"MT"},"countryName":"United States","fcodeName":"church","adminName1":"Montana","lat":"45.78382","fcode":"CH"},{"adminCode1":"AZ","lng":"-110.06152","geonameId":5299315,"toponymName":"Sun Valley Indian School","countryId":"6252001","fcl":"S","population":0,"countryCode":"US","name":"Sun Valley Indian School","fclName":"spot, building, farm","adminCodes1":{"ISO3166_2":"AZ"},"countryName":"United States","fcodeName":"school","adminName1":"Arizona","lat":"34.9705","fcode":"SCH"},{"adminCode1":"NM","lng":"-106.73337","geonameId":5473310,"toponymName":"Jemez Valley Church","countryId":"6252001","fcl":"S","population":0,"countryCode":"US","name":"Jemez Valley Church","fclName":"spot, building, farm","adminCodes1":{"ISO3166_2":"NM"},"countryName":"United States","fcodeName":"church","adminName1":"New Mexico","lat":"35.65419","fcode":"CH"},{"adminCode1":"CA","lng":"-121.94722","geonameId":7132734,"toponymName":"Santa Clara Catholic Cemetery","countryId":"6252001","fcl":"S","population":0,"countryCode":"US","name":"Santa Clara Catholic Cemetery","fclName":"spot, building, farm","adminCodes1":{"ISO3166_2":"CA"},"countryName":"United States","fcodeName":"cemetery","adminName1":"California","lat":"37.34","fcode":"CMTY"},{"adminCode1":"KS","lng":"-96.00197","geonameId":7231181,"toponymName":"Mission Valley Elementary and Junior High School","countryId":"6252001","fcl":"S","population":0,"countryCode":"US","name":"Mission Valley Elementary and Junior High School","fclName":"spot, building, farm","adminCodes1":{"ISO3166_2":"KS"},"countryName":"United States","fcodeName":"school","adminName1":"Kansas","lat":"38.88626","fcode":"SCH"},{"adminCode1":"MT","lng":"-114.16373","geonameId":5666634,"toponymName":"Mission Valley Church of Christ","countryId":"6252001","fcl":"S","population":0,"countryCode":"US","name":"Mission Valley Church of Christ","fclName":"spot, building, farm","adminCodes1":{"ISO3166_2":"MT"},"countryName":"United States","fcodeName":"church","adminName1":"Montana","lat":"47.68827","fcode":"CH"},{"adminCode1":"MT","lng":"-114.094","geonameId":5666635,"toponymName":"Mission Valley Health Center","countryId":"6252001","fcl":"S","population":0,"countryCode":"US","name":"Mission Valley Health Center","fclName":"spot, building, farm","adminCodes1":{"ISO3166_2":"MT"},"countryName":"United States","fcodeName":"hospital","adminName1":"Montana","lat":"47.31993","fcode":"HSP"},{"adminCode1":"MT","lng":"-107.11284","geonameId":5666637,"toponymName":"Mission Valley School (historical)","countryId":"6252001","fcl":"S","population":0,"countryCode":"US","name":"Mission Valley School (historical)","fclName":"spot, building, farm","adminCodes1":{"ISO3166_2":"MT"},"countryName":"United States","fcodeName":"school","adminName1":"Montana","lat":"46.32221","fcode":"SCH"},{"adminCode1":"MT","lng":"-114.104","geonameId":5666657,"toponymName":"Mission Valley Christian Academy","countryId":"6252001","fcl":"S","population":0,"countryCode":"US","name":"Mission Valley Christian Academy","fclName":"spot, building, farm","adminCodes1":{"ISO3166_2":"MT"},"countryName":"United States","fcodeName":"school","adminName1":"Montana","lat":"47.52993","fcode":"SCH"},{"adminCode1":"KS","lng":"-94.63125","geonameId":6328057,"toponymName":"Mission Valley Middle School","countryId":"6252001","fcl":"S","population":0,"countryCode":"US","name":"Mission Valley Middle School","fclName":"spot, building, farm","adminCodes1":{"ISO3166_2":"KS"},"countryName":"United States","fcodeName":"school","adminName1":"Kansas","lat":"38.97514","fcode":"SCH"},{"adminCode1":"CA","lng":"-117.1706","geonameId":6475935,"toponymName":"Mission Valley Resort","countryId":"6252001","fcl":"S","population":0,"countryCode":"US","name":"Mission Valley Resort","fclName":"spot, building, farm","adminCodes1":{"ISO3166_2":"CA"},"countryName":"United States","fcodeName":"hotel","adminName1":"California","lat":"32.7598","fcode":"HTL"},{"adminCode1":"CA","lng":"-117.1594","geonameId":6479765,"toponymName":"Doubletree Hotel San Diego Mission Valley","countryId":"6252001","fcl":"S","population":0,"countryCode":"US","name":"Doubletree Hotel San Diego Mission Valley","fclName":"spot, building, farm","adminCodes1":{"ISO3166_2":"CA"},"countryName":"United States","fcodeName":"hotel","adminName1":"California","lat":"32.7696","fcode":"HTL"},{"adminCode1":"CA","lng":"-117.1606","geonameId":6483663,"toponymName":"Comfort Suites Mission Valley/Sea World","countryId":"6252001","fcl":"S","population":0,"countryCode":"US","name":"Comfort Suites Mission Valley/Sea World","fclName":"spot, building, farm","adminCodes1":{"ISO3166_2":"CA"},"countryName":"United States","fcodeName":"hotel","adminName1":"California","lat":"32.7627","fcode":"HTL"},{"adminCode1":"CA","lng":"-117.1495","geonameId":6484254,"toponymName":"Sheraton San Diego Hotel, Mission Valley","countryId":"6252001","fcl":"S","population":0,"countryCode":"US","name":"Sheraton San Diego Hotel, Mission Valley","fclName":"spot, building, farm","adminCodes1":{"ISO3166_2":"CA"},"countryName":"United States","fcodeName":"hotel","adminName1":"California","lat":"32.766","fcode":"HTL"},{"adminCode1":"CA","lng":"-117.1407","geonameId":6484504,"toponymName":"Marriott San Diego Mission Valley","countryId":"6252001","fcl":"S","population":0,"countryCode":"US","name":"Marriott San Diego Mission Valley","fclName":"spot, building, farm","adminCodes1":{"ISO3166_2":"CA"},"countryName":"United States","fcodeName":"hotel","adminName1":"California","lat":"32.7755","fcode":"HTL"},{"adminCode1":"CA","lng":"-117.1606","geonameId":6485672,"toponymName":"La Quinta Inn San Diego Mission Valley","countryId":"6252001","fcl":"S","population":0,"countryCode":"US","name":"La Quinta Inn San Diego Mission Valley","fclName":"spot, building, farm","adminCodes1":{"ISO3166_2":"CA"},"countryName":"United States","fcodeName":"hotel","adminName1":"California","lat":"32.7628","fcode":"HTL"},{"adminCode1":"CA","lng":"-117.1734","geonameId":6486805,"toponymName":"Travelodge Mission Valley","countryId":"6252001","fcl":"S","population":0,"countryCode":"US","name":"Travelodge Mission Valley","fclName":"spot, building, farm","adminCodes1":{"ISO3166_2":"CA"},"countryName":"United States","fcodeName":"hotel","adminName1":"California","lat":"32.7593","fcode":"HTL"},{"adminCode1":"CA","lng":"-117.157","geonameId":6487252,"toponymName":"Hilton San Diego Mission Valley","countryId":"6252001","fcl":"S","population":0,"countryCode":"US","name":"Hilton San Diego Mission Valley","fclName":"spot, building, farm","adminCodes1":{"ISO3166_2":"CA"},"countryName":"United States","fcodeName":"hotel","adminName1":"California","lat":"32.764","fcode":"HTL"},{"adminCode1":"CA","lng":"-117.1826","geonameId":6503382,"toponymName":"Residence Inn by Marriott San Diego Mission Valley","countryId":"6252001","fcl":"S","population":0,"countryCode":"US","name":"Residence Inn by Marriott San Diego Mission Valley","fclName":"spot, building, farm","adminCodes1":{"ISO3166_2":"CA"},"countryName":"United States","fcodeName":"hotel","adminName1":"California","lat":"32.7591","fcode":"HTL"},{"adminCode1":"CA","lng":"-117.1166","geonameId":6508690,"toponymName":"Esa San Diego-Mission Valley","countryId":"6252001","fcl":"S","population":0,"countryCode":"US","name":"Esa San Diego-Mission Valley","fclName":"spot, building, farm","adminCodes1":{"ISO3166_2":"CA"},"countryName":"United States","fcodeName":"hotel","adminName1":"California","lat":"32.812","fcode":"HTL"},{"adminCode1":"CA","lng":"-117.0853","geonameId":6504327,"toponymName":"Days Inn Mission Valley","countryId":"6252001","fcl":"S","population":0,"countryCode":"US","name":"Days Inn Mission Valley","fclName":"spot, building, farm","adminCodes1":{"ISO3166_2":"CA"},"countryName":"United States","fcodeName":"hotel","adminName1":"California","lat":"32.7824","fcode":"HTL"},{"adminCode1":"CA","lng":"-117.1073","geonameId":6506430,"toponymName":"Oakwood Mission Valley East","countryId":"6252001","fcl":"S","population":0,"countryCode":"US","name":"Oakwood Mission Valley East","fclName":"spot, building, farm","adminCodes1":{"ISO3166_2":"CA"},"countryName":"United States","fcodeName":"hotel","adminName1":"California","lat":"32.795","fcode":"HTL"},{"adminCode1":"CA","lng":"-117.1689","geonameId":6466304,"toponymName":"Vagabond Inn Mission Valley","countryId":"6252001","fcl":"S","population":0,"countryCode":"US","name":"Vagabond Inn Mission Valley","fclName":"spot, building, farm","adminCodes1":{"ISO3166_2":"CA"},"countryName":"United States","fcodeName":"hotel","adminName1":"California","lat":"32.76035","fcode":"HTL"},{"adminCode1":"CA","lng":"-117.101","geonameId":6462454,"toponymName":"Super 8 Mission Valley/Qualcomm","countryId":"6252001","fcl":"S","population":0,"countryCode":"US","name":"Super 8 Mission Valley/Qualcomm","fclName":"spot, building, farm","adminCodes1":{"ISO3166_2":"CA"},"countryName":"United States","fcodeName":"hotel","adminName1":"California","lat":"32.7802","fcode":"HTL"},{"adminCode1":"TX","lng":"-97.19452","geonameId":7139246,"toponymName":"Mission Valley Volunteer Fire Department","countryId":"6252001","fcl":"S","population":0,"countryCode":"US","name":"Mission Valley Volunteer Fire Department","fclName":"spot, building, farm","adminCodes1":{"ISO3166_2":"TX"},"countryName":"United States","fcodeName":"building(s)","adminName1":"Texas","lat":"28.89983","fcode":"BLDG"},{"adminCode1":"TX","lng":"-97.19023","geonameId":7186270,"toponymName":"Mission Valley Elementary School","countryId":"6252001","fcl":"S","population":0,"countryCode":"US","name":"Mission Valley Elementary School","fclName":"spot, building, farm","adminCodes1":{"ISO3166_2":"TX"},"countryName":"United States","fcodeName":"school","adminName1":"Texas","lat":"28.89875","fcode":"SCH"},{"adminCode1":"OH","lng":"-84.21744","geonameId":4519700,"toponymName":"New Valley Grove Mission Church","countryId":"6252001","fcl":"S","population":0,"countryCode":"US","name":"New Valley Grove Mission Church","fclName":"spot, building, farm","adminCodes1":{"ISO3166_2":"OH"},"countryName":"United States","fcodeName":"church","adminName1":"Ohio","lat":"39.74673","fcode":"CH"},{"adminCode1":"TX","lng":"-97.1711","geonameId":4711786,"toponymName":"Mission Valley Cemetery","countryId":"6252001","fcl":"S","population":0,"countryCode":"US","name":"Mission Valley Cemetery","fclName":"spot, building, farm","adminCodes1":{"ISO3166_2":"TX"},"countryName":"United States","fcodeName":"cemetery","adminName1":"Texas","lat":"28.85249","fcode":"CMTY"},{"adminCode1":"TX","lng":"-98.19223","geonameId":4046412,"toponymName":"Mission Valley Guest Ranch","countryId":"6252001","fcl":"S","population":0,"countryCode":"US","name":"Mission Valley Guest Ranch","fclName":"spot, building, farm","adminCodes1":{"ISO3166_2":"TX"},"countryName":"United States","fcodeName":"","adminName1":"Texas","lat":"29.72495"},{"adminCode1":"KS","lng":"-96.1036","geonameId":4275623,"toponymName":"Mission Valley High School","countryId":"6252001","fcl":"S","population":0,"countryCode":"US","name":"Mission Valley High School","fclName":"spot, building, farm","adminCodes1":{"ISO3166_2":"KS"},"countryName":"United States","fcodeName":"school","adminName1":"Kansas","lat":"38.8575","fcode":"SCH"},{"adminCode1":"IN","lng":"-86.50361","geonameId":4266205,"toponymName":"Valley Mission Church","countryId":"6252001","fcl":"S","population":0,"countryCode":"US","name":"Valley Mission Church","fclName":"spot, building, farm","adminCodes1":{"ISO3166_2":"IN"},"countryName":"United States","fcodeName":"church","adminName1":"Indiana","lat":"38.98977","fcode":"CH"},{"adminCode1":"FL","lng":"-82.44593","geonameId":4164640,"toponymName":"Mission Valley Country Club","countryId":"6252001","fcl":"S","population":0,"countryCode":"US","name":"Mission Valley Country Club","fclName":"spot, building, farm","adminCodes1":{"ISO3166_2":"FL"},"countryName":"United States","fcodeName":"resort","adminName1":"Florida","lat":"27.15505","fcode":"RSRT"},{"adminCode1":"VA","lng":"-81.45399","geonameId":4790914,"toponymName":"Valley Gospel Mission","countryId":"6252001","fcl":"S","population":0,"countryCode":"US","name":"Valley Gospel Mission","fclName":"spot, building, farm","adminCodes1":{"ISO3166_2":"VA"},"countryName":"United States","fcodeName":"church","adminName1":"Virginia","lat":"37.24373","fcode":"CH"},{"adminCode1":"AZ","lng":"-111.03174","geonameId":7723731,"toponymName":"Church of Christ of Mission Valley","countryId":"6252001","fcl":"S","population":0,"countryCode":"US","name":"Church of Christ of Mission Valley","fclName":"spot, building, farm","adminCodes1":{"ISO3166_2":"AZ"},"countryName":"United States","fcodeName":"church","adminName1":"Arizona","lat":"32.14145","fcode":"CH"}]}
