{"totalResultsCount":39,"geonames":[{"adminCode1":"CT","lng":"-72.0998","geonameId":4838838,"toponymName":"Mohegan","countryId":"6252001","fcl":"P","population":0,"countryCode":"US","name":"Mohegan","fclName":"city, village,...","adminCodes1":{"ISO3166_2":"CT"},"countryName":"United States","fcodeName":"populated place","adminName1":"Connecticut","lat":"41.47676","fcode":"PPL"},{"adminCode1":"NY","lng":"-73.84819","geonameId":5123822,"toponymName":"Lake Mohegan","countryId":"6252001","fcl":"H","population":0,"countryCode":"US","name":"Lake Mohegan","fclName":"stream, lake, ...","adminCodes1":{"ISO3166_2":"NY"},"countryName":"United States","fcodeName":"lake","adminName1":"New York","lat":"41.31398","fcode":"LK"},{"adminCode1":"NY","lng":"-74.0282","geonameId":5121521,"toponymName":"Hudson River","countryId":"6252001","fcl":"H","population":0,"countryCode":"US","name":"Hudson River","fclName":"stream, lake, ...","adminCodes1":{"ISO3166_2":"NY"},"countryName":"United States","fcodeName":"stream","adminName1":"New York","lat":"40.69677","fcode":"STM"},{"adminCode1":"CT","lng":"-72.0998","geonameId":4838839,"toponymName":"Mohegan (historical)","countryId":"6252001","fcl":"P","population":0,"countryCode":"US","name":"Mohegan (historical)","fclName":"city, village,...","adminCodes1":{"ISO3166_2":"CT"},"countryName":"United States","fcodeName":"abandoned populated place","adminName1":"Connecticut","lat":"41.47676","fcode":"PPLQ"},{"adminCode1":"NY","lng":"-73.85902","geonameId":5127250,"toponymName":"Mohegan Lake","countryId":"6252001","fcl":"P","population":0,"countryCode":"US","name":"Mohegan Lake","fclName":"city, village,...","adminCodes1":{"ISO3166_2":"NY"},"countryName":"United States","fcodeName":"populated place","adminName1":"New York","lat":"41.31843","fcode":"PPL"},{"adminCode1":"NY","lng":"-73.84625","geonameId":5123823,"toponymName":"Lake Mohegan","countryId":"6252001","fcl":"P","population":6010,"countryCode":"US","name":"Lake Mohegan","fclName":"city, village,...","adminCodes1":{"ISO3166_2":"NY"},"countryName":"United States","fcodeName":"populated place","adminName1":"New York","lat":"41.31787","fcode":"PPL"},{"adminCode1":"RI","lng":"-71.55672","geonameId":5223414,"toponymName":"Mohegan Bluffs","countryId":"6252001","fcl":"T","population":0,"countryCode":"US","name":"Mohegan Bluffs","fclName":"mountain,hill,rock,... ","adminCodes1":{"ISO3166_2":"RI"},"countryName":"United States","fcodeName":"cliff(s)","adminName1":"Rhode Island","lat":"41.15177","fcode":"CLF"},{"adminCode1":"CT","lng":"-73.25456","geonameId":4837458,"toponymName":"Lake Mohegan Recreation Area","countryId":"6252001","fcl":"L","population":0,"countryCode":"US","name":"Lake Mohegan Recreation Area","fclName":"parks,area, ...","adminCodes1":{"ISO3166_2":"CT"},"countryName":"United States","fcodeName":"park","adminName1":"Connecticut","lat":"41.2051","fcode":"PRK"},{"adminCode1":"WV","lng":"-81.63066","geonameId":4815171,"toponymName":"Mohegan","countryId":"6252001","fcl":"P","population":0,"countryCode":"US","name":"Mohegan","fclName":"city, village,...","adminCodes1":{"ISO3166_2":"WV"},"countryName":"United States","fcodeName":"populated place","adminName1":"West Virginia","lat":"37.45317","fcode":"PPL"},{"adminCode1":"CT","lng":"-72.10369","geonameId":4838843,"toponymName":"Mohegan Hill","countryId":"6252001","fcl":"T","population":0,"countryCode":"US","name":"Mohegan Hill","fclName":"mountain,hill,rock,... ","adminCodes1":{"ISO3166_2":"CT"},"countryName":"United States","fcodeName":"mountain","adminName1":"Connecticut","lat":"41.47371","fcode":"MT"},{"adminCode1":"CT","lng":"-72.09017","geonameId":7178052,"toponymName":"Mohegan Reservation","countryId":"6252001","fcl":"A","population":0,"countryCode":"US","name":"Mohegan Reservation","fclName":"country, state, region,...","adminCodes1":{"ISO3166_2":"CT"},"countryName":"United States","fcodeName":"administrative division","adminName1":"Connecticut","lat":"41.48901","fcode":"ADMD"},{"adminCode1":"CT","lng":"-72.07397","geonameId":4838844,"toponymName":"Mohegan Park","countryId":"6252001","fcl":"L","population":0,"countryCode":"US","name":"Mohegan Park","fclName":"parks,area, ...","adminCodes1":{"ISO3166_2":"CT"},"countryName":"United States","fcodeName":"park","adminName1":"Connecticut","lat":"41.5426","fcode":"PRK"},{"adminCode1":"NY","lng":"-74.65361","geonameId":5127248,"toponymName":"Mohegan Lake","countryId":"6252001","fcl":"H","population":0,"countryCode":"US","name":"Mohegan Lake","fclName":"stream, lake, ...","adminCodes1":{"ISO3166_2":"NY"},"countryName":"United States","fcodeName":"lake","adminName1":"New York","lat":"43.74365","fcode":"LK"},{"adminCode1":"NY","lng":"-74.47572","geonameId":5127249,"toponymName":"Mohegan Lake","countryId":"6252001","fcl":"H","population":0,"countryCode":"US","name":"Mohegan Lake","fclName":"stream, lake, ...","adminCodes1":{"ISO3166_2":"NY"},"countryName":"United States","fcodeName":"lake","adminName1":"New York","lat":"44.05335","fcode":"LK"},{"adminCode1":"CT","lng":"-72.08046","geonameId":4844094,"toponymName":"Thames River","countryId":"6252001","fcl":"H","population":0,"countryCode":"US","name":"Thames River","fclName":"stream, lake, ...","adminCodes1":{"ISO3166_2":"CT"},"countryName":"United States","fcodeName":"stream","adminName1":"Connecticut","lat":"41.31888","fcode":"STM"},{"adminCode1":"CT","lng":"-72.09892","geonameId":7178571,"toponymName":"Mohegan Fire Company Inc.","countryId":"6252001","fcl":"S","population":0,"countryCode":"US","name":"Mohegan Fire Company Inc.","fclName":"spot, building, farm","adminCodes1":{"ISO3166_2":"CT"},"countryName":"United States","fcodeName":"building(s)","adminName1":"Connecticut","lat":"41.48012","fcode":"BLDG"},{"adminCode1":"TX","lng":"-95.8583","geonameId":4701684,"toponymName":"Jot-Em-Down","countryId":"6252001","fcl":"P","population":0,"countryCode":"US","name":"Jot-Em-Down","fclName":"city, village,...","adminCodes1":{"ISO3166_2":"TX"},"countryName":"United States","fcodeName":"populated place","adminName1":"Texas","lat":"33.38289","fcode":"PPL"},{"adminCode1":"CT","lng":"-72.07813","geonameId":4838856,"toponymName":"Mohegan Community College (historical)","countryId":"6252001","fcl":"S","population":0,"countryCode":"US","name":"Mohegan Community College (historical)","fclName":"spot, building, farm","adminCodes1":{"ISO3166_2":"CT"},"countryName":"United States","fcodeName":"school","adminName1":"Connecticut","lat":"41.54954","fcode":"SCH"},{"adminCode1":"CT","lng":"-72.10424","geonameId":4838840,"toponymName":"Mohegan Brook","countryId":"6252001","fcl":"H","population":0,"countryCode":"US","name":"Mohegan Brook","fclName":"stream, lake, ...","adminCodes1":{"ISO3166_2":"CT"},"countryName":"United States","fcodeName":"stream","adminName1":"Connecticut","lat":"41.4526","fcode":"STM"},{"adminCode1":"RI","lng":"-71.62257","geonameId":5223413,"toponymName":"Mohegan","countryId":"6252001","fcl":"P","population":0,"countryCode":"US","name":"Mohegan","fclName":"city, village,...","adminCodes1":{"ISO3166_2":"RI"},"countryName":"United States","fcodeName":"populated place","adminName1":"Rhode Island","lat":"41.98593","fcode":"PPL"},{"adminCode1":"CT","lng":"-73.16928","geonameId":4838842,"toponymName":"Mohegan Elementary School","countryId":"6252001","fcl":"S","population":0,"countryCode":"US","name":"Mohegan Elementary School","fclName":"spot, building, farm","adminCodes1":{"ISO3166_2":"CT"},"countryName":"United States","fcodeName":"school","adminName1":"Connecticut","lat":"41.30399","fcode":"SCH"},{"adminCode1":"NY","lng":"-73.84291","geonameId":5127247,"toponymName":"Mohegan Heights","countryId":"6252001","fcl":"P","population":0,"countryCode":"US","name":"Mohegan Heights","fclName":"city, village,...","adminCodes1":{"ISO3166_2":"NY"},"countryName":"United States","fcodeName":"populated place","adminName1":"New York","lat":"40.95315","fcode":"PPL"},{"adminCode1":"CT","lng":"-72.07813","geonameId":7239232,"toponymName":"Three Rivers Community College (Mohegan Campus)","countryId":"6252001","fcl":"S","population":0,"countryCode":"US","name":"Three Rivers Community College (Mohegan Campus)","fclName":"spot, building, farm","adminCodes1":{"ISO3166_2":"CT"},"countryName":"United States","fcodeName":"school","adminName1":"Connecticut","lat":"41.54954","fcode":"SCH"},{"adminCode1":"MS","lng":"-88.48421","geonameId":4436366,"toponymName":"Mohegan (historical)","countryId":"6252001","fcl":"P","population":0,"countryCode":"US","name":"Mohegan (historical)","fclName":"city, village,...","adminCodes1":{"ISO3166_2":"MS"},"countryName":"United States","fcodeName":"abandoned populated place","adminName1":"Mississippi","lat":"32.99374","fcode":"PPLQ"},{"adminCode1":"RI","lng":"-71.5509","geonameId":5221038,"toponymName":"Branch River","countryId":"6252001","fcl":"H","population":0,"countryCode":"US","name":"Branch River","fclName":"stream, lake, ...","adminCodes1":{"ISO3166_2":"RI"},"countryName":"United States","fcodeName":"stream","adminName1":"Rhode Island","lat":"42.00954","fcode":"STM"},{"adminCode1":"MT","lng":"-111.64247","geonameId":5685067,"toponymName":"Water/Mohegan Mine","countryId":"6252001","fcl":"S","population":0,"countryCode":"US","name":"Water/Mohegan Mine","fclName":"spot, building, farm","adminCodes1":{"ISO3166_2":"MT"},"countryName":"United States","fcodeName":"mine(s)","adminName1":"Montana","lat":"45.56909","fcode":"MN"},{"adminCode1":"MI","lng":"-82.9261","geonameId":7144496,"toponymName":"Chippewa Valley Adult and Mohegan Alternative Education School","countryId":"6252001","fcl":"S","population":0,"countryCode":"US","name":"Chippewa Valley Adult and Mohegan Alternative Education School","fclName":"spot, building, farm","adminCodes1":{"ISO3166_2":"MI"},"countryName":"United States","fcodeName":"school","adminName1":"Michigan","lat":"42.6097","fcode":"SCH"},{"adminCode1":"CT","lng":"-73.25476","geonameId":4837457,"toponymName":"Lake Mohegan","countryId":"6252001","fcl":"H","population":0,"countryCode":"US","name":"Lake Mohegan","fclName":"stream, lake, ...","adminCodes1":{"ISO3166_2":"CT"},"countryName":"United States","fcodeName":"reservoir(s)","adminName1":"Connecticut","lat":"41.20511","fcode":"RSV"},{"adminCode1":"CT","lng":"-72.09575","geonameId":6947507,"toponymName":"Mohegan Sun Casino","countryId":"6252001","fcl":"S","population":0,"countryCode":"US","name":"Mohegan Sun Casino","fclName":"spot, building, farm","adminCodes1":{"ISO3166_2":"CT"},"countryName":"United States","fcodeName":"casino","adminName1":"Connecticut","lat":"41.49223","fcode":"CSNO"},{"adminCode1":"CT","lng":"-72.096","geonameId":6532266,"toponymName":"Mohegan Sun","countryId":"6252001","fcl":"S","population":0,"countryCode":"US","name":"Mohegan Sun","fclName":"spot, building, farm","adminCodes1":{"ISO3166_2":"CT"},"countryName":"United States","fcodeName":"hotel","adminName1":"Connecticut","lat":"41.4926","fcode":"HTL"},{"adminCode1":"CT","lng":"-72.09397","geonameId":4838845,"toponymName":"Mohegan School","countryId":"6252001","fcl":"S","population":0,"countryCode":"US","name":"Mohegan School","fclName":"spot, building, farm","adminCodes1":{"ISO3166_2":"CT"},"countryName":"United States","fcodeName":"school","adminName1":"Connecticut","lat":"41.47704","fcode":"SCH"},{"adminCode1":"CT","lng":"-72.09786","geonameId":4838847,"toponymName":"Mohegan Church","countryId":"6252001","fcl":"S","population":0,"countryCode":"US","name":"Mohegan Church","fclName":"spot, building, farm","adminCodes1":{"ISO3166_2":"CT"},"countryName":"United States","fcodeName":"church","adminName1":"Connecticut","lat":"41.47315","fcode":"CH"},{"adminCode1":"CT","lng":"-72.09666","geonameId":8099325,"toponymName":"Mohegan Tribal Fire Department","countryId":"6252001","fcl":"S","population":0,"countryCode":"US","name":"Mohegan Tribal Fire Department","fclName":"spot, building, farm","adminCodes1":{"ISO3166_2":"CT"},"countryName":"United States","fcodeName":"building(s)","adminName1":"Connecticut","lat":"41.49233","fcode":"BLDG"},{"adminCode1":"CT","lng":"-72.06991","geonameId":9862588,"toponymName":"Super 8 Groton Foxwoods Mohegan Sun","countryId":"6252001","fcl":"S","population":0,"countryCode":"US","name":"Super 8 Groton Foxwoods Mohegan Sun","fclName":"spot, building, farm","adminCodes1":{"ISO3166_2":"CT"},"countryName":"United States","fcodeName":"hotel","adminName1":"Connecticut","lat":"41.3677","fcode":"HTL"},{"adminCode1":"CT","lng":"-72.06499","geonameId":10237818,"toponymName":"Days Inn & Suites Groton/Mohegan Sun/Foxwoods","countryId":"6252001","fcl":"S","population":0,"countryCode":"US","name":"Days Inn & Suites Groton/Mohegan Sun/Foxwoods","fclName":"spot, building, farm","adminCodes1":{"ISO3166_2":"CT"},"countryName":"United States","fcodeName":"hotel","adminName1":"Connecticut","lat":"41.36732","fcode":"HTL"},{"adminCode1":"CT","lng":"-72.09602","geonameId":11789196,"toponymName":"Hyatt Place Mohegan Sun","countryId":"6252001","fcl":"S","population":0,"countryCode":"US","name":"Hyatt Place Mohegan Sun","fclName":"spot, building, farm","adminCodes1":{"ISO3166_2":"CT"},"countryName":"United States","fcodeName":"hotel","adminName1":"Connecticut","lat":"41.48056","fcode":"HTL"},{"adminCode1":"NY","lng":"-73.86597","geonameId":5127251,"toponymName":"Mohegan Outlet","countryId":"6252001","fcl":"H","population":0,"countryCode":"US","name":"Mohegan Outlet","fclName":"stream, lake, ...","adminCodes1":{"ISO3166_2":"NY"},"countryName":"United States","fcodeName":"stream","adminName1":"New York","lat":"41.33537","fcode":"STM"},{"adminCode1":"NY","lng":"-73.86013","geonameId":8082002,"toponymName":"Mohegan Park Adult Care Facility","countryId":"6252001","fcl":"S","population":0,"countryCode":"US","name":"Mohegan Park Adult Care Facility","fclName":"spot, building, farm","adminCodes1":{"ISO3166_2":"NY"},"countryName":"United States","fcodeName":"building(s)","adminName1":"New York","lat":"41.31882","fcode":"BLDG"},{"adminCode1":"NY","lng":"-73.85852","geonameId":8492255,"toponymName":"Mohegan Volunteer Fire Association Station 1","countryId":"6252001","fcl":"S","population":0,"countryCode":"US","name":"Mohegan Volunteer Fire Association Station 1","fclName":"spot, building, farm","adminCodes1":{"ISO3166_2":"NY"},"countryName":"United States","fcodeName":"building(s)","adminName1":"New York","lat":"41.31912","fcode":"BLDG"}]}
