{"totalResultsCount":18,"geonames":[{"adminCode1":"TX","lng":"-101.96962","geonameId":5528414,"toponymName":"Pioneer Park Baseball Field","countryId":"6252001","fcl":"L","population":0,"countryCode":"US","name":"Pioneer Park Baseball Field","fclName":"parks,area, ...","adminCodes1":{"ISO3166_2":"TX"},"countryName":"United States","fcodeName":"park","adminName1":"Texas","lat":"35.85087","fcode":"PRK"},{"adminCode1":"OK","lng":"-97.49198","geonameId":4551727,"toponymName":"South Moore Oil Field","countryId":"6252001","fcl":"L","population":0,"countryCode":"US","name":"South Moore Oil Field","fclName":"parks,area, ...","adminCodes1":{"ISO3166_2":"OK"},"countryName":"United States","fcodeName":"oilfield","adminName1":"Oklahoma","lat":"35.31034","fcode":"OILF"},{"adminCode1":"TX","lng":"-101.55179","geonameId":5526599,"toponymName":"Moore Oil Field","countryId":"6252001","fcl":"L","population":0,"countryCode":"US","name":"Moore Oil Field","fclName":"parks,area, ...","adminCodes1":{"ISO3166_2":"TX"},"countryName":"United States","fcodeName":"oilfield","adminName1":"Texas","lat":"32.1879","fcode":"OILF"},{"adminCode1":"TX","lng":"-101.27599","geonameId":5526617,"toponymName":"Moore Watkins Oil Field","countryId":"6252001","fcl":"L","population":0,"countryCode":"US","name":"Moore Watkins Oil Field","fclName":"parks,area, ...","adminCodes1":{"ISO3166_2":"TX"},"countryName":"United States","fcodeName":"oilfield","adminName1":"Texas","lat":"35.7106","fcode":"OILF"},{"adminCode1":"OH","lng":"-83.11282","geonameId":5151911,"toponymName":"Delaware Municipal Airport - Jim Moore Field","countryId":"6252001","fcl":"S","population":0,"countryCode":"US","name":"Delaware Municipal Airport - Jim Moore Field","fclName":"spot, building, farm","adminCodes1":{"ISO3166_2":"OH"},"countryName":"United States","fcodeName":"airfield","adminName1":"Ohio","lat":"40.28158","fcode":"AIRF"},{"adminCode1":"LA","lng":"-91.5065","geonameId":4333756,"toponymName":"Moore-Sams Oil Field","countryId":"6252001","fcl":"L","population":0,"countryCode":"US","name":"Moore-Sams Oil Field","fclName":"parks,area, ...","adminCodes1":{"ISO3166_2":"LA"},"countryName":"United States","fcodeName":"oilfield","adminName1":"Louisiana","lat":"30.68213","fcode":"OILF"},{"adminCode1":"NM","lng":"-103.67468","geonameId":5480096,"toponymName":"Moore Oil Field","countryId":"6252001","fcl":"L","population":0,"countryCode":"US","name":"Moore Oil Field","fclName":"parks,area, ...","adminCodes1":{"ISO3166_2":"NM"},"countryName":"United States","fcodeName":"oilfield","adminName1":"New Mexico","lat":"33.35066","fcode":"OILF"},{"adminCode1":"CT","lng":"-72.95177","geonameId":4838919,"toponymName":"Moore Field","countryId":"6252001","fcl":"L","population":0,"countryCode":"US","name":"Moore Field","fclName":"parks,area, ...","adminCodes1":{"ISO3166_2":"CT"},"countryName":"United States","fcodeName":"park","adminName1":"Connecticut","lat":"41.33565","fcode":"PRK"},{"adminCode1":"NE","lng":"-100.39931","geonameId":5697692,"toponymName":"Moorefield","countryId":"6252001","fcl":"P","population":30,"countryCode":"US","name":"Moorefield","fclName":"city, village,...","adminCodes1":{"ISO3166_2":"NE"},"countryName":"United States","fcodeName":"populated place","adminName1":"Nebraska","lat":"40.69001","fcode":"PPL"},{"adminCode1":"SC","lng":"-82.40054","geonameId":4587610,"toponymName":"Moore's Field","countryId":"6252001","fcl":"S","population":0,"countryCode":"US","name":"Moore's Field","fclName":"spot, building, farm","adminCodes1":{"ISO3166_2":"SC"},"countryName":"United States","fcodeName":"airfield","adminName1":"South Carolina","lat":"34.59363","fcode":"AIRF"},{"adminCode1":"GA","lng":"-85.14963","geonameId":4189540,"toponymName":"Polk County Airport- Cornelius Moore Field","countryId":"6252001","fcl":"S","population":0,"countryCode":"US","name":"Polk County Airport- Cornelius Moore Field","fclName":"spot, building, farm","adminCodes1":{"ISO3166_2":"GA"},"countryName":"United States","fcodeName":"airfield","adminName1":"Georgia","lat":"34.01805","fcode":"AIRF"},{"adminCode1":"AL","lng":"-86.47498","geonameId":8113302,"toponymName":"Moore Field","countryId":"6252001","fcl":"S","population":0,"countryCode":"US","name":"Moore Field","fclName":"spot, building, farm","adminCodes1":{"ISO3166_2":"AL"},"countryName":"United States","fcodeName":"airfield","adminName1":"Alabama","lat":"33.61118","fcode":"AIRF"},{"adminCode1":"TX","lng":"-98.33323","geonameId":4712173,"toponymName":"Moore Field","countryId":"6252001","fcl":"S","population":0,"countryCode":"US","name":"Moore Field","fclName":"spot, building, farm","adminCodes1":{"ISO3166_2":"TX"},"countryName":"United States","fcodeName":"airfield","adminName1":"Texas","lat":"26.39123","fcode":"AIRF"},{"adminCode1":"KS","lng":"-98.84997","geonameId":8112950,"toponymName":"Moore Field","countryId":"6252001","fcl":"S","population":0,"countryCode":"US","name":"Moore Field","fclName":"spot, building, farm","adminCodes1":{"ISO3166_2":"KS"},"countryName":"United States","fcodeName":"airfield","adminName1":"Kansas","lat":"37.79153","fcode":"AIRF"},{"adminCode1":"CO","lng":"-104.13518","geonameId":8081578,"toponymName":"East Moore Field","countryId":"6252001","fcl":"S","population":0,"countryCode":"US","name":"East Moore Field","fclName":"spot, building, farm","adminCodes1":{"ISO3166_2":"CO"},"countryName":"United States","fcodeName":"airfield","adminName1":"Colorado","lat":"39.67077","fcode":"AIRF"},{"adminCode1":"NC","lng":"-79.2485","geonameId":8115058,"toponymName":"Rooster Field","countryId":"6252001","fcl":"S","population":0,"countryCode":"US","name":"Rooster Field","fclName":"spot, building, farm","adminCodes1":{"ISO3166_2":"NC"},"countryName":"United States","fcodeName":"airfield","adminName1":"North Carolina","lat":"35.27213","fcode":"AIRF"},{"adminCode1":"WV","lng":"-79.69481","geonameId":4815270,"toponymName":"Moore Field","countryId":"6252001","fcl":"S","population":0,"countryCode":"US","name":"Moore Field","fclName":"spot, building, farm","adminCodes1":{"ISO3166_2":"WV"},"countryName":"United States","fcodeName":"airfield","adminName1":"West Virginia","lat":"39.45101","fcode":"AIRF"},{"adminCode1":"NC","lng":"-79.2278","geonameId":4483255,"toponymName":"Old Field Branch","countryId":"6252001","fcl":"H","population":0,"countryCode":"US","name":"Old Field Branch","fclName":"stream, lake, ...","adminCodes1":{"ISO3166_2":"NC"},"countryName":"United States","fcodeName":"stream","adminName1":"North Carolina","lat":"35.26821","fcode":"STM"}]}
