{"totalResultsCount":11,"geonames":[{"adminCode1":"VT","lng":"-72.81429","geonameId":5238283,"toponymName":"Mount Mansfield","countryId":"6252001","fcl":"T","population":0,"countryCode":"US","name":"Mount Mansfield","fclName":"mountain,hill,rock,... ","adminCodes1":{"ISO3166_2":"VT"},"countryName":"United States","fcodeName":"mountain","adminName1":"Vermont","lat":"44.54366","fcode":"MT"},{"adminCode1":"VT","lng":"-72.96194","geonameId":5238834,"toponymName":"Mount Mansfield Union High School","countryId":"6252001","fcl":"S","population":0,"countryCode":"US","name":"Mount Mansfield Union High School","fclName":"spot, building, farm","adminCodes1":{"ISO3166_2":"VT"},"countryName":"United States","fcodeName":"school","adminName1":"Vermont","lat":"44.48615","fcode":"SCH"},{"adminCode1":"CT","lng":"-72.17091","geonameId":4839022,"toponymName":"Mount Hope","countryId":"6252001","fcl":"P","population":0,"countryCode":"US","name":"Mount Hope","fclName":"city, village,...","adminCodes1":{"ISO3166_2":"CT"},"countryName":"United States","fcodeName":"populated place","adminName1":"Connecticut","lat":"41.82399","fcode":"PPL"},{"adminCode1":"NJ","lng":"-74.90128","geonameId":5101463,"toponymName":"Mount Bethel","countryId":"6252001","fcl":"P","population":0,"countryCode":"US","name":"Mount Bethel","fclName":"city, village,...","adminCodes1":{"ISO3166_2":"NJ"},"countryName":"United States","fcodeName":"populated place","adminName1":"New Jersey","lat":"40.82621","fcode":"PPL"},{"adminCode1":"VT","lng":"-72.79151","geonameId":5238833,"toponymName":"Mount Mansfield State Forest","countryId":"6252001","fcl":"V","population":0,"countryCode":"US","name":"Mount Mansfield State Forest","fclName":"forest,heath,...","adminCodes1":{"ISO3166_2":"VT"},"countryName":"United States","fcodeName":"forest(s)","adminName1":"Vermont","lat":"44.56338","fcode":"FRST"},{"adminCode1":"VT","lng":"-72.77689","geonameId":7181190,"toponymName":"Mount Mansfield Winter Academy","countryId":"6252001","fcl":"S","population":0,"countryCode":"US","name":"Mount Mansfield Winter Academy","fclName":"spot, building, farm","adminCodes1":{"ISO3166_2":"VT"},"countryName":"United States","fcodeName":"school","adminName1":"Vermont","lat":"44.53525","fcode":"SCH"},{"adminCode1":"VT","lng":"-72.81512","geonameId":5238830,"toponymName":"Mount Mansfield Hotel","countryId":"6252001","fcl":"S","population":0,"countryCode":"US","name":"Mount Mansfield Hotel","fclName":"spot, building, farm","adminCodes1":{"ISO3166_2":"VT"},"countryName":"United States","fcodeName":"building(s)","adminName1":"Vermont","lat":"44.52811","fcode":"BLDG"},{"adminCode1":"VT","lng":"-72.7954","geonameId":5238831,"toponymName":"Mount Mansfield Ski Area","countryId":"6252001","fcl":"S","population":0,"countryCode":"US","name":"Mount Mansfield Ski Area","fclName":"spot, building, farm","adminCodes1":{"ISO3166_2":"VT"},"countryName":"United States","fcodeName":"","adminName1":"Vermont","lat":"44.52755"},{"adminCode1":"VT","lng":"-72.76623","geonameId":5238832,"toponymName":"Mount Mansfield Ski Touring Center","countryId":"6252001","fcl":"S","population":0,"countryCode":"US","name":"Mount Mansfield Ski Touring Center","fclName":"spot, building, farm","adminCodes1":{"ISO3166_2":"VT"},"countryName":"United States","fcodeName":"","adminName1":"Vermont","lat":"44.51089"},{"adminCode1":"CT","lng":"-72.17286","geonameId":4839023,"toponymName":"Mount Hope Cemetery","countryId":"6252001","fcl":"S","population":0,"countryCode":"US","name":"Mount Hope Cemetery","fclName":"spot, building, farm","adminCodes1":{"ISO3166_2":"CT"},"countryName":"United States","fcodeName":"cemetery","adminName1":"Connecticut","lat":"41.81871","fcode":"CMTY"},{"adminCode1":"NJ","lng":"-74.9181","geonameId":7719360,"toponymName":"Mount Bethel Volunteer Fire Company","countryId":"6252001","fcl":"S","population":0,"countryCode":"US","name":"Mount Bethel Volunteer Fire Company","fclName":"spot, building, farm","adminCodes1":{"ISO3166_2":"NJ"},"countryName":"United States","fcodeName":"building(s)","adminName1":"New Jersey","lat":"40.84028","fcode":"BLDG"}]}
