{"totalResultsCount":152,"geonames":[{"adminCode1":"PA","lng":"-77.18998","geonameId":5202164,"toponymName":"Mount Holly Springs","countryId":"6252001","fcl":"P","population":2037,"countryCode":"US","name":"Mount Holly Springs","fclName":"city, village,...","adminCodes1":{"ISO3166_2":"PA"},"countryName":"United States","fcodeName":"populated place","adminName1":"Pennsylvania","lat":"40.11842","fcode":"PPL"},{"adminCode1":"NJ","lng":"-74.78766","geonameId":4503134,"toponymName":"Mount Holly","countryId":"6252001","fcl":"P","population":10804,"countryCode":"US","name":"Mount Holly","fclName":"city, village,...","adminCodes1":{"ISO3166_2":"NJ"},"countryName":"United States","fcodeName":"seat of a second-order administrative division","adminName1":"New Jersey","lat":"39.99289","fcode":"PPLA2"},{"adminCode1":"VT","lng":"-72.82482","geonameId":5238820,"toponymName":"Mount Holly","countryId":"6252001","fcl":"P","population":1221,"countryCode":"US","name":"Mount Holly","fclName":"city, village,...","adminCodes1":{"ISO3166_2":"VT"},"countryName":"United States","fcodeName":"populated place","adminName1":"Vermont","lat":"43.45229","fcode":"PPL"},{"adminCode1":"NC","lng":"-81.01591","geonameId":4480560,"toponymName":"Mount Holly","countryId":"6252001","fcl":"P","population":14176,"countryCode":"US","name":"Mount Holly","fclName":"city, village,...","adminCodes1":{"ISO3166_2":"NC"},"countryName":"United States","fcodeName":"populated place","adminName1":"North Carolina","lat":"35.29819","fcode":"PPL"},{"adminCode1":"AR","lng":"-92.95489","geonameId":4122453,"toponymName":"Mount Holly","countryId":"6252001","fcl":"P","population":0,"countryCode":"US","name":"Mount Holly","fclName":"city, village,...","adminCodes1":{"ISO3166_2":"AR"},"countryName":"United States","fcodeName":"populated place","adminName1":"Arkansas","lat":"33.30263","fcode":"PPL"},{"adminCode1":"VA","lng":"-76.71802","geonameId":4774309,"toponymName":"Mount Holly","countryId":"6252001","fcl":"P","population":0,"countryCode":"US","name":"Mount Holly","fclName":"city, village,...","adminCodes1":{"ISO3166_2":"VA"},"countryName":"United States","fcodeName":"populated place","adminName1":"Virginia","lat":"38.09124","fcode":"PPL"},{"adminCode1":"PA","lng":"-77.18537","geonameId":5202168,"toponymName":"Borough of Mount Holly Springs","countryId":"6252001","fcl":"A","population":2030,"countryCode":"US","name":"Borough of Mount Holly Springs","fclName":"country, state, region,...","adminCodes1":{"ISO3166_2":"PA"},"countryName":"United States","fcodeName":"third-order administrative division","adminName1":"Pennsylvania","lat":"40.11257","fcode":"ADM3"},{"adminCode1":"VT","lng":"-72.80449","geonameId":5238826,"toponymName":"Town of Mount Holly","countryId":"6252001","fcl":"A","population":1221,"countryCode":"US","name":"Town of Mount Holly","fclName":"country, state, region,...","adminCodes1":{"ISO3166_2":"VT"},"countryName":"United States","fcodeName":"third-order administrative division","adminName1":"Vermont","lat":"43.42784","fcode":"ADM3"},{"adminCode1":"OH","lng":"-84.03243","geonameId":4518907,"toponymName":"Mount Holly","countryId":"6252001","fcl":"P","population":0,"countryCode":"US","name":"Mount Holly","fclName":"city, village,...","adminCodes1":{"ISO3166_2":"OH"},"countryName":"United States","fcodeName":"populated place","adminName1":"Ohio","lat":"39.57173","fcode":"PPL"},{"adminCode1":"VT","lng":"-72.82232","geonameId":5233723,"toponymName":"Belmont","countryId":"6252001","fcl":"P","population":0,"countryCode":"US","name":"Belmont","fclName":"city, village,...","adminCodes1":{"ISO3166_2":"VT"},"countryName":"United States","fcodeName":"populated place","adminName1":"Vermont","lat":"43.41563","fcode":"PPL"},{"adminCode1":"OH","lng":"-82.19405","geonameId":5148241,"toponymName":"Brinkhaven","countryId":"6252001","fcl":"P","population":193,"countryCode":"US","name":"Brinkhaven","fclName":"city, village,...","adminCodes1":{"ISO3166_2":"OH"},"countryName":"United States","fcodeName":"populated place","adminName1":"Ohio","lat":"40.46951","fcode":"PPL"},{"adminCode1":"NJ","lng":"-74.78615","geonameId":5101494,"toponymName":"Township of Mount Holly","countryId":"6252001","fcl":"A","population":0,"countryCode":"US","name":"Mount Holly Township","fclName":"country, state, region,...","adminCodes1":{"ISO3166_2":"NJ"},"countryName":"United States","fcodeName":"third-order administrative division","adminName1":"New Jersey","lat":"39.995","fcode":"ADM3"},{"adminCode1":"AR","lng":"-92.95766","geonameId":4122459,"toponymName":"Mount Holly Oil and Gas Field","countryId":"6252001","fcl":"L","population":0,"countryCode":"US","name":"Mount Holly Oil and Gas Field","fclName":"parks,area, ...","adminCodes1":{"ISO3166_2":"AR"},"countryName":"United States","fcodeName":"oilfield","adminName1":"Arkansas","lat":"33.25874","fcode":"OILF"},{"adminCode1":"AR","lng":"-92.97766","geonameId":4135891,"toponymName":"West Mount Holly Oil and Gas Field","countryId":"6252001","fcl":"L","population":0,"countryCode":"US","name":"West Mount Holly Oil and Gas Field","fclName":"parks,area, ...","adminCodes1":{"ISO3166_2":"AR"},"countryName":"United States","fcodeName":"oilfield","adminName1":"Arkansas","lat":"33.29818","fcode":"OILF"},{"adminCode1":"VT","lng":"-72.80482","geonameId":5237164,"toponymName":"Hortonville","countryId":"6252001","fcl":"P","population":0,"countryCode":"US","name":"Hortonville","fclName":"city, village,...","adminCodes1":{"ISO3166_2":"VT"},"countryName":"United States","fcodeName":"populated place","adminName1":"Vermont","lat":"43.46979","fcode":"PPL"},{"adminCode1":"VT","lng":"-72.75149","geonameId":5238160,"toponymName":"Ludlow Mountain","countryId":"6252001","fcl":"T","population":0,"countryCode":"US","name":"Ludlow Mountain","fclName":"mountain,hill,rock,... ","adminCodes1":{"ISO3166_2":"VT"},"countryName":"United States","fcodeName":"mountain","adminName1":"Vermont","lat":"43.40396","fcode":"MT"},{"adminCode1":"SC","lng":"-80.03453","geonameId":4587948,"toponymName":"Mount Holly","countryId":"6252001","fcl":"P","population":0,"countryCode":"US","name":"Mount Holly","fclName":"city, village,...","adminCodes1":{"ISO3166_2":"SC"},"countryName":"United States","fcodeName":"populated place","adminName1":"South Carolina","lat":"33.03434","fcode":"PPL"},{"adminCode1":"NY","lng":"-75.07767","geonameId":5121041,"toponymName":"Mount Holly","countryId":"6252001","fcl":"T","population":0,"countryCode":"US","name":"Mount Holly","fclName":"mountain,hill,rock,... ","adminCodes1":{"ISO3166_2":"NY"},"countryName":"United States","fcodeName":"mountain","adminName1":"New York","lat":"42.14759","fcode":"MT"},{"adminCode1":"OH","lng":"-84.18132","geonameId":4518906,"toponymName":"Mount Holly","countryId":"6252001","fcl":"P","population":0,"countryCode":"US","name":"Mount Holly","fclName":"city, village,...","adminCodes1":{"ISO3166_2":"OH"},"countryName":"United States","fcodeName":"populated place","adminName1":"Ohio","lat":"39.01284","fcode":"PPL"},{"adminCode1":"PA","lng":"-77.18804","geonameId":5202162,"toponymName":"Mount Holly Park","countryId":"6252001","fcl":"L","population":0,"countryCode":"US","name":"Mount Holly Park","fclName":"parks,area, ...","adminCodes1":{"ISO3166_2":"PA"},"countryName":"United States","fcodeName":"park","adminName1":"Pennsylvania","lat":"40.12592","fcode":"PRK"},{"adminCode1":"AR","lng":"-92.27848","geonameId":4122454,"toponymName":"Mount Holly Cemetery","countryId":"6252001","fcl":"S","population":0,"countryCode":"US","name":"Mount Holly Cemetery","fclName":"spot, building, farm","adminCodes1":{"ISO3166_2":"AR"},"countryName":"United States","fcodeName":"cemetery","adminName1":"Arkansas","lat":"34.73759","fcode":"CMTY"},{"adminCode1":"NJ","lng":"-74.786","geonameId":5101492,"toponymName":"Mount Holly Cemetery","countryId":"6252001","fcl":"S","population":0,"countryCode":"US","name":"Mount Holly Cemetery","fclName":"spot, building, farm","adminCodes1":{"ISO3166_2":"NJ"},"countryName":"United States","fcodeName":"cemetery","adminName1":"New Jersey","lat":"40.0015","fcode":"CMTY"},{"adminCode1":"UT","lng":"-112.35771","geonameId":5540544,"toponymName":"Mount Hawley","countryId":"6252001","fcl":"T","population":0,"countryCode":"US","name":"Mount Hawley","fclName":"mountain,hill,rock,... ","adminCodes1":{"ISO3166_2":"UT"},"countryName":"United States","fcodeName":"mountain","adminName1":"Utah","lat":"38.35275","fcode":"MT"},{"adminCode1":"VT","lng":"-72.84121","geonameId":5241828,"toponymName":"Tarbellville","countryId":"6252001","fcl":"P","population":0,"countryCode":"US","name":"Tarbellville","fclName":"city, village,...","adminCodes1":{"ISO3166_2":"VT"},"countryName":"United States","fcodeName":"populated place","adminName1":"Vermont","lat":"43.40868","fcode":"PPL"},{"adminCode1":"VT","lng":"-72.73343","geonameId":5241980,"toponymName":"Tiny Mountain","countryId":"6252001","fcl":"T","population":0,"countryCode":"US","name":"Tiny Mountain","fclName":"mountain,hill,rock,... ","adminCodes1":{"ISO3166_2":"VT"},"countryName":"United States","fcodeName":"mountain","adminName1":"Vermont","lat":"43.46952","fcode":"MT"},{"adminCode1":"PA","lng":"-77.17915","geonameId":5216854,"toponymName":"Upper Mill","countryId":"6252001","fcl":"P","population":0,"countryCode":"US","name":"Upper Mill","fclName":"city, village,...","adminCodes1":{"ISO3166_2":"PA"},"countryName":"United States","fcodeName":"populated place","adminName1":"Pennsylvania","lat":"40.10315","fcode":"PPL"},{"adminCode1":"NC","lng":"-81.01311","geonameId":7169928,"toponymName":"City of Mount Holly","countryId":"6252001","fcl":"A","population":13656,"countryCode":"US","name":"City of Mount Holly","fclName":"country, state, region,...","adminCodes1":{"ISO3166_2":"NC"},"countryName":"United States","fcodeName":"administrative division","adminName1":"North Carolina","lat":"35.30751","fcode":"ADMD"},{"adminCode1":"SC","lng":"-80.03901","geonameId":7267064,"toponymName":"Mount Holly Commerce Park","countryId":"6252001","fcl":"L","population":0,"countryCode":"US","name":"Mount Holly Commerce Park","fclName":"parks,area, ...","adminCodes1":{"ISO3166_2":"SC"},"countryName":"United States","fcodeName":"industrial area","adminName1":"South Carolina","lat":"33.07785","fcode":"INDS"},{"adminCode1":"NY","lng":"-73.6393","geonameId":5127721,"toponymName":"Mount Holly Sanctuary","countryId":"6252001","fcl":"L","population":0,"countryCode":"US","name":"Mount Holly Sanctuary","fclName":"parks,area, ...","adminCodes1":{"ISO3166_2":"NY"},"countryName":"United States","fcodeName":"park","adminName1":"New York","lat":"41.28009","fcode":"PRK"},{"adminCode1":"VT","lng":"-72.76732","geonameId":5238823,"toponymName":"Mount Holly Heights","countryId":"6252001","fcl":"P","population":0,"countryCode":"US","name":"Mount Holly Heights","fclName":"city, village,...","adminCodes1":{"ISO3166_2":"VT"},"countryName":"United States","fcodeName":"populated place","adminName1":"Vermont","lat":"43.43785","fcode":"PPL"},{"adminCode1":"VT","lng":"-72.83899","geonameId":5237113,"toponymName":"Mount Holly","countryId":"6252001","fcl":"T","population":0,"countryCode":"US","name":"Mount Holly","fclName":"mountain,hill,rock,... ","adminCodes1":{"ISO3166_2":"VT"},"countryName":"United States","fcodeName":"mountain","adminName1":"Vermont","lat":"43.43007","fcode":"MT"},{"adminCode1":"NJ","lng":"-74.7885","geonameId":5099186,"toponymName":"Mount Holly","countryId":"6252001","fcl":"T","population":0,"countryCode":"US","name":"Mount Holly","fclName":"mountain,hill,rock,... ","adminCodes1":{"ISO3166_2":"NJ"},"countryName":"United States","fcodeName":"mountain","adminName1":"New Jersey","lat":"40.00233","fcode":"MT"},{"adminCode1":"NJ","lng":"-74.78241","geonameId":7156920,"toponymName":"John Brainerd Elementary School","countryId":"6252001","fcl":"S","population":0,"countryCode":"US","name":"John Brainerd Elementary School","fclName":"spot, building, farm","adminCodes1":{"ISO3166_2":"NJ"},"countryName":"United States","fcodeName":"school","adminName1":"New Jersey","lat":"39.98921","fcode":"SCH"},{"adminCode1":"NJ","lng":"-74.79544","geonameId":7156938,"toponymName":"F W Holbein Middle School","countryId":"6252001","fcl":"S","population":0,"countryCode":"US","name":"F W Holbein Middle School","fclName":"spot, building, farm","adminCodes1":{"ISO3166_2":"NJ"},"countryName":"United States","fcodeName":"school","adminName1":"New Jersey","lat":"40.00094","fcode":"SCH"},{"adminCode1":"NJ","lng":"-74.79961","geonameId":4501279,"toponymName":"Clermont","countryId":"6252001","fcl":"P","population":0,"countryCode":"US","name":"Clermont","fclName":"city, village,...","adminCodes1":{"ISO3166_2":"NJ"},"countryName":"United States","fcodeName":"populated place","adminName1":"New Jersey","lat":"39.99067","fcode":"PPL"},{"adminCode1":"NJ","lng":"-74.78198","geonameId":5103101,"toponymName":"Rancocas Valley Regional High School","countryId":"6252001","fcl":"S","population":0,"countryCode":"US","name":"Rancocas Valley Regional High School","fclName":"spot, building, farm","adminCodes1":{"ISO3166_2":"NJ"},"countryName":"United States","fcodeName":"school","adminName1":"New Jersey","lat":"40.00271","fcode":"SCH"},{"adminCode1":"VA","lng":"-77.76444","geonameId":4774308,"toponymName":"Mount Holly","countryId":"6252001","fcl":"P","population":0,"countryCode":"US","name":"Mount Holly","fclName":"city, village,...","adminCodes1":{"ISO3166_2":"VA"},"countryName":"United States","fcodeName":"populated place","adminName1":"Virginia","lat":"38.4779","fcode":"PPL"},{"adminCode1":"MD","lng":"-76.00299","geonameId":4362986,"toponymName":"Mount Holly","countryId":"6252001","fcl":"P","population":0,"countryCode":"US","name":"Mount Holly","fclName":"city, village,...","adminCodes1":{"ISO3166_2":"MD"},"countryName":"United States","fcodeName":"populated place","adminName1":"Maryland","lat":"38.55262","fcode":"PPL"},{"adminCode1":"MI","lng":"-83.56717","geonameId":4996282,"toponymName":"Mount Holly","countryId":"6252001","fcl":"T","population":0,"countryCode":"US","name":"Mount Holly","fclName":"mountain,hill,rock,... ","adminCodes1":{"ISO3166_2":"MI"},"countryName":"United States","fcodeName":"mountain","adminName1":"Michigan","lat":"42.82808","fcode":"MT"},{"adminCode1":"IL","lng":"-90.65652","geonameId":4902920,"toponymName":"Mount Holly School (historical)","countryId":"6252001","fcl":"S","population":0,"countryCode":"US","name":"Mount Holly School (historical)","fclName":"spot, building, farm","adminCodes1":{"ISO3166_2":"IL"},"countryName":"United States","fcodeName":"school","adminName1":"Illinois","lat":"40.61615","fcode":"SCH"},{"adminCode1":"SC","lng":"-80.08688","geonameId":9670581,"toponymName":"Mount Holly Airport","countryId":"6252001","fcl":"S","population":0,"countryCode":"US","name":"Mount Holly Airport","fclName":"spot, building, farm","adminCodes1":{"ISO3166_2":"SC"},"countryName":"United States","fcodeName":"airport","adminName1":"South Carolina","lat":"33.056","fcode":"AIRP"},{"adminCode1":"PA","lng":"-77.20304","geonameId":5193954,"toponymName":"Mount Holly","countryId":"6252001","fcl":"T","population":0,"countryCode":"US","name":"Mount Holly","fclName":"mountain,hill,rock,... ","adminCodes1":{"ISO3166_2":"PA"},"countryName":"United States","fcodeName":"mountain","adminName1":"Pennsylvania","lat":"40.09787","fcode":"MT"},{"adminCode1":"VT","lng":"-72.82677","geonameId":5235096,"toponymName":"Community Historical Museum of Mount Holly","countryId":"6252001","fcl":"S","population":0,"countryCode":"US","name":"Community Historical Museum of Mount Holly","fclName":"spot, building, farm","adminCodes1":{"ISO3166_2":"VT"},"countryName":"United States","fcodeName":"museum","adminName1":"Vermont","lat":"43.41424","fcode":"MUS"},{"adminCode1":"VT","lng":"-72.77177","geonameId":5240020,"toponymName":"Proctor Hill","countryId":"6252001","fcl":"T","population":0,"countryCode":"US","name":"Proctor Hill","fclName":"mountain,hill,rock,... ","adminCodes1":{"ISO3166_2":"VT"},"countryName":"United States","fcodeName":"mountain","adminName1":"Vermont","lat":"43.47646","fcode":"MT"},{"adminCode1":"VT","lng":"-72.86427","geonameId":5240415,"toponymName":"Roger Hill","countryId":"6252001","fcl":"T","population":0,"countryCode":"US","name":"Roger Hill","fclName":"mountain,hill,rock,... ","adminCodes1":{"ISO3166_2":"VT"},"countryName":"United States","fcodeName":"mountain","adminName1":"Vermont","lat":"43.46535","fcode":"MT"},{"adminCode1":"VT","lng":"-72.84149","geonameId":5240505,"toponymName":"Russellville","countryId":"6252001","fcl":"P","population":0,"countryCode":"US","name":"Russellville","fclName":"city, village,...","adminCodes1":{"ISO3166_2":"VT"},"countryName":"United States","fcodeName":"populated place","adminName1":"Vermont","lat":"43.38202","fcode":"PPL"},{"adminCode1":"VT","lng":"-72.74121","geonameId":5240835,"toponymName":"Sawyer Rocks","countryId":"6252001","fcl":"T","population":0,"countryCode":"US","name":"Sawyer Rocks","fclName":"mountain,hill,rock,... ","adminCodes1":{"ISO3166_2":"VT"},"countryName":"United States","fcodeName":"mountain","adminName1":"Vermont","lat":"43.44729","fcode":"MT"},{"adminCode1":"VT","lng":"-72.76426","geonameId":5241304,"toponymName":"South Mountain","countryId":"6252001","fcl":"T","population":0,"countryCode":"US","name":"South Mountain","fclName":"mountain,hill,rock,... ","adminCodes1":{"ISO3166_2":"VT"},"countryName":"United States","fcodeName":"mountain","adminName1":"Vermont","lat":"43.37702","fcode":"MT"},{"adminCode1":"VT","lng":"-72.85205","geonameId":5234040,"toponymName":"Bowlsville","countryId":"6252001","fcl":"P","population":0,"countryCode":"US","name":"Bowlsville","fclName":"city, village,...","adminCodes1":{"ISO3166_2":"VT"},"countryName":"United States","fcodeName":"populated place","adminName1":"Vermont","lat":"43.44785","fcode":"PPL"},{"adminCode1":"VT","lng":"-72.83038","geonameId":5236782,"toponymName":"Hammond Hill","countryId":"6252001","fcl":"T","population":0,"countryCode":"US","name":"Hammond Hill","fclName":"mountain,hill,rock,... ","adminCodes1":{"ISO3166_2":"VT"},"countryName":"United States","fcodeName":"mountain","adminName1":"Vermont","lat":"43.47035","fcode":"MT"},{"adminCode1":"VT","lng":"-72.76565","geonameId":5236939,"toponymName":"Healdville","countryId":"6252001","fcl":"P","population":0,"countryCode":"US","name":"Healdville","fclName":"city, village,...","adminCodes1":{"ISO3166_2":"VT"},"countryName":"United States","fcodeName":"populated place","adminName1":"Vermont","lat":"43.43146","fcode":"PPL"},{"adminCode1":"VT","lng":"-72.80177","geonameId":5236962,"toponymName":"Hedgehog Hill","countryId":"6252001","fcl":"T","population":0,"countryCode":"US","name":"Hedgehog Hill","fclName":"mountain,hill,rock,... ","adminCodes1":{"ISO3166_2":"VT"},"countryName":"United States","fcodeName":"mountain","adminName1":"Vermont","lat":"43.40896","fcode":"MT"},{"adminCode1":"MD","lng":"-76.67864","geonameId":11980031,"toponymName":"Mount Holly","countryId":"6252001","fcl":"P","population":0,"countryCode":"US","name":"Mount Holly","fclName":"city, village,...","adminCodes1":{"ISO3166_2":"MD"},"countryName":"United States","fcodeName":"section of populated place","adminName1":"Maryland","lat":"39.31214","fcode":"PPLX"},{"adminCode1":"VA","lng":"-77.76221","geonameId":4774311,"toponymName":"Mount Holly Church","countryId":"6252001","fcl":"S","population":0,"countryCode":"US","name":"Mount Holly Church","fclName":"spot, building, farm","adminCodes1":{"ISO3166_2":"VA"},"countryName":"United States","fcodeName":"church","adminName1":"Virginia","lat":"38.48068","fcode":"CH"},{"adminCode1":"NC","lng":"-80.64645","geonameId":4471657,"toponymName":"Holly View Forest-Highland Park","countryId":"6252001","fcl":"P","population":0,"countryCode":"US","name":"Holly View Forest-Highland Park","fclName":"city, village,...","adminCodes1":{"ISO3166_2":"NC"},"countryName":"United States","fcodeName":"populated place","adminName1":"North Carolina","lat":"36.46458","fcode":"PPL"},{"adminCode1":"AR","lng":"-92.95711","geonameId":4122460,"toponymName":"Mount Holly Post Office","countryId":"6252001","fcl":"S","population":0,"countryCode":"US","name":"Mount Holly Post Office","fclName":"spot, building, farm","adminCodes1":{"ISO3166_2":"AR"},"countryName":"United States","fcodeName":"post office","adminName1":"Arkansas","lat":"33.30318","fcode":"PO"},{"adminCode1":"UT","lng":"-112.3841","geonameId":5543512,"toponymName":"Mount Holly Ski Area","countryId":"6252001","fcl":"S","population":0,"countryCode":"US","name":"Mount Holly Ski Area","fclName":"spot, building, farm","adminCodes1":{"ISO3166_2":"UT"},"countryName":"United States","fcodeName":"","adminName1":"Utah","lat":"38.32053"},{"adminCode1":"NJ","lng":"-74.78491","geonameId":7168633,"toponymName":"Mount Holly Fire District Relief Fire Engine Company Station 501","countryId":"6252001","fcl":"S","population":0,"countryCode":"US","name":"Mount Holly Fire District Relief Fire Engine Company Station 501","fclName":"spot, building, farm","adminCodes1":{"ISO3166_2":"NJ"},"countryName":"United States","fcodeName":"building(s)","adminName1":"New Jersey","lat":"39.99249","fcode":"BLDG"},{"adminCode1":"NJ","lng":"-74.78532","geonameId":7168797,"toponymName":"Mount Holly Fire District Relief Fire Engine Company Station 503","countryId":"6252001","fcl":"S","population":0,"countryCode":"US","name":"Mount Holly Fire District Relief Fire Engine Company Station 503","fclName":"spot, building, farm","adminCodes1":{"ISO3166_2":"NJ"},"countryName":"United States","fcodeName":"building(s)","adminName1":"New Jersey","lat":"39.99631","fcode":"BLDG"},{"adminCode1":"VA","lng":"-76.72746","geonameId":4755614,"toponymName":"Deep Point-Mount Holly Ferry (historical)","countryId":"6252001","fcl":"R","population":0,"countryCode":"US","name":"Deep Point-Mount Holly Ferry (historical)","fclName":"road, railroad ","adminCodes1":{"ISO3166_2":"VA"},"countryName":"United States","fcodeName":"road junction","adminName1":"Virginia","lat":"38.1043","fcode":"RDJCT"},{"adminCode1":"SC","lng":"-81.01508","geonameId":4587950,"toponymName":"Mount Holly United Methodist Church","countryId":"6252001","fcl":"S","population":0,"countryCode":"US","name":"Mount Holly United Methodist Church","fclName":"spot, building, farm","adminCodes1":{"ISO3166_2":"SC"},"countryName":"United States","fcodeName":"church","adminName1":"South Carolina","lat":"34.86403","fcode":"CH"},{"adminCode1":"VT","lng":"-72.82149","geonameId":5233724,"toponymName":"Belmont Post Office","countryId":"6252001","fcl":"S","population":0,"countryCode":"US","name":"Belmont Post Office","fclName":"spot, building, farm","adminCodes1":{"ISO3166_2":"VT"},"countryName":"United States","fcodeName":"post office","adminName1":"Vermont","lat":"43.41424","fcode":"PO"},{"adminCode1":"NC","lng":"-80.55728","geonameId":4471651,"toponymName":"Holly Springs Baptist Church","countryId":"6252001","fcl":"S","population":0,"countryCode":"US","name":"Holly Springs Baptist Church","fclName":"spot, building, farm","adminCodes1":{"ISO3166_2":"NC"},"countryName":"United States","fcodeName":"church","adminName1":"North Carolina","lat":"36.46291","fcode":"CH"},{"adminCode1":"AL","lng":"-86.24693","geonameId":4078217,"toponymName":"Mount Pleasant Church (historical)","countryId":"6252001","fcl":"S","population":0,"countryCode":"US","name":"Mount Pleasant Church (historical)","fclName":"spot, building, farm","adminCodes1":{"ISO3166_2":"AL"},"countryName":"United States","fcodeName":"church","adminName1":"Alabama","lat":"34.69481","fcode":"CH"},{"adminCode1":"NJ","lng":"-74.791","geonameId":4503842,"toponymName":"Sacred Heart Elementary School","countryId":"6252001","fcl":"S","population":0,"countryCode":"US","name":"Sacred Heart Elementary School","fclName":"spot, building, farm","adminCodes1":{"ISO3166_2":"NJ"},"countryName":"United States","fcodeName":"school","adminName1":"New Jersey","lat":"39.99897","fcode":"SCH"},{"adminCode1":"NJ","lng":"-74.79031","geonameId":9673095,"toponymName":"Burlington County Sheriff's Office","countryId":"6252001","fcl":"S","population":0,"countryCode":"US","name":"Burlington County Sheriff's Office","fclName":"spot, building, farm","adminCodes1":{"ISO3166_2":"NJ"},"countryName":"United States","fcodeName":"building(s)","adminName1":"New Jersey","lat":"39.99539","fcode":"BLDG"},{"adminCode1":"SC","lng":"-80.02981","geonameId":4581992,"toponymName":"Holly Court","countryId":"6252001","fcl":"P","population":0,"countryCode":"US","name":"Holly Court","fclName":"city, village,...","adminCodes1":{"ISO3166_2":"SC"},"countryName":"United States","fcodeName":"section of populated place","adminName1":"South Carolina","lat":"33.03739","fcode":"PPLX"},{"adminCode1":"PA","lng":"-77.19054","geonameId":5202163,"toponymName":"Mount Holly Spring Elementary School","countryId":"6252001","fcl":"S","population":0,"countryCode":"US","name":"Mount Holly Spring Elementary School","fclName":"spot, building, farm","adminCodes1":{"ISO3166_2":"PA"},"countryName":"United States","fcodeName":"school","adminName1":"Pennsylvania","lat":"40.11676","fcode":"SCH"},{"adminCode1":"PA","lng":"-77.18273","geonameId":5216863,"toponymName":"Upper Mount Holly Dam","countryId":"6252001","fcl":"S","population":0,"countryCode":"US","name":"Upper Mount Holly Dam","fclName":"spot, building, farm","adminCodes1":{"ISO3166_2":"PA"},"countryName":"United States","fcodeName":"dam","adminName1":"Pennsylvania","lat":"40.10098","fcode":"DAM"},{"adminCode1":"PA","lng":"-77.19187","geonameId":9687540,"toponymName":"Mount Holly Springs Police Department","countryId":"6252001","fcl":"S","population":0,"countryCode":"US","name":"Mount Holly Springs Police Department","fclName":"spot, building, farm","adminCodes1":{"ISO3166_2":"PA"},"countryName":"United States","fcodeName":"building(s)","adminName1":"Pennsylvania","lat":"40.11596","fcode":"BLDG"},{"adminCode1":"PA","lng":"-77.19028","geonameId":11388232,"toponymName":"Mount Holly Springs Post Office","countryId":"6252001","fcl":"S","population":0,"countryCode":"US","name":"Mount Holly Springs Post Office","fclName":"spot, building, farm","adminCodes1":{"ISO3166_2":"PA"},"countryName":"United States","fcodeName":"post office","adminName1":"Pennsylvania","lat":"40.1143","fcode":"PO"},{"adminCode1":"VT","lng":"-72.82013","geonameId":7131542,"toponymName":"Mount Holly Volunteer Fire Department Station 2","countryId":"6252001","fcl":"S","population":0,"countryCode":"US","name":"Mount Holly Volunteer Fire Department Station 2","fclName":"spot, building, farm","adminCodes1":{"ISO3166_2":"VT"},"countryName":"United States","fcodeName":"building(s)","adminName1":"Vermont","lat":"43.41457","fcode":"BLDG"},{"adminCode1":"VT","lng":"-72.82524","geonameId":7131549,"toponymName":"Mount Holly Volunteer Fire Department Station 1","countryId":"6252001","fcl":"S","population":0,"countryCode":"US","name":"Mount Holly Volunteer Fire Department Station 1","fclName":"spot, building, farm","adminCodes1":{"ISO3166_2":"VT"},"countryName":"United States","fcodeName":"building(s)","adminName1":"Vermont","lat":"43.44609","fcode":"BLDG"},{"adminCode1":"VT","lng":"-72.82504","geonameId":7311901,"toponymName":"Mount Holly Volunteer Rescue Squad","countryId":"6252001","fcl":"S","population":0,"countryCode":"US","name":"Mount Holly Volunteer Rescue Squad","fclName":"spot, building, farm","adminCodes1":{"ISO3166_2":"VT"},"countryName":"United States","fcodeName":"building(s)","adminName1":"Vermont","lat":"43.44607","fcode":"BLDG"},{"adminCode1":"VT","lng":"-72.81624","geonameId":5238821,"toponymName":"Mount Holly Cemetery","countryId":"6252001","fcl":"S","population":0,"countryCode":"US","name":"Mount Holly Cemetery","fclName":"spot, building, farm","adminCodes1":{"ISO3166_2":"VT"},"countryName":"United States","fcodeName":"cemetery","adminName1":"Vermont","lat":"43.4541","fcode":"CMTY"},{"adminCode1":"VT","lng":"-72.82316","geonameId":5238822,"toponymName":"Mount Holly Elementary School","countryId":"6252001","fcl":"S","population":0,"countryCode":"US","name":"Mount Holly Elementary School","fclName":"spot, building, farm","adminCodes1":{"ISO3166_2":"VT"},"countryName":"United States","fcodeName":"school","adminName1":"Vermont","lat":"43.44586","fcode":"SCH"},{"adminCode1":"VT","lng":"-72.82371","geonameId":5238824,"toponymName":"Mount Holly Post Office","countryId":"6252001","fcl":"S","population":0,"countryCode":"US","name":"Mount Holly Post Office","fclName":"spot, building, farm","adminCodes1":{"ISO3166_2":"VT"},"countryName":"United States","fcodeName":"post office","adminName1":"Vermont","lat":"43.45118","fcode":"PO"},{"adminCode1":"VT","lng":"-72.82371","geonameId":5238825,"toponymName":"Mount Holly Town Hall","countryId":"6252001","fcl":"S","population":0,"countryCode":"US","name":"Mount Holly Town Hall","fclName":"spot, building, farm","adminCodes1":{"ISO3166_2":"VT"},"countryName":"United States","fcodeName":"building(s)","adminName1":"Vermont","lat":"43.45118","fcode":"BLDG"},{"adminCode1":"AR","lng":"-92.95874","geonameId":7128450,"toponymName":"Mount Holly Volunteer Fire Department","countryId":"6252001","fcl":"S","population":0,"countryCode":"US","name":"Mount Holly Volunteer Fire Department","fclName":"spot, building, farm","adminCodes1":{"ISO3166_2":"AR"},"countryName":"United States","fcodeName":"building(s)","adminName1":"Arkansas","lat":"33.30505","fcode":"BLDG"},{"adminCode1":"OH","lng":"-82.96639","geonameId":7132659,"toponymName":"Mount Carmel Holly Church","countryId":"6252001","fcl":"S","population":0,"countryCode":"US","name":"Mount Carmel Holly Church","fclName":"spot, building, farm","adminCodes1":{"ISO3166_2":"OH"},"countryName":"United States","fcodeName":"church","adminName1":"Ohio","lat":"39.98361","fcode":"CH"},{"adminCode1":"MS","lng":"-91.03455","geonameId":4436997,"toponymName":"Mount Holly Church (historical)","countryId":"6252001","fcl":"S","population":0,"countryCode":"US","name":"Mount Holly Church (historical)","fclName":"spot, building, farm","adminCodes1":{"ISO3166_2":"MS"},"countryName":"United States","fcodeName":"church","adminName1":"Mississippi","lat":"33.08734","fcode":"CH"},{"adminCode1":"TN","lng":"-85.82915","geonameId":4643305,"toponymName":"Mount Holly Cemetery","countryId":"6252001","fcl":"S","population":0,"countryCode":"US","name":"Mount Holly Cemetery","fclName":"spot, building, farm","adminCodes1":{"ISO3166_2":"TN"},"countryName":"United States","fcodeName":"cemetery","adminName1":"Tennessee","lat":"35.97367","fcode":"CMTY"},{"adminCode1":"VA","lng":"-75.74187","geonameId":4774310,"toponymName":"Mount Holly Cemetery","countryId":"6252001","fcl":"S","population":0,"countryCode":"US","name":"Mount Holly Cemetery","fclName":"spot, building, farm","adminCodes1":{"ISO3166_2":"VA"},"countryName":"United States","fcodeName":"cemetery","adminName1":"Virginia","lat":"37.70485","fcode":"CMTY"},{"adminCode1":"OH","lng":"-84.0341","geonameId":4518908,"toponymName":"Mount Holly Cemetery","countryId":"6252001","fcl":"S","population":0,"countryCode":"US","name":"Mount Holly Cemetery","fclName":"spot, building, farm","adminCodes1":{"ISO3166_2":"OH"},"countryName":"United States","fcodeName":"cemetery","adminName1":"Ohio","lat":"39.56312","fcode":"CMTY"},{"adminCode1":"OH","lng":"-84.1966","geonameId":4518909,"toponymName":"Mount Holly Christian Chapel Cemetery","countryId":"6252001","fcl":"S","population":0,"countryCode":"US","name":"Mount Holly Christian Chapel Cemetery","fclName":"spot, building, farm","adminCodes1":{"ISO3166_2":"OH"},"countryName":"United States","fcodeName":"cemetery","adminName1":"Ohio","lat":"39.01867","fcode":"CMTY"},{"adminCode1":"OH","lng":"-84.18188","geonameId":4518910,"toponymName":"Mount Holly Post Office (historical)","countryId":"6252001","fcl":"S","population":0,"countryCode":"US","name":"Mount Holly Post Office (historical)","fclName":"spot, building, farm","adminCodes1":{"ISO3166_2":"OH"},"countryName":"United States","fcodeName":"post office","adminName1":"Ohio","lat":"39.01256","fcode":"PO"},{"adminCode1":"AR","lng":"-92.9485","geonameId":4122455,"toponymName":"Mount Holly Cemetery","countryId":"6252001","fcl":"S","population":0,"countryCode":"US","name":"Mount Holly Cemetery","fclName":"spot, building, farm","adminCodes1":{"ISO3166_2":"AR"},"countryName":"United States","fcodeName":"cemetery","adminName1":"Arkansas","lat":"33.3004","fcode":"CMTY"},{"adminCode1":"AR","lng":"-93.69295","geonameId":4122456,"toponymName":"Mount Holly Church","countryId":"6252001","fcl":"S","population":0,"countryCode":"US","name":"Mount Holly Church","fclName":"spot, building, farm","adminCodes1":{"ISO3166_2":"AR"},"countryName":"United States","fcodeName":"church","adminName1":"Arkansas","lat":"33.09541","fcode":"CH"},{"adminCode1":"AR","lng":"-92.94981","geonameId":4122457,"toponymName":"Mount Holly Elementary School","countryId":"6252001","fcl":"S","population":0,"countryCode":"US","name":"Mount Holly Elementary School","fclName":"spot, building, farm","adminCodes1":{"ISO3166_2":"AR"},"countryName":"United States","fcodeName":"school","adminName1":"Arkansas","lat":"33.30146","fcode":"SCH"},{"adminCode1":"AR","lng":"-92.95134","geonameId":4122458,"toponymName":"Mount Holly High School","countryId":"6252001","fcl":"S","population":0,"countryCode":"US","name":"Mount Holly High School","fclName":"spot, building, farm","adminCodes1":{"ISO3166_2":"AR"},"countryName":"United States","fcodeName":"school","adminName1":"Arkansas","lat":"33.30162","fcode":"SCH"},{"adminCode1":"KY","lng":"-85.75357","geonameId":4301544,"toponymName":"Mount Holly Cemetery","countryId":"6252001","fcl":"S","population":0,"countryCode":"US","name":"Mount Holly Cemetery","fclName":"spot, building, farm","adminCodes1":{"ISO3166_2":"KY"},"countryName":"United States","fcodeName":"cemetery","adminName1":"Kentucky","lat":"38.10062","fcode":"CMTY"},{"adminCode1":"KY","lng":"-85.75135","geonameId":4301545,"toponymName":"Mount Holly Church","countryId":"6252001","fcl":"S","population":0,"countryCode":"US","name":"Mount Holly Church","fclName":"spot, building, farm","adminCodes1":{"ISO3166_2":"KY"},"countryName":"United States","fcodeName":"church","adminName1":"Kentucky","lat":"38.1034","fcode":"CH"},{"adminCode1":"ME","lng":"-69.23922","geonameId":4972756,"toponymName":"Mount Holly Cemetery","countryId":"6252001","fcl":"S","population":0,"countryCode":"US","name":"Mount Holly Cemetery","fclName":"spot, building, farm","adminCodes1":{"ISO3166_2":"ME"},"countryName":"United States","fcodeName":"cemetery","adminName1":"Maine","lat":"44.66561","fcode":"CMTY"},{"adminCode1":"UT","lng":"-112.3833","geonameId":11385852,"toponymName":"Mount Holly Fire Statioin","countryId":"6252001","fcl":"S","population":0,"countryCode":"US","name":"Mount Holly Fire Statioin","fclName":"spot, building, farm","adminCodes1":{"ISO3166_2":"UT"},"countryName":"United States","fcodeName":"building(s)","adminName1":"Utah","lat":"38.32221","fcode":"BLDG"},{"adminCode1":"NJ","lng":"-74.78492","geonameId":7168673,"toponymName":"Mount Holly Fire Department Headquaraters","countryId":"6252001","fcl":"S","population":0,"countryCode":"US","name":"Mount Holly Fire Department Headquaraters","fclName":"spot, building, farm","adminCodes1":{"ISO3166_2":"NJ"},"countryName":"United States","fcodeName":"building(s)","adminName1":"New Jersey","lat":"39.99251","fcode":"BLDG"},{"adminCode1":"NJ","lng":"-74.78932","geonameId":9673149,"toponymName":"Mount Holly Township Police Department","countryId":"6252001","fcl":"S","population":0,"countryCode":"US","name":"Mount Holly Township Police Department","fclName":"spot, building, farm","adminCodes1":{"ISO3166_2":"NJ"},"countryName":"United States","fcodeName":"building(s)","adminName1":"New Jersey","lat":"39.99308","fcode":"BLDG"},{"adminCode1":"NJ","lng":"-74.78938","geonameId":11395167,"toponymName":"Mount Holly Post Office","countryId":"6252001","fcl":"S","population":0,"countryCode":"US","name":"Mount Holly Post Office","fclName":"spot, building, farm","adminCodes1":{"ISO3166_2":"NJ"},"countryName":"United States","fcodeName":"post office","adminName1":"New Jersey","lat":"39.99252","fcode":"PO"},{"adminCode1":"AR","lng":"-92.70544","geonameId":4122623,"toponymName":"Mount Olivet Church","countryId":"6252001","fcl":"S","population":0,"countryCode":"US","name":"Mount Olivet Church","fclName":"spot, building, farm","adminCodes1":{"ISO3166_2":"AR"},"countryName":"United States","fcodeName":"church","adminName1":"Arkansas","lat":"33.88455","fcode":"CH"},{"adminCode1":"VA","lng":"-76.7193","geonameId":7238483,"toponymName":"Mount Holly Post Office","countryId":"6252001","fcl":"S","population":0,"countryCode":"US","name":"Mount Holly Post Office","fclName":"spot, building, farm","adminCodes1":{"ISO3166_2":"VA"},"countryName":"United States","fcodeName":"post office","adminName1":"Virginia","lat":"38.0922","fcode":"PO"},{"adminCode1":"LA","lng":"-91.04788","geonameId":4334142,"toponymName":"Mount Holly Cemetery","countryId":"6252001","fcl":"S","population":0,"countryCode":"US","name":"Mount Holly Cemetery","fclName":"spot, building, farm","adminCodes1":{"ISO3166_2":"LA"},"countryName":"United States","fcodeName":"cemetery","adminName1":"Louisiana","lat":"30.66185","fcode":"CMTY"}]}
