{"totalResultsCount":700,"geonames":[{"adminCode1":"TX","lng":"-96.46887","geonameId":4683462,"toponymName":"Corsicana","countryId":"6252001","fcl":"P","population":23952,"countryCode":"US","name":"Corsicana","fclName":"city, village,...","adminCodes1":{"ISO3166_2":"TX"},"countryName":"United States","fcodeName":"seat of a second-order administrative division","adminName1":"Texas","lat":"32.09543","fcode":"PPLA2"},{"adminCode1":"TX","lng":"-96.47249","geonameId":4713849,"toponymName":"Navarro County","countryId":"6252001","fcl":"A","population":47735,"countryCode":"US","name":"Navarro","fclName":"country, state, region,...","adminCodes1":{"ISO3166_2":"TX"},"countryName":"United States","fcodeName":"second-order administrative division","adminName1":"Texas","lat":"32.04693","fcode":"ADM2"},{"adminCode1":"TX","lng":"-96.39804","geonameId":4677889,"toponymName":"C David Campbell Field-Corsicana Municipal Airport","countryId":"6252001","fcl":"S","population":0,"countryCode":"US","name":"C David Campbell Field-Corsicana Municipal Airport","fclName":"spot, building, farm","adminCodes1":{"ISO3166_2":"TX"},"countryName":"United States","fcodeName":"airport","adminName1":"Texas","lat":"32.02738","fcode":"AIRP"},{"adminCode1":"TX","lng":"-96.38526","geonameId":4720354,"toponymName":"Powell Oil Field","countryId":"6252001","fcl":"L","population":0,"countryCode":"US","name":"Powell Oil Field","fclName":"parks,area, ...","adminCodes1":{"ISO3166_2":"TX"},"countryName":"United States","fcodeName":"oilfield","adminName1":"Texas","lat":"32.01793","fcode":"OILF"},{"adminCode1":"TX","lng":"-96.22775","geonameId":4703063,"toponymName":"Kerens","countryId":"6252001","fcl":"P","population":1572,"countryCode":"US","name":"Kerens","fclName":"city, village,...","adminCodes1":{"ISO3166_2":"TX"},"countryName":"United States","fcodeName":"populated place","adminName1":"Texas","lat":"32.13321","fcode":"PPL"},{"adminCode1":"TX","lng":"-96.40748","geonameId":4680579,"toponymName":"Chatfield","countryId":"6252001","fcl":"P","population":0,"countryCode":"US","name":"Chatfield","fclName":"city, village,...","adminCodes1":{"ISO3166_2":"TX"},"countryName":"United States","fcodeName":"populated place","adminName1":"Texas","lat":"32.24154","fcode":"PPL"},{"adminCode1":"TX","lng":"-96.71582","geonameId":4675056,"toponymName":"Blooming Grove","countryId":"6252001","fcl":"P","population":824,"countryCode":"US","name":"Blooming Grove","fclName":"city, village,...","adminCodes1":{"ISO3166_2":"TX"},"countryName":"United States","fcodeName":"populated place","adminName1":"Texas","lat":"32.0921","fcode":"PPL"},{"adminCode1":"TX","lng":"-96.71471","geonameId":4685428,"toponymName":"Dawson","countryId":"6252001","fcl":"P","population":801,"countryCode":"US","name":"Dawson","fclName":"city, village,...","adminCodes1":{"ISO3166_2":"TX"},"countryName":"United States","fcodeName":"populated place","adminName1":"Texas","lat":"31.89405","fcode":"PPL"},{"adminCode1":"TX","lng":"-96.6361","geonameId":4672463,"toponymName":"Barry","countryId":"6252001","fcl":"P","population":242,"countryCode":"US","name":"Barry","fclName":"city, village,...","adminCodes1":{"ISO3166_2":"TX"},"countryName":"United States","fcodeName":"populated place","adminName1":"Texas","lat":"32.09932","fcode":"PPL"},{"adminCode1":"TX","lng":"-96.61665","geonameId":4720958,"toponymName":"Purdon","countryId":"6252001","fcl":"P","population":0,"countryCode":"US","name":"Purdon","fclName":"city, village,...","adminCodes1":{"ISO3166_2":"TX"},"countryName":"United States","fcodeName":"populated place","adminName1":"Texas","lat":"31.94905","fcode":"PPL"},{"adminCode1":"TX","lng":"-96.42943","geonameId":4722651,"toponymName":"Richland","countryId":"6252001","fcl":"P","population":266,"countryCode":"US","name":"Richland","fclName":"city, village,...","adminCodes1":{"ISO3166_2":"TX"},"countryName":"United States","fcodeName":"populated place","adminName1":"Texas","lat":"31.92683","fcode":"PPL"},{"adminCode1":"TX","lng":"-96.32387","geonameId":4720335,"toponymName":"Powell","countryId":"6252001","fcl":"P","population":138,"countryCode":"US","name":"Powell","fclName":"city, village,...","adminCodes1":{"ISO3166_2":"TX"},"countryName":"United States","fcodeName":"populated place","adminName1":"Texas","lat":"32.11765","fcode":"PPL"},{"adminCode1":"TX","lng":"-96.80666","geonameId":4692600,"toponymName":"Frost","countryId":"6252001","fcl":"P","population":651,"countryCode":"US","name":"Frost","fclName":"city, village,...","adminCodes1":{"ISO3166_2":"TX"},"countryName":"United States","fcodeName":"populated place","adminName1":"Texas","lat":"32.08015","fcode":"PPL"},{"adminCode1":"TX","lng":"-96.37831","geonameId":4713846,"toponymName":"Navarro","countryId":"6252001","fcl":"P","population":209,"countryCode":"US","name":"Navarro","fclName":"city, village,...","adminCodes1":{"ISO3166_2":"TX"},"countryName":"United States","fcodeName":"populated place","adminName1":"Texas","lat":"31.99849","fcode":"PPL"},{"adminCode1":"TX","lng":"-96.57721","geonameId":4689186,"toponymName":"Emhouse","countryId":"6252001","fcl":"P","population":135,"countryCode":"US","name":"Emhouse","fclName":"city, village,...","adminCodes1":{"ISO3166_2":"TX"},"countryName":"United States","fcodeName":"populated place","adminName1":"Texas","lat":"32.16265","fcode":"PPL"},{"adminCode1":"TX","lng":"-96.29581","geonameId":4689556,"toponymName":"Eureka","countryId":"6252001","fcl":"P","population":311,"countryCode":"US","name":"Eureka","fclName":"city, village,...","adminCodes1":{"ISO3166_2":"TX"},"countryName":"United States","fcodeName":"populated place","adminName1":"Texas","lat":"32.01266","fcode":"PPL"},{"adminCode1":"TX","lng":"-96.53165","geonameId":4691642,"toponymName":"Anxiety Aerodrome","countryId":"6252001","fcl":"S","population":0,"countryCode":"US","name":"Anxiety Aerodrome","fclName":"spot, building, farm","adminCodes1":{"ISO3166_2":"TX"},"countryName":"United States","fcodeName":"airport","adminName1":"Texas","lat":"32.03765","fcode":"AIRP"},{"adminCode1":"TX","lng":"-96.43304","geonameId":4670862,"toponymName":"Angus","countryId":"6252001","fcl":"P","population":415,"countryCode":"US","name":"Angus","fclName":"city, village,...","adminCodes1":{"ISO3166_2":"TX"},"countryName":"United States","fcodeName":"populated place","adminName1":"Texas","lat":"32.00627","fcode":"PPL"},{"adminCode1":"TX","lng":"-96.47443","geonameId":4722437,"toponymName":"Retreat","countryId":"6252001","fcl":"P","population":392,"countryCode":"US","name":"Retreat","fclName":"city, village,...","adminCodes1":{"ISO3166_2":"TX"},"countryName":"United States","fcodeName":"populated place","adminName1":"Texas","lat":"32.03404","fcode":"PPL"},{"adminCode1":"TX","lng":"-96.4986","geonameId":4722543,"toponymName":"Rice","countryId":"6252001","fcl":"P","population":952,"countryCode":"US","name":"Rice","fclName":"city, village,...","adminCodes1":{"ISO3166_2":"TX"},"countryName":"United States","fcodeName":"populated place","adminName1":"Texas","lat":"32.24376","fcode":"PPL"},{"adminCode1":"TX","lng":"-96.37692","geonameId":4711291,"toponymName":"Mildred","countryId":"6252001","fcl":"P","population":371,"countryCode":"US","name":"Mildred","fclName":"city, village,...","adminCodes1":{"ISO3166_2":"TX"},"countryName":"United States","fcodeName":"populated place","adminName1":"Texas","lat":"32.03516","fcode":"PPL"},{"adminCode1":"TX","lng":"-96.34942","geonameId":4712031,"toponymName":"Montfort","countryId":"6252001","fcl":"P","population":0,"countryCode":"US","name":"Montfort","fclName":"city, village,...","adminCodes1":{"ISO3166_2":"TX"},"countryName":"United States","fcodeName":"populated place","adminName1":"Texas","lat":"32.22237","fcode":"PPL"},{"adminCode1":"TX","lng":"-96.42943","geonameId":4713580,"toponymName":"Mustang","countryId":"6252001","fcl":"P","population":21,"countryCode":"US","name":"Mustang","fclName":"city, village,...","adminCodes1":{"ISO3166_2":"TX"},"countryName":"United States","fcodeName":"populated place","adminName1":"Texas","lat":"32.01349","fcode":"PPL"},{"adminCode1":"TX","lng":"-96.51304","geonameId":4715960,"toponymName":"Oak Valley","countryId":"6252001","fcl":"P","population":377,"countryCode":"US","name":"Oak Valley","fclName":"city, village,...","adminCodes1":{"ISO3166_2":"TX"},"countryName":"United States","fcodeName":"populated place","adminName1":"Texas","lat":"32.03349","fcode":"PPL"},{"adminCode1":"TX","lng":"-96.6795","geonameId":4697335,"toponymName":"Knapp Pecan Orchard Airpark","countryId":"6252001","fcl":"S","population":0,"countryCode":"US","name":"Knapp Pecan Orchard Airpark","fclName":"spot, building, farm","adminCodes1":{"ISO3166_2":"TX"},"countryName":"United States","fcodeName":"airport","adminName1":"Texas","lat":"31.97446","fcode":"AIRP"},{"adminCode1":"TX","lng":"-96.79277","geonameId":4829216,"toponymName":"Emmett","countryId":"6252001","fcl":"P","population":0,"countryCode":"US","name":"Emmett","fclName":"city, village,...","adminCodes1":{"ISO3166_2":"TX"},"countryName":"United States","fcodeName":"populated place","adminName1":"Texas","lat":"31.98766","fcode":"PPL"},{"adminCode1":"TX","lng":"-96.38251","geonameId":7175444,"toponymName":"Town of Navarro","countryId":"6252001","fcl":"A","population":210,"countryCode":"US","name":"Town of Navarro","fclName":"country, state, region,...","adminCodes1":{"ISO3166_2":"TX"},"countryName":"United States","fcodeName":"third-order administrative division","adminName1":"Texas","lat":"32.00079","fcode":"ADM3"},{"adminCode1":"TX","lng":"-96.42696","geonameId":7172933,"toponymName":"City of Angus","countryId":"6252001","fcl":"A","population":414,"countryCode":"US","name":"City of Angus","fclName":"country, state, region,...","adminCodes1":{"ISO3166_2":"TX"},"countryName":"United States","fcodeName":"third-order administrative division","adminName1":"Texas","lat":"31.99762","fcode":"ADM3"},{"adminCode1":"TX","lng":"-96.63776","geonameId":7172985,"toponymName":"City of Barry","countryId":"6252001","fcl":"A","population":242,"countryCode":"US","name":"City of Barry","fclName":"country, state, region,...","adminCodes1":{"ISO3166_2":"TX"},"countryName":"United States","fcodeName":"third-order administrative division","adminName1":"Texas","lat":"32.0999","fcode":"ADM3"},{"adminCode1":"TX","lng":"-96.46853","geonameId":7173235,"toponymName":"City of Corsicana","countryId":"6252001","fcl":"A","population":23770,"countryCode":"US","name":"City of Corsicana","fclName":"country, state, region,...","adminCodes1":{"ISO3166_2":"TX"},"countryName":"United States","fcodeName":"third-order administrative division","adminName1":"Texas","lat":"32.08216","fcode":"ADM3"},{"adminCode1":"TX","lng":"-96.3073","geonameId":7173403,"toponymName":"City of Eureka","countryId":"6252001","fcl":"A","population":307,"countryCode":"US","name":"City of Eureka","fclName":"country, state, region,...","adminCodes1":{"ISO3166_2":"TX"},"countryName":"United States","fcodeName":"third-order administrative division","adminName1":"Texas","lat":"32.01591","fcode":"ADM3"},{"adminCode1":"TX","lng":"-96.80854","geonameId":7173461,"toponymName":"City of Frost","countryId":"6252001","fcl":"A","population":643,"countryCode":"US","name":"City of Frost","fclName":"country, state, region,...","adminCodes1":{"ISO3166_2":"TX"},"countryName":"United States","fcodeName":"third-order administrative division","adminName1":"Texas","lat":"32.07881","fcode":"ADM3"},{"adminCode1":"TX","lng":"-96.21515","geonameId":7173513,"toponymName":"City of Goodlow","countryId":"6252001","fcl":"A","population":200,"countryCode":"US","name":"City of Goodlow","fclName":"country, state, region,...","adminCodes1":{"ISO3166_2":"TX"},"countryName":"United States","fcodeName":"third-order administrative division","adminName1":"Texas","lat":"32.10907","fcode":"ADM3"},{"adminCode1":"TX","lng":"-96.49782","geonameId":7173742,"toponymName":"City of Rice","countryId":"6252001","fcl":"A","population":923,"countryCode":"US","name":"City of Rice","fclName":"country, state, region,...","adminCodes1":{"ISO3166_2":"TX"},"countryName":"United States","fcodeName":"third-order administrative division","adminName1":"Texas","lat":"32.2388","fcode":"ADM3"},{"adminCode1":"TX","lng":"-96.71729","geonameId":7174304,"toponymName":"Town of Blooming Grove","countryId":"6252001","fcl":"A","population":821,"countryCode":"US","name":"Town of Blooming Grove","fclName":"country, state, region,...","adminCodes1":{"ISO3166_2":"TX"},"countryName":"United States","fcodeName":"third-order administrative division","adminName1":"Texas","lat":"32.09236","fcode":"ADM3"},{"adminCode1":"TX","lng":"-96.71509","geonameId":7174832,"toponymName":"Town of Dawson","countryId":"6252001","fcl":"A","population":807,"countryCode":"US","name":"Town of Dawson","fclName":"country, state, region,...","adminCodes1":{"ISO3166_2":"TX"},"countryName":"United States","fcodeName":"third-order administrative division","adminName1":"Texas","lat":"31.89412","fcode":"ADM3"},{"adminCode1":"TX","lng":"-96.5772","geonameId":7174905,"toponymName":"Town of Emhouse","countryId":"6252001","fcl":"A","population":133,"countryCode":"US","name":"Town of Emhouse","fclName":"country, state, region,...","adminCodes1":{"ISO3166_2":"TX"},"countryName":"United States","fcodeName":"third-order administrative division","adminName1":"Texas","lat":"32.1607","fcode":"ADM3"},{"adminCode1":"TX","lng":"-96.33573","geonameId":7174924,"toponymName":"Town of Powell","countryId":"6252001","fcl":"A","population":136,"countryCode":"US","name":"Town of Powell","fclName":"country, state, region,...","adminCodes1":{"ISO3166_2":"TX"},"countryName":"United States","fcodeName":"third-order administrative division","adminName1":"Texas","lat":"32.11682","fcode":"ADM3"},{"adminCode1":"TX","lng":"-96.47876","geonameId":7174964,"toponymName":"Town of Retreat","countryId":"6252001","fcl":"A","population":377,"countryCode":"US","name":"Town of Retreat","fclName":"country, state, region,...","adminCodes1":{"ISO3166_2":"TX"},"countryName":"United States","fcodeName":"third-order administrative division","adminName1":"Texas","lat":"32.0505","fcode":"ADM3"},{"adminCode1":"TX","lng":"-96.42846","geonameId":7174968,"toponymName":"Town of Richland","countryId":"6252001","fcl":"A","population":264,"countryCode":"US","name":"Town of Richland","fclName":"country, state, region,...","adminCodes1":{"ISO3166_2":"TX"},"countryName":"United States","fcodeName":"third-order administrative division","adminName1":"Texas","lat":"31.92364","fcode":"ADM3"},{"adminCode1":"TX","lng":"-96.35231","geonameId":7175402,"toponymName":"Town of Mildred","countryId":"6252001","fcl":"A","population":368,"countryCode":"US","name":"Town of Mildred","fclName":"country, state, region,...","adminCodes1":{"ISO3166_2":"TX"},"countryName":"United States","fcodeName":"third-order administrative division","adminName1":"Texas","lat":"32.02923","fcode":"ADM3"},{"adminCode1":"TX","lng":"-96.43031","geonameId":7175438,"toponymName":"Town of Mustang","countryId":"6252001","fcl":"A","population":21,"countryCode":"US","name":"Town of Mustang","fclName":"country, state, region,...","adminCodes1":{"ISO3166_2":"TX"},"countryName":"United States","fcodeName":"third-order administrative division","adminName1":"Texas","lat":"32.01353","fcode":"ADM3"},{"adminCode1":"TX","lng":"-96.51162","geonameId":7175474,"toponymName":"Town of Oak Valley","countryId":"6252001","fcl":"A","population":368,"countryCode":"US","name":"Town of Oak Valley","fclName":"country, state, region,...","adminCodes1":{"ISO3166_2":"TX"},"countryName":"United States","fcodeName":"third-order administrative division","adminName1":"Texas","lat":"32.0331","fcode":"ADM3"},{"adminCode1":"TX","lng":"-96.09249","geonameId":4679183,"toponymName":"Carroll Lake","countryId":"6252001","fcl":"H","population":0,"countryCode":"US","name":"Carroll Lake","fclName":"stream, lake, ...","adminCodes1":{"ISO3166_2":"TX"},"countryName":"United States","fcodeName":"lake","adminName1":"Texas","lat":"31.99822","fcode":"LK"},{"adminCode1":"TX","lng":"-96.24137","geonameId":4672754,"toponymName":"Bazette Oil Field","countryId":"6252001","fcl":"L","population":0,"countryCode":"US","name":"Bazette Oil Field","fclName":"parks,area, ...","adminCodes1":{"ISO3166_2":"TX"},"countryName":"United States","fcodeName":"oilfield","adminName1":"Texas","lat":"32.24404","fcode":"OILF"},{"adminCode1":"TX","lng":"-96.44498","geonameId":4677420,"toponymName":"Bunert Park","countryId":"6252001","fcl":"L","population":0,"countryCode":"US","name":"Bunert Park","fclName":"parks,area, ...","adminCodes1":{"ISO3166_2":"TX"},"countryName":"United States","fcodeName":"park","adminName1":"Texas","lat":"32.10321","fcode":"PRK"},{"adminCode1":"TX","lng":"-96.47776","geonameId":4682825,"toponymName":"Community Park","countryId":"6252001","fcl":"L","population":0,"countryCode":"US","name":"Community Park","fclName":"parks,area, ...","adminCodes1":{"ISO3166_2":"TX"},"countryName":"United States","fcodeName":"park","adminName1":"Texas","lat":"32.10015","fcode":"PRK"},{"adminCode1":"TX","lng":"-96.39248","geonameId":4683467,"toponymName":"Corsicana Oil Field","countryId":"6252001","fcl":"L","population":0,"countryCode":"US","name":"Corsicana Oil Field","fclName":"parks,area, ...","adminCodes1":{"ISO3166_2":"TX"},"countryName":"United States","fcodeName":"oilfield","adminName1":"Texas","lat":"32.07765","fcode":"OILF"},{"adminCode1":"TX","lng":"-96.43193","geonameId":4684653,"toponymName":"Currie Oil Field","countryId":"6252001","fcl":"L","population":0,"countryCode":"US","name":"Currie Oil Field","fclName":"parks,area, ...","adminCodes1":{"ISO3166_2":"TX"},"countryName":"United States","fcodeName":"oilfield","adminName1":"Texas","lat":"31.856","fcode":"OILF"},{"adminCode1":"TX","lng":"-96.11237","geonameId":4685207,"toponymName":"Daniels Lake","countryId":"6252001","fcl":"H","population":0,"countryCode":"US","name":"Daniels Lake","fclName":"stream, lake, ...","adminCodes1":{"ISO3166_2":"TX"},"countryName":"United States","fcodeName":"lake","adminName1":"Texas","lat":"32.13744","fcode":"LK"},{"adminCode1":"TX","lng":"-96.4661","geonameId":4687216,"toponymName":"Dudley Oil Field","countryId":"6252001","fcl":"L","population":0,"countryCode":"US","name":"Dudley Oil Field","fclName":"parks,area, ...","adminCodes1":{"ISO3166_2":"TX"},"countryName":"United States","fcodeName":"oilfield","adminName1":"Texas","lat":"32.22154","fcode":"OILF"},{"adminCode1":"TX","lng":"-96.42554","geonameId":4670863,"toponymName":"Angus Oil Field","countryId":"6252001","fcl":"L","population":0,"countryCode":"US","name":"Angus Oil Field","fclName":"parks,area, ...","adminCodes1":{"ISO3166_2":"TX"},"countryName":"United States","fcodeName":"oilfield","adminName1":"Texas","lat":"32.01377","fcode":"OILF"},{"adminCode1":"TX","lng":"-96.73944","geonameId":4672623,"toponymName":"Battle Creek Burial Ground Historical Marker","countryId":"6252001","fcl":"L","population":0,"countryCode":"US","name":"Battle Creek Burial Ground Historical Marker","fclName":"parks,area, ...","adminCodes1":{"ISO3166_2":"TX"},"countryName":"United States","fcodeName":"park","adminName1":"Texas","lat":"31.89044","fcode":"PRK"},{"adminCode1":"TX","lng":"-96.53471","geonameId":4736845,"toponymName":"Tiger Field","countryId":"6252001","fcl":"L","population":0,"countryCode":"US","name":"Tiger Field","fclName":"parks,area, ...","adminCodes1":{"ISO3166_2":"TX"},"countryName":"United States","fcodeName":"park","adminName1":"Texas","lat":"32.0496","fcode":"PRK"},{"adminCode1":"TX","lng":"-96.50804","geonameId":4736861,"toponymName":"Tiger Field","countryId":"6252001","fcl":"L","population":0,"countryCode":"US","name":"Tiger Field","fclName":"parks,area, ...","adminCodes1":{"ISO3166_2":"TX"},"countryName":"United States","fcodeName":"park","adminName1":"Texas","lat":"32.06599","fcode":"PRK"},{"adminCode1":"TX","lng":"-96.43776","geonameId":4737869,"toponymName":"Tupelo","countryId":"6252001","fcl":"P","population":0,"countryCode":"US","name":"Tupelo","fclName":"city, village,...","adminCodes1":{"ISO3166_2":"TX"},"countryName":"United States","fcodeName":"populated place","adminName1":"Texas","lat":"32.21293","fcode":"PPL"},{"adminCode1":"TX","lng":"-96.7311","geonameId":4742753,"toponymName":"Wolf Creek Park","countryId":"6252001","fcl":"L","population":0,"countryCode":"US","name":"Wolf Creek Park","fclName":"parks,area, ...","adminCodes1":{"ISO3166_2":"TX"},"countryName":"United States","fcodeName":"park","adminName1":"Texas","lat":"31.97793","fcode":"PRK"},{"adminCode1":"TX","lng":"-96.21938","geonameId":4728804,"toponymName":"Singletary Lake","countryId":"6252001","fcl":"H","population":0,"countryCode":"US","name":"Singletary Lake","fclName":"stream, lake, ...","adminCodes1":{"ISO3166_2":"TX"},"countryName":"United States","fcodeName":"lake","adminName1":"Texas","lat":"32.22901","fcode":"LK"},{"adminCode1":"TX","lng":"-96.23359","geonameId":4722213,"toponymName":"Reka Oil Field","countryId":"6252001","fcl":"L","population":0,"countryCode":"US","name":"Reka Oil Field","fclName":"parks,area, ...","adminCodes1":{"ISO3166_2":"TX"},"countryName":"United States","fcodeName":"oilfield","adminName1":"Texas","lat":"31.94683","fcode":"OILF"},{"adminCode1":"TX","lng":"-96.45887","geonameId":4723197,"toponymName":"Robinson Oil Field","countryId":"6252001","fcl":"L","population":0,"countryCode":"US","name":"Robinson Oil Field","fclName":"parks,area, ...","adminCodes1":{"ISO3166_2":"TX"},"countryName":"United States","fcodeName":"oilfield","adminName1":"Texas","lat":"32.19126","fcode":"OILF"},{"adminCode1":"TX","lng":"-96.22779","geonameId":4724068,"toponymName":"Round Lake","countryId":"6252001","fcl":"H","population":0,"countryCode":"US","name":"Round Lake","fclName":"stream, lake, ...","adminCodes1":{"ISO3166_2":"TX"},"countryName":"United States","fcodeName":"lake","adminName1":"Texas","lat":"32.23456","fcode":"LK"},{"adminCode1":"TX","lng":"-96.30031","geonameId":4724119,"toponymName":"Round Pond","countryId":"6252001","fcl":"H","population":0,"countryCode":"US","name":"Round Pond","fclName":"stream, lake, ...","adminCodes1":{"ISO3166_2":"TX"},"countryName":"United States","fcodeName":"lake","adminName1":"Texas","lat":"32.27275","fcode":"LK"},{"adminCode1":"TX","lng":"-96.48082","geonameId":4713843,"toponymName":"Natures Park","countryId":"6252001","fcl":"L","population":0,"countryCode":"US","name":"Natures Park","fclName":"parks,area, ...","adminCodes1":{"ISO3166_2":"TX"},"countryName":"United States","fcodeName":"park","adminName1":"Texas","lat":"32.07293","fcode":"PRK"},{"adminCode1":"TX","lng":"-96.69193","geonameId":4715920,"toponymName":"Oak Park","countryId":"6252001","fcl":"L","population":0,"countryCode":"US","name":"Oak Park","fclName":"parks,area, ...","adminCodes1":{"ISO3166_2":"TX"},"countryName":"United States","fcodeName":"park","adminName1":"Texas","lat":"31.96349","fcode":"PRK"},{"adminCode1":"TX","lng":"-96.40387","geonameId":4717900,"toponymName":"Patterson Lake","countryId":"6252001","fcl":"H","population":0,"countryCode":"US","name":"Patterson Lake","fclName":"stream, lake, ...","adminCodes1":{"ISO3166_2":"TX"},"countryName":"United States","fcodeName":"lake","adminName1":"Texas","lat":"31.93794","fcode":"LK"},{"adminCode1":"TX","lng":"-96.47387","geonameId":4701024,"toponymName":"Jester Park","countryId":"6252001","fcl":"L","population":0,"countryCode":"US","name":"Jester Park","fclName":"parks,area, ...","adminCodes1":{"ISO3166_2":"TX"},"countryName":"United States","fcodeName":"park","adminName1":"Texas","lat":"32.09626","fcode":"PRK"},{"adminCode1":"TX","lng":"-96.80722","geonameId":4701129,"toponymName":"Joe Parnum Field","countryId":"6252001","fcl":"L","population":0,"countryCode":"US","name":"Joe Parnum Field","fclName":"parks,area, ...","adminCodes1":{"ISO3166_2":"TX"},"countryName":"United States","fcodeName":"park","adminName1":"Texas","lat":"32.07737","fcode":"PRK"},{"adminCode1":"TX","lng":"-96.43733","geonameId":4708118,"toponymName":"Love Lake","countryId":"6252001","fcl":"H","population":0,"countryCode":"US","name":"Love Lake","fclName":"stream, lake, ...","adminCodes1":{"ISO3166_2":"TX"},"countryName":"United States","fcodeName":"lake","adminName1":"Texas","lat":"31.94594","fcode":"LK"},{"adminCode1":"TX","lng":"-96.21831","geonameId":4694057,"toponymName":"Goodlow Park","countryId":"6252001","fcl":"P","population":200,"countryCode":"US","name":"Goodlow Park","fclName":"city, village,...","adminCodes1":{"ISO3166_2":"TX"},"countryName":"United States","fcodeName":"populated place","adminName1":"Texas","lat":"32.11543","fcode":"PPL"},{"adminCode1":"TX","lng":"-96.32915","geonameId":4696569,"toponymName":"Harvey Lake","countryId":"6252001","fcl":"H","population":0,"countryCode":"US","name":"Harvey Lake","fclName":"stream, lake, ...","adminCodes1":{"ISO3166_2":"TX"},"countryName":"United States","fcodeName":"lake","adminName1":"Texas","lat":"32.28987","fcode":"LK"},{"adminCode1":"TX","lng":"-96.4247","geonameId":4704584,"toponymName":"Lake Halbert Park","countryId":"6252001","fcl":"L","population":0,"countryCode":"US","name":"Lake Halbert Park","fclName":"parks,area, ...","adminCodes1":{"ISO3166_2":"TX"},"countryName":"United States","fcodeName":"park","adminName1":"Texas","lat":"32.07043","fcode":"PRK"},{"adminCode1":"TX","lng":"-96.69916","geonameId":4706177,"toponymName":"Liberty Hill Park","countryId":"6252001","fcl":"L","population":0,"countryCode":"US","name":"Liberty Hill Park","fclName":"parks,area, ...","adminCodes1":{"ISO3166_2":"TX"},"countryName":"United States","fcodeName":"park","adminName1":"Texas","lat":"31.94877","fcode":"PRK"},{"adminCode1":"TX","lng":"-96.22512","geonameId":11788950,"toponymName":"City of Kerens","countryId":"6252001","fcl":"A","population":0,"countryCode":"US","name":"City of Kerens","fclName":"country, state, region,...","adminCodes1":{"ISO3166_2":"TX"},"countryName":"United States","fcodeName":"third-order administrative division","adminName1":"Texas","lat":"32.13081","fcode":"ADM3"},{"adminCode1":"CA","lng":"-123.67751","geonameId":5376300,"toponymName":"Navarro River Redwoods State Park","countryId":"6252001","fcl":"L","population":0,"countryCode":"US","name":"Navarro River Redwoods State Park","fclName":"parks,area, ...","adminCodes1":{"ISO3166_2":"CA"},"countryName":"United States","fcodeName":"park","adminName1":"California","lat":"39.1749","fcode":"PRK"},{"adminCode1":"TX","lng":"-96.74753","geonameId":4713860,"toponymName":"Navarro Mills Lake","countryId":"6252001","fcl":"H","population":0,"countryCode":"US","name":"Navarro Mills Lake","fclName":"stream, lake, ...","adminCodes1":{"ISO3166_2":"TX"},"countryName":"United States","fcodeName":"reservoir(s)","adminName1":"Texas","lat":"31.94934","fcode":"RSV"},{"adminCode1":"TX","lng":"-96.49832","geonameId":4713848,"toponymName":"Navarro College","countryId":"6252001","fcl":"S","population":0,"countryCode":"US","name":"Navarro College","fclName":"spot, building, farm","adminCodes1":{"ISO3166_2":"TX"},"countryName":"United States","fcodeName":"school","adminName1":"Texas","lat":"32.07571","fcode":"SCH"},{"adminCode1":"TX","lng":"-96.75527","geonameId":4676826,"toponymName":"Brushie Prairie","countryId":"6252001","fcl":"P","population":0,"countryCode":"US","name":"Brushie Prairie","fclName":"city, village,...","adminCodes1":{"ISO3166_2":"TX"},"countryName":"United States","fcodeName":"populated place","adminName1":"Texas","lat":"31.99432","fcode":"PPL"},{"adminCode1":"TX","lng":"-96.65693","geonameId":4684477,"toponymName":"Cryer Creek","countryId":"6252001","fcl":"P","population":0,"countryCode":"US","name":"Cryer Creek","fclName":"city, village,...","adminCodes1":{"ISO3166_2":"TX"},"countryName":"United States","fcodeName":"populated place","adminName1":"Texas","lat":"32.12932","fcode":"PPL"},{"adminCode1":"TX","lng":"-96.71161","geonameId":4685433,"toponymName":"Dawson ISD - Dawson, TX","countryId":"6252001","fcl":"S","population":0,"countryCode":"US","name":"Dawson ISD","fclName":"spot, building, farm","adminCodes1":{"ISO3166_2":"TX"},"countryName":"United States","fcodeName":"school","adminName1":"Texas","lat":"31.8976","fcode":"SCH"},{"adminCode1":"TX","lng":"-96.31137","geonameId":4671835,"toponymName":"B T Averheart Airport","countryId":"6252001","fcl":"S","population":0,"countryCode":"US","name":"B T Averheart Airport","fclName":"spot, building, farm","adminCodes1":{"ISO3166_2":"TX"},"countryName":"United States","fcodeName":"airport","adminName1":"Texas","lat":"31.90016","fcode":"AIRP"},{"adminCode1":"TX","lng":"-96.71027","geonameId":4733816,"toponymName":"Spring Hill","countryId":"6252001","fcl":"P","population":0,"countryCode":"US","name":"Spring Hill","fclName":"city, village,...","adminCodes1":{"ISO3166_2":"TX"},"countryName":"United States","fcodeName":"populated place","adminName1":"Texas","lat":"31.93627","fcode":"PPL"},{"adminCode1":"TX","lng":"-96.46859","geonameId":4735907,"toponymName":"Temple Beth-El","countryId":"6252001","fcl":"S","population":0,"countryCode":"US","name":"Temple Beth-El","fclName":"spot, building, farm","adminCodes1":{"ISO3166_2":"TX"},"countryName":"United States","fcodeName":"church","adminName1":"Texas","lat":"32.0896","fcode":"CH"},{"adminCode1":"TX","lng":"-96.32942","geonameId":4729070,"toponymName":"Smith Airport","countryId":"6252001","fcl":"S","population":0,"countryCode":"US","name":"Smith Airport","fclName":"spot, building, farm","adminCodes1":{"ISO3166_2":"TX"},"countryName":"United States","fcodeName":"airport","adminName1":"Texas","lat":"32.20015","fcode":"AIRP"},{"adminCode1":"TX","lng":"-96.09886","geonameId":4722683,"toponymName":"Richland-Chambers Reservoir","countryId":"6252001","fcl":"H","population":0,"countryCode":"US","name":"Richland-Chambers Reservoir","fclName":"stream, lake, ...","adminCodes1":{"ISO3166_2":"TX"},"countryName":"United States","fcodeName":"reservoir(s)","adminName1":"Texas","lat":"31.95183","fcode":"RSV"},{"adminCode1":"TX","lng":"-96.17914","geonameId":4723822,"toponymName":"Roscoe McConnico Airport","countryId":"6252001","fcl":"S","population":0,"countryCode":"US","name":"Roscoe McConnico Airport","fclName":"spot, building, farm","adminCodes1":{"ISO3166_2":"TX"},"countryName":"United States","fcodeName":"airport","adminName1":"Texas","lat":"32.12071","fcode":"AIRP"},{"adminCode1":"TX","lng":"-96.43637","geonameId":4718690,"toponymName":"Pettys Chapel","countryId":"6252001","fcl":"P","population":0,"countryCode":"US","name":"Pettys Chapel","fclName":"city, village,...","adminCodes1":{"ISO3166_2":"TX"},"countryName":"United States","fcodeName":"populated place","adminName1":"Texas","lat":"32.12293","fcode":"PPL"},{"adminCode1":"TX","lng":"-96.25741","geonameId":4696013,"toponymName":"Hancock Airport","countryId":"6252001","fcl":"S","population":0,"countryCode":"US","name":"Hancock Airport","fclName":"spot, building, farm","adminCodes1":{"ISO3166_2":"TX"},"countryName":"United States","fcodeName":"airport","adminName1":"Texas","lat":"32.22606","fcode":"AIRP"},{"adminCode1":"TX","lng":"-96.39707","geonameId":8113002,"toponymName":"Hackberry Airport","countryId":"6252001","fcl":"S","population":0,"countryCode":"US","name":"Hackberry Airport","fclName":"spot, building, farm","adminCodes1":{"ISO3166_2":"TX"},"countryName":"United States","fcodeName":"airport","adminName1":"Texas","lat":"32.23234","fcode":"AIRP"},{"adminCode1":"TX","lng":"-96.4381","geonameId":8113104,"toponymName":"The Homestead Airport","countryId":"6252001","fcl":"S","population":0,"countryCode":"US","name":"The Homestead Airport","fclName":"spot, building, farm","adminCodes1":{"ISO3166_2":"TX"},"countryName":"United States","fcodeName":"airport","adminName1":"Texas","lat":"32.1941","fcode":"AIRP"},{"adminCode1":"TX","lng":"-96.35667","geonameId":8113513,"toponymName":"JTJ Ranch Airport","countryId":"6252001","fcl":"S","population":0,"countryCode":"US","name":"JTJ Ranch Airport","fclName":"spot, building, farm","adminCodes1":{"ISO3166_2":"TX"},"countryName":"United States","fcodeName":"airport","adminName1":"Texas","lat":"32.08256","fcode":"AIRP"},{"adminCode1":"CA","lng":"-123.54196","geonameId":5376276,"toponymName":"Navarro","countryId":"6252001","fcl":"P","population":0,"countryCode":"US","name":"Navarro","fclName":"city, village,...","adminCodes1":{"ISO3166_2":"CA"},"countryName":"United States","fcodeName":"populated place","adminName1":"California","lat":"39.15184","fcode":"PPL"},{"adminCode1":"PA","lng":"-75.49685","geonameId":5203804,"toponymName":"Northampton","countryId":"6252001","fcl":"P","population":9860,"countryCode":"US","name":"Northampton","fclName":"city, village,...","adminCodes1":{"ISO3166_2":"PA"},"countryName":"United States","fcodeName":"populated place","adminName1":"Pennsylvania","lat":"40.68621","fcode":"PPL"},{"adminCode1":"TX","lng":"-96.68221","geonameId":4713858,"toponymName":"Navarro Mills","countryId":"6252001","fcl":"P","population":0,"countryCode":"US","name":"Navarro Mills","fclName":"city, village,...","adminCodes1":{"ISO3166_2":"TX"},"countryName":"United States","fcodeName":"populated place","adminName1":"Texas","lat":"31.95793","fcode":"PPL"},{"adminCode1":"TX","lng":"-96.49665","geonameId":4718083,"toponymName":"Pearce Civil War Documents Collection","countryId":"6252001","fcl":"S","population":0,"countryCode":"US","name":"Pearce Civil War Documents Collection","fclName":"spot, building, farm","adminCodes1":{"ISO3166_2":"TX"},"countryName":"United States","fcodeName":"building(s)","adminName1":"Texas","lat":"32.07571","fcode":"BLDG"},{"adminCode1":"TX","lng":"-96.34859","geonameId":4680606,"toponymName":"Cheneyboro","countryId":"6252001","fcl":"P","population":0,"countryCode":"US","name":"Cheneyboro","fclName":"city, village,...","adminCodes1":{"ISO3166_2":"TX"},"countryName":"United States","fcodeName":"populated place","adminName1":"Texas","lat":"31.95766","fcode":"PPL"},{"adminCode1":"TX","lng":"-96.55471","geonameId":4674720,"toponymName":"Black Hills","countryId":"6252001","fcl":"T","population":0,"countryCode":"US","name":"Black Hills","fclName":"mountain,hill,rock,... ","adminCodes1":{"ISO3166_2":"TX"},"countryName":"United States","fcodeName":"mountain","adminName1":"Texas","lat":"32.11543","fcode":"MT"},{"adminCode1":"TX","lng":"-96.62804","geonameId":4688727,"toponymName":"Eldorado Center","countryId":"6252001","fcl":"P","population":0,"countryCode":"US","name":"Eldorado Center","fclName":"city, village,...","adminCodes1":{"ISO3166_2":"TX"},"countryName":"United States","fcodeName":"populated place","adminName1":"Texas","lat":"31.85127","fcode":"PPL"},{"adminCode1":"TX","lng":"-96.30026","geonameId":4689008,"toponymName":"Elm Flat","countryId":"6252001","fcl":"P","population":0,"countryCode":"US","name":"Elm Flat","fclName":"city, village,...","adminCodes1":{"ISO3166_2":"TX"},"countryName":"United States","fcodeName":"populated place","adminName1":"Texas","lat":"32.08376","fcode":"PPL"},{"adminCode1":"TX","lng":"-96.53693","geonameId":4683288,"toponymName":"Corbet","countryId":"6252001","fcl":"P","population":0,"countryCode":"US","name":"Corbet","fclName":"city, village,...","adminCodes1":{"ISO3166_2":"TX"},"countryName":"United States","fcodeName":"populated place","adminName1":"Texas","lat":"32.00654","fcode":"PPL"},{"adminCode1":"TX","lng":"-96.44359","geonameId":4684652,"toponymName":"Currie","countryId":"6252001","fcl":"P","population":0,"countryCode":"US","name":"Currie","fclName":"city, village,...","adminCodes1":{"ISO3166_2":"TX"},"countryName":"United States","fcodeName":"populated place","adminName1":"Texas","lat":"31.86377","fcode":"PPL"}]}
