{"totalResultsCount":63,"geonames":[{"adminCode1":"NC","lng":"-77.94471","geonameId":4499379,"toponymName":"Wilmington","countryId":"6252001","fcl":"P","population":115933,"countryCode":"US","name":"Wilmington","fclName":"city, village,...","adminCodes1":{"ISO3166_2":"NC"},"countryName":"United States","fcodeName":"seat of a second-order administrative division","adminName1":"North Carolina","lat":"34.22573","fcode":"PPLA2"},{"adminCode1":"NY","lng":"-75.60936","geonameId":5111656,"toponymName":"Carthage","countryId":"6252001","fcl":"P","population":3591,"countryCode":"US","name":"Carthage","fclName":"city, village,...","adminCodes1":{"ISO3166_2":"NY"},"countryName":"United States","fcodeName":"populated place","adminName1":"New York","lat":"43.97812","fcode":"PPL"},{"adminCode1":"ME","lng":"-70.47312","geonameId":4960332,"toponymName":"Carthage","countryId":"6252001","fcl":"P","population":541,"countryCode":"US","name":"Carthage","fclName":"city, village,...","adminCodes1":{"ISO3166_2":"ME"},"countryName":"United States","fcodeName":"populated place","adminName1":"Maine","lat":"44.62423","fcode":"PPL"},{"adminCode1":"ME","lng":"-70.42295","geonameId":4960333,"toponymName":"Town of Carthage","countryId":"6252001","fcl":"A","population":551,"countryCode":"US","name":"Town of Carthage","fclName":"country, state, region,...","adminCodes1":{"ISO3166_2":"ME"},"countryName":"United States","fcodeName":"third-order administrative division","adminName1":"Maine","lat":"44.62033","fcode":"ADM3"},{"adminCode1":"NY","lng":"-75.61519","geonameId":5143737,"toponymName":"West Carthage","countryId":"6252001","fcl":"P","population":2065,"countryCode":"US","name":"West Carthage","fclName":"city, village,...","adminCodes1":{"ISO3166_2":"NY"},"countryName":"United States","fcodeName":"populated place","adminName1":"New York","lat":"43.97423","fcode":"PPL"},{"adminCode1":"NY","lng":"-73.96681","geonameId":5112386,"toponymName":"Chelsea","countryId":"6252001","fcl":"P","population":0,"countryCode":"US","name":"Chelsea","fclName":"city, village,...","adminCodes1":{"ISO3166_2":"NY"},"countryName":"United States","fcodeName":"populated place","adminName1":"New York","lat":"41.5537","fcode":"PPL"},{"adminCode1":"NM","lng":"-106.86586","geonameId":5460619,"toponymName":"Carthage Tokay Farley Historical Marker","countryId":"6252001","fcl":"L","population":0,"countryCode":"US","name":"Carthage Tokay Farley Historical Marker","fclName":"parks,area, ...","adminCodes1":{"ISO3166_2":"NM"},"countryName":"United States","fcodeName":"park","adminName1":"New Mexico","lat":"33.91784","fcode":"PRK"},{"adminCode1":"NY","lng":"-75.62186","geonameId":7316610,"toponymName":"Village of West Carthage","countryId":"6252001","fcl":"A","population":2012,"countryCode":"US","name":"Village of West Carthage","fclName":"country, state, region,...","adminCodes1":{"ISO3166_2":"NY"},"countryName":"United States","fcodeName":"administrative division","adminName1":"New York","lat":"43.9731","fcode":"ADMD"},{"adminCode1":"NY","lng":"-75.60241","geonameId":7316650,"toponymName":"Village of Carthage","countryId":"6252001","fcl":"A","population":3747,"countryCode":"US","name":"Village of Carthage","fclName":"country, state, region,...","adminCodes1":{"ISO3166_2":"NY"},"countryName":"United States","fcodeName":"administrative division","adminName1":"New York","lat":"43.98444","fcode":"ADMD"},{"adminCode1":"VT","lng":"-72.48387","geonameId":5237452,"toponymName":"Town of Jay","countryId":"6252001","fcl":"A","population":560,"countryCode":"US","name":"Town of Jay","fclName":"country, state, region,...","adminCodes1":{"ISO3166_2":"VT"},"countryName":"United States","fcodeName":"third-order administrative division","adminName1":"Vermont","lat":"44.96712","fcode":"ADM3"},{"adminCode1":"VT","lng":"-72.43705","geonameId":5237445,"toponymName":"Jay","countryId":"6252001","fcl":"P","population":0,"countryCode":"US","name":"Jay","fclName":"city, village,...","adminCodes1":{"ISO3166_2":"VT"},"countryName":"United States","fcodeName":"populated place","adminName1":"Vermont","lat":"44.94755","fcode":"PPL"},{"adminCode1":"ME","lng":"-70.44951","geonameId":4958065,"toponymName":"Berry Mills","countryId":"6252001","fcl":"P","population":0,"countryCode":"US","name":"Berry Mills","fclName":"city, village,...","adminCodes1":{"ISO3166_2":"ME"},"countryName":"United States","fcodeName":"populated place","adminName1":"Maine","lat":"44.62923","fcode":"PPL"},{"adminCode1":"CA","lng":"-118.02647","geonameId":5334554,"toponymName":"Cartago","countryId":"6252001","fcl":"P","population":92,"countryCode":"US","name":"Cartago","fclName":"city, village,...","adminCodes1":{"ISO3166_2":"CA"},"countryName":"United States","fcodeName":"populated place","adminName1":"California","lat":"36.32077","fcode":"PPL"},{"adminCode1":"NY","lng":"-75.72881","geonameId":5142968,"toponymName":"WWNY-TV (Carthage)","countryId":"6252001","fcl":"S","population":0,"countryCode":"US","name":"WWNY-TV (Carthage)","fclName":"spot, building, farm","adminCodes1":{"ISO3166_2":"NY"},"countryName":"United States","fcodeName":"tower","adminName1":"New York","lat":"43.95451","fcode":"TOWR"},{"adminCode1":"NY","lng":"-75.64553","geonameId":8108769,"toponymName":"Carthage Senior High School","countryId":"6252001","fcl":"S","population":0,"countryCode":"US","name":"Carthage Senior High School","fclName":"spot, building, farm","adminCodes1":{"ISO3166_2":"NY"},"countryName":"United States","fcodeName":"school","adminName1":"New York","lat":"43.98691","fcode":"SCH"},{"adminCode1":"ME","lng":"-70.42981","geonameId":4975875,"toponymName":"Potter Hill","countryId":"6252001","fcl":"T","population":0,"countryCode":"US","name":"Potter Hill","fclName":"mountain,hill,rock,... ","adminCodes1":{"ISO3166_2":"ME"},"countryName":"United States","fcodeName":"mountain","adminName1":"Maine","lat":"44.59313","fcode":"MT"},{"adminCode1":"ME","lng":"-70.35771","geonameId":4977261,"toponymName":"Saddleback Mountain","countryId":"6252001","fcl":"T","population":0,"countryCode":"US","name":"Saddleback Mountain","fclName":"mountain,hill,rock,... ","adminCodes1":{"ISO3166_2":"ME"},"countryName":"United States","fcodeName":"mountain","adminName1":"Maine","lat":"44.62774","fcode":"MT"},{"adminCode1":"ME","lng":"-70.43653","geonameId":4980009,"toponymName":"Storer Hill","countryId":"6252001","fcl":"T","population":0,"countryCode":"US","name":"Storer Hill","fclName":"mountain,hill,rock,... ","adminCodes1":{"ISO3166_2":"ME"},"countryName":"United States","fcodeName":"mountain","adminName1":"Maine","lat":"44.62297","fcode":"MT"},{"adminCode1":"ME","lng":"-70.36534","geonameId":4980356,"toponymName":"Tainter Corner","countryId":"6252001","fcl":"P","population":0,"countryCode":"US","name":"Tainter Corner","fclName":"city, village,...","adminCodes1":{"ISO3166_2":"ME"},"countryName":"United States","fcodeName":"populated place","adminName1":"Maine","lat":"44.58756","fcode":"PPL"},{"adminCode1":"ME","lng":"-70.37784","geonameId":4965702,"toponymName":"Grays Mountain","countryId":"6252001","fcl":"T","population":0,"countryCode":"US","name":"Grays Mountain","fclName":"mountain,hill,rock,... ","adminCodes1":{"ISO3166_2":"ME"},"countryName":"United States","fcodeName":"mountain","adminName1":"Maine","lat":"44.59312","fcode":"MT"},{"adminCode1":"ME","lng":"-70.40229","geonameId":4965851,"toponymName":"Green Hill","countryId":"6252001","fcl":"T","population":0,"countryCode":"US","name":"Green Hill","fclName":"mountain,hill,rock,... ","adminCodes1":{"ISO3166_2":"ME"},"countryName":"United States","fcodeName":"mountain","adminName1":"Maine","lat":"44.662","fcode":"MT"},{"adminCode1":"ME","lng":"-70.50524","geonameId":4969083,"toponymName":"Lake Mountain","countryId":"6252001","fcl":"T","population":0,"countryCode":"US","name":"Lake Mountain","fclName":"mountain,hill,rock,... ","adminCodes1":{"ISO3166_2":"ME"},"countryName":"United States","fcodeName":"mountain","adminName1":"Maine","lat":"44.61768","fcode":"MT"},{"adminCode1":"NM","lng":"-106.65946","geonameId":5460616,"toponymName":"Carthage","countryId":"6252001","fcl":"P","population":0,"countryCode":"US","name":"Carthage","fclName":"city, village,...","adminCodes1":{"ISO3166_2":"NM"},"countryName":"United States","fcodeName":"populated place","adminName1":"New Mexico","lat":"33.8834","fcode":"PPL"},{"adminCode1":"NM","lng":"-106.72752","geonameId":5482496,"toponymName":"Old Carthage","countryId":"6252001","fcl":"P","population":0,"countryCode":"US","name":"Old Carthage","fclName":"city, village,...","adminCodes1":{"ISO3166_2":"NM"},"countryName":"United States","fcodeName":"populated place","adminName1":"New Mexico","lat":"33.87673","fcode":"PPL"},{"adminCode1":"LA","lng":"-91.12594","geonameId":4334864,"toponymName":"New Carthage (historical)","countryId":"6252001","fcl":"P","population":0,"countryCode":"US","name":"New Carthage (historical)","fclName":"city, village,...","adminCodes1":{"ISO3166_2":"LA"},"countryName":"United States","fcodeName":"abandoned populated place","adminName1":"Louisiana","lat":"32.21404","fcode":"PPLQ"},{"adminCode1":"VT","lng":"-72.53567","geonameId":5239206,"toponymName":"North Jay Peak","countryId":"6252001","fcl":"T","population":0,"countryCode":"US","name":"North Jay Peak","fclName":"mountain,hill,rock,... ","adminCodes1":{"ISO3166_2":"VT"},"countryName":"United States","fcodeName":"mountain","adminName1":"Vermont","lat":"44.95782","fcode":"MT"},{"adminCode1":"VT","lng":"-72.54041","geonameId":8115301,"toponymName":"Doll Peak","countryId":"6252001","fcl":"T","population":0,"countryCode":"US","name":"Doll Peak","fclName":"mountain,hill,rock,... ","adminCodes1":{"ISO3166_2":"VT"},"countryName":"United States","fcodeName":"mountain","adminName1":"Vermont","lat":"44.94706","fcode":"MT"},{"adminCode1":"VT","lng":"-72.4349","geonameId":5237453,"toponymName":"Jay Westfield Elementary School","countryId":"6252001","fcl":"S","population":0,"countryCode":"US","name":"Jay Westfield Elementary School","fclName":"spot, building, farm","adminCodes1":{"ISO3166_2":"VT"},"countryName":"United States","fcodeName":"school","adminName1":"Vermont","lat":"44.95264","fcode":"SCH"},{"adminCode1":"CA","lng":"-118.03592","geonameId":5334555,"toponymName":"Cartago Creek","countryId":"6252001","fcl":"H","population":0,"countryCode":"US","name":"Cartago Creek","fclName":"stream, lake, ...","adminCodes1":{"ISO3166_2":"CA"},"countryName":"United States","fcodeName":"stream","adminName1":"California","lat":"36.29855","fcode":"STM"},{"adminCode1":"ME","lng":"-70.45029","geonameId":7305813,"toponymName":"Carthage Volunteer Fire Department","countryId":"6252001","fcl":"S","population":0,"countryCode":"US","name":"Carthage Volunteer Fire Department","fclName":"spot, building, farm","adminCodes1":{"ISO3166_2":"ME"},"countryName":"United States","fcodeName":"building(s)","adminName1":"Maine","lat":"44.62919","fcode":"BLDG"},{"adminCode1":"ME","lng":"-70.40292","geonameId":9678012,"toponymName":"Carthage Cemetery","countryId":"6252001","fcl":"S","population":0,"countryCode":"US","name":"Carthage Cemetery","fclName":"spot, building, farm","adminCodes1":{"ISO3166_2":"ME"},"countryName":"United States","fcodeName":"cemetery","adminName1":"Maine","lat":"44.60771","fcode":"CMTY"},{"adminCode1":"NY","lng":"-75.32769","geonameId":5111658,"toponymName":"Carthage Reservoir","countryId":"6252001","fcl":"H","population":0,"countryCode":"US","name":"Carthage Reservoir","fclName":"stream, lake, ...","adminCodes1":{"ISO3166_2":"NY"},"countryName":"United States","fcodeName":"reservoir(s)","adminName1":"New York","lat":"43.97646","fcode":"RSV"},{"adminCode1":"ME","lng":"-70.47562","geonameId":4973329,"toponymName":"Newman Cemetery","countryId":"6252001","fcl":"S","population":0,"countryCode":"US","name":"Newman Cemetery","fclName":"spot, building, farm","adminCodes1":{"ISO3166_2":"ME"},"countryName":"United States","fcodeName":"cemetery","adminName1":"Maine","lat":"44.63256","fcode":"CMTY"},{"adminCode1":"ME","lng":"-70.4509","geonameId":4958066,"toponymName":"Berry Mills Cemetery","countryId":"6252001","fcl":"S","population":0,"countryCode":"US","name":"Berry Mills Cemetery","fclName":"spot, building, farm","adminCodes1":{"ISO3166_2":"ME"},"countryName":"United States","fcodeName":"cemetery","adminName1":"Maine","lat":"44.62562","fcode":"CMTY"},{"adminCode1":"ME","lng":"-70.42012","geonameId":9678047,"toponymName":"Storer Hill Cemetery","countryId":"6252001","fcl":"S","population":0,"countryCode":"US","name":"Storer Hill Cemetery","fclName":"spot, building, farm","adminCodes1":{"ISO3166_2":"ME"},"countryName":"United States","fcodeName":"cemetery","adminName1":"Maine","lat":"44.62169","fcode":"CMTY"},{"adminCode1":"ME","lng":"-70.36604","geonameId":9678049,"toponymName":"Tainter Corner Cemetery","countryId":"6252001","fcl":"S","population":0,"countryCode":"US","name":"Tainter Corner Cemetery","fclName":"spot, building, farm","adminCodes1":{"ISO3166_2":"ME"},"countryName":"United States","fcodeName":"cemetery","adminName1":"Maine","lat":"44.58786","fcode":"CMTY"},{"adminCode1":"NM","lng":"-106.72585","geonameId":5460617,"toponymName":"Carthage Cemetery","countryId":"6252001","fcl":"S","population":0,"countryCode":"US","name":"Carthage Cemetery","fclName":"spot, building, farm","adminCodes1":{"ISO3166_2":"NM"},"countryName":"United States","fcodeName":"cemetery","adminName1":"New Mexico","lat":"33.88423","fcode":"CMTY"},{"adminCode1":"NM","lng":"-106.72974","geonameId":5460618,"toponymName":"Carthage Post Office (historical)","countryId":"6252001","fcl":"S","population":0,"countryCode":"US","name":"Carthage Post Office (historical)","fclName":"spot, building, farm","adminCodes1":{"ISO3166_2":"NM"},"countryName":"United States","fcodeName":"post office","adminName1":"New Mexico","lat":"33.87673","fcode":"PO"},{"adminCode1":"NY","lng":"-75.60906","geonameId":7154565,"toponymName":"Carthage Fire Department","countryId":"6252001","fcl":"S","population":0,"countryCode":"US","name":"Carthage Fire Department","fclName":"spot, building, farm","adminCodes1":{"ISO3166_2":"NY"},"countryName":"United States","fcodeName":"building(s)","adminName1":"New York","lat":"43.97782","fcode":"BLDG"},{"adminCode1":"NY","lng":"-75.61028","geonameId":7154569,"toponymName":"Carthage Youth Center","countryId":"6252001","fcl":"S","population":0,"countryCode":"US","name":"Carthage Youth Center","fclName":"spot, building, farm","adminCodes1":{"ISO3166_2":"NY"},"countryName":"United States","fcodeName":"building(s)","adminName1":"New York","lat":"43.97889","fcode":"BLDG"},{"adminCode1":"NY","lng":"-75.61028","geonameId":7154574,"toponymName":"Carthage High School","countryId":"6252001","fcl":"S","population":0,"countryCode":"US","name":"Carthage High School","fclName":"spot, building, farm","adminCodes1":{"ISO3166_2":"NY"},"countryName":"United States","fcodeName":"school","adminName1":"New York","lat":"43.98167","fcode":"SCH"},{"adminCode1":"NY","lng":"-75.60417","geonameId":7154575,"toponymName":"Carthage Hospital (historical)","countryId":"6252001","fcl":"S","population":0,"countryCode":"US","name":"Carthage Hospital (historical)","fclName":"spot, building, farm","adminCodes1":{"ISO3166_2":"NY"},"countryName":"United States","fcodeName":"hospital","adminName1":"New York","lat":"43.98222","fcode":"HSP"},{"adminCode1":"NY","lng":"-75.6175","geonameId":7154578,"toponymName":"West Carthage Village Hall","countryId":"6252001","fcl":"S","population":0,"countryCode":"US","name":"West Carthage Village Hall","fclName":"spot, building, farm","adminCodes1":{"ISO3166_2":"NY"},"countryName":"United States","fcodeName":"building(s)","adminName1":"New York","lat":"43.97444","fcode":"BLDG"},{"adminCode1":"NY","lng":"-75.62056","geonameId":7154579,"toponymName":"West Carthage High School","countryId":"6252001","fcl":"S","population":0,"countryCode":"US","name":"West Carthage High School","fclName":"spot, building, farm","adminCodes1":{"ISO3166_2":"NY"},"countryName":"United States","fcodeName":"school","adminName1":"New York","lat":"43.97472","fcode":"SCH"},{"adminCode1":"NY","lng":"-75.72881","geonameId":5142929,"toponymName":"WTOJ-FM (Carthage)","countryId":"6252001","fcl":"S","population":0,"countryCode":"US","name":"WTOJ-FM (Carthage)","fclName":"spot, building, farm","adminCodes1":{"ISO3166_2":"NY"},"countryName":"United States","fcodeName":"tower","adminName1":"New York","lat":"43.95451","fcode":"TOWR"},{"adminCode1":"NY","lng":"-75.59391","geonameId":5111657,"toponymName":"Carthage Area Hospital","countryId":"6252001","fcl":"S","population":0,"countryCode":"US","name":"Carthage Area Hospital","fclName":"spot, building, farm","adminCodes1":{"ISO3166_2":"NY"},"countryName":"United States","fcodeName":"hospital","adminName1":"New York","lat":"43.9872","fcode":"HSP"},{"adminCode1":"NY","lng":"-75.59857","geonameId":8108399,"toponymName":"Carthage Elementary School","countryId":"6252001","fcl":"S","population":0,"countryCode":"US","name":"Carthage Elementary School","fclName":"spot, building, farm","adminCodes1":{"ISO3166_2":"NY"},"countryName":"United States","fcodeName":"school","adminName1":"New York","lat":"43.98045","fcode":"SCH"},{"adminCode1":"NY","lng":"-75.6556","geonameId":8108500,"toponymName":"West Carthage Elementary School","countryId":"6252001","fcl":"S","population":0,"countryCode":"US","name":"West Carthage Elementary School","fclName":"spot, building, farm","adminCodes1":{"ISO3166_2":"NY"},"countryName":"United States","fcodeName":"school","adminName1":"New York","lat":"43.98032","fcode":"SCH"},{"adminCode1":"NY","lng":"-75.64673","geonameId":8108718,"toponymName":"Carthage Middle School","countryId":"6252001","fcl":"S","population":0,"countryCode":"US","name":"Carthage Middle School","fclName":"spot, building, farm","adminCodes1":{"ISO3166_2":"NY"},"countryName":"United States","fcodeName":"school","adminName1":"New York","lat":"43.98628","fcode":"SCH"},{"adminCode1":"NY","lng":"-75.61106","geonameId":8082849,"toponymName":"Carthage Mennonite Church","countryId":"6252001","fcl":"S","population":0,"countryCode":"US","name":"Carthage Mennonite Church","fclName":"spot, building, farm","adminCodes1":{"ISO3166_2":"NY"},"countryName":"United States","fcodeName":"church","adminName1":"New York","lat":"43.97833","fcode":"CH"},{"adminCode1":"NY","lng":"-75.60929","geonameId":8084378,"toponymName":"Carthage Free Library","countryId":"6252001","fcl":"S","population":0,"countryCode":"US","name":"Carthage Free Library","fclName":"spot, building, farm","adminCodes1":{"ISO3166_2":"NY"},"countryName":"United States","fcodeName":"library","adminName1":"New York","lat":"43.97962","fcode":"LIBR"},{"adminCode1":"NY","lng":"-75.5586","geonameId":8084681,"toponymName":"Carthage Armory","countryId":"6252001","fcl":"S","population":0,"countryCode":"US","name":"Carthage Armory","fclName":"spot, building, farm","adminCodes1":{"ISO3166_2":"NY"},"countryName":"United States","fcodeName":"military installation","adminName1":"New York","lat":"43.9786","fcode":"INSM"},{"adminCode1":"NY","lng":"-75.60726","geonameId":8084932,"toponymName":"Carthage Post Office","countryId":"6252001","fcl":"S","population":0,"countryCode":"US","name":"Carthage Post Office","fclName":"spot, building, farm","adminCodes1":{"ISO3166_2":"NY"},"countryName":"United States","fcodeName":"post office","adminName1":"New York","lat":"43.97957","fcode":"PO"},{"adminCode1":"NY","lng":"-75.61221","geonameId":8495255,"toponymName":"Carthage Area Rescue Squad","countryId":"6252001","fcl":"S","population":0,"countryCode":"US","name":"Carthage Area Rescue Squad","fclName":"spot, building, farm","adminCodes1":{"ISO3166_2":"NY"},"countryName":"United States","fcodeName":"building(s)","adminName1":"New York","lat":"43.97734","fcode":"BLDG"},{"adminCode1":"NY","lng":"-75.62334","geonameId":9671489,"toponymName":"West Carthage Volunteer Fire Department","countryId":"6252001","fcl":"S","population":0,"countryCode":"US","name":"West Carthage Volunteer Fire Department","fclName":"spot, building, farm","adminCodes1":{"ISO3166_2":"NY"},"countryName":"United States","fcodeName":"building(s)","adminName1":"New York","lat":"43.96965","fcode":"BLDG"},{"adminCode1":"NY","lng":"-75.62285","geonameId":11394153,"toponymName":"West Carthage Police Department","countryId":"6252001","fcl":"S","population":0,"countryCode":"US","name":"West Carthage Police Department","fclName":"spot, building, farm","adminCodes1":{"ISO3166_2":"NY"},"countryName":"United States","fcodeName":"building(s)","adminName1":"New York","lat":"43.97343","fcode":"BLDG"},{"adminCode1":"VT","lng":"-72.43621","geonameId":7131694,"toponymName":"Jay Volunteer Fire Department","countryId":"6252001","fcl":"S","population":0,"countryCode":"US","name":"Jay Volunteer Fire Department","fclName":"spot, building, farm","adminCodes1":{"ISO3166_2":"VT"},"countryName":"United States","fcodeName":"building(s)","adminName1":"Vermont","lat":"44.95151","fcode":"BLDG"},{"adminCode1":"VT","lng":"-72.43855","geonameId":7311914,"toponymName":"Missisquoi Valley Ambulance Service","countryId":"6252001","fcl":"S","population":0,"countryCode":"US","name":"Missisquoi Valley Ambulance Service","fclName":"spot, building, farm","adminCodes1":{"ISO3166_2":"VT"},"countryName":"United States","fcodeName":"building(s)","adminName1":"Vermont","lat":"44.94648","fcode":"BLDG"},{"adminCode1":"VT","lng":"-72.50513","geonameId":7287902,"toponymName":"Jay Peak Ski & Summer Resort","countryId":"6252001","fcl":"S","population":0,"countryCode":"US","name":"Jay Peak Ski & Summer Resort","fclName":"spot, building, farm","adminCodes1":{"ISO3166_2":"VT"},"countryName":"United States","fcodeName":"resort","adminName1":"Vermont","lat":"44.9388","fcode":"RSRT"},{"adminCode1":"VT","lng":"-72.55123","geonameId":5242737,"toponymName":"West Jay Cemetery","countryId":"6252001","fcl":"S","population":0,"countryCode":"US","name":"West Jay Cemetery","fclName":"spot, building, farm","adminCodes1":{"ISO3166_2":"VT"},"countryName":"United States","fcodeName":"cemetery","adminName1":"Vermont","lat":"44.99671","fcode":"CMTY"},{"adminCode1":"VT","lng":"-72.44317","geonameId":5237449,"toponymName":"Jay Center Cemetery","countryId":"6252001","fcl":"S","population":0,"countryCode":"US","name":"Jay Center Cemetery","fclName":"spot, building, farm","adminCodes1":{"ISO3166_2":"VT"},"countryName":"United States","fcodeName":"cemetery","adminName1":"Vermont","lat":"44.96338","fcode":"CMTY"},{"adminCode1":"VT","lng":"-72.47733","geonameId":5237581,"toponymName":"Journeys End Camp","countryId":"6252001","fcl":"S","population":0,"countryCode":"US","name":"Journeys End Camp","fclName":"spot, building, farm","adminCodes1":{"ISO3166_2":"VT"},"countryName":"United States","fcodeName":"camp(s)","adminName1":"Vermont","lat":"45.00477","fcode":"CMP"},{"adminCode1":"VT","lng":"-72.53317","geonameId":5237872,"toponymName":"Laura Woodward Camp","countryId":"6252001","fcl":"S","population":0,"countryCode":"US","name":"Laura Woodward Camp","fclName":"spot, building, farm","adminCodes1":{"ISO3166_2":"VT"},"countryName":"United States","fcodeName":"camp(s)","adminName1":"Vermont","lat":"44.93727","fcode":"CMP"}]}
