{"totalResultsCount":2382,"geonames":[{"adminCode1":"VA","lng":"-76.46965","geonameId":4776024,"toponymName":"Newport News","countryId":"6252001","fcl":"P","population":182385,"countryCode":"US","name":"Newport News","fclName":"city, village,...","adminCodes1":{"ISO3166_2":"VA"},"countryName":"United States","fcodeName":"seat of a second-order administrative division","adminName1":"Virginia","lat":"37.08339","fcode":"PPLA2"},{"adminCode1":"RI","lng":"-71.31283","geonameId":5223593,"toponymName":"Newport","countryId":"6252001","fcl":"P","population":24232,"countryCode":"US","name":"Newport","fclName":"city, village,...","adminCodes1":{"ISO3166_2":"RI"},"countryName":"United States","fcodeName":"populated place","adminName1":"Rhode Island","lat":"41.4901","fcode":"PPL"},{"adminCode1":"CA","lng":"-117.92895","geonameId":5376890,"toponymName":"Newport Beach","countryId":"6252001","fcl":"P","population":87127,"countryCode":"US","name":"Newport Beach","fclName":"city, village,...","adminCodes1":{"ISO3166_2":"CA"},"countryName":"United States","fcodeName":"populated place","adminName1":"California","lat":"33.61891","fcode":"PPL"},{"adminCode1":"KY","lng":"-84.49578","geonameId":4302529,"toponymName":"Newport","countryId":"6252001","fcl":"P","population":15354,"countryCode":"US","name":"Newport","fclName":"city, village,...","adminCodes1":{"ISO3166_2":"KY"},"countryName":"United States","fcodeName":"seat of a second-order administrative division","adminName1":"Kentucky","lat":"39.09145","fcode":"PPLA2"},{"adminCode1":"RI","lng":"-71.28172","geonameId":5223619,"toponymName":"Newport State Airport","countryId":"6252001","fcl":"S","population":0,"countryCode":"US","name":"Newport State Airport","fclName":"spot, building, farm","adminCodes1":{"ISO3166_2":"RI"},"countryName":"United States","fcodeName":"airport","adminName1":"Rhode Island","lat":"41.53205","fcode":"AIRP"},{"adminCode1":"RI","lng":"-71.29144","geonameId":5223358,"toponymName":"Middletown","countryId":"6252001","fcl":"P","population":17303,"countryCode":"US","name":"Middletown","fclName":"city, village,...","adminCodes1":{"ISO3166_2":"RI"},"countryName":"United States","fcodeName":"populated place","adminName1":"Rhode Island","lat":"41.54566","fcode":"PPL"},{"adminCode1":"RI","lng":"-71.25033","geonameId":5224082,"toponymName":"Portsmouth","countryId":"6252001","fcl":"P","population":17756,"countryCode":"US","name":"Portsmouth","fclName":"city, village,...","adminCodes1":{"ISO3166_2":"RI"},"countryName":"United States","fcodeName":"populated place","adminName1":"Rhode Island","lat":"41.60232","fcode":"PPL"},{"adminCode1":"RI","lng":"-71.16573","geonameId":5221071,"toponymName":"Briggs Marsh","countryId":"6252001","fcl":"H","population":0,"countryCode":"US","name":"Briggs Marsh","fclName":"stream, lake, ...","adminCodes1":{"ISO3166_2":"RI"},"countryName":"United States","fcodeName":"lake","adminName1":"Rhode Island","lat":"41.47793","fcode":"LK"},{"adminCode1":"VA","lng":"-76.49273","geonameId":4776038,"toponymName":"Newport News-Williamsburg International Airport","countryId":"6252001","fcl":"S","population":0,"countryCode":"US","name":"Newport News-Williamsburg International Airport","fclName":"spot, building, farm","adminCodes1":{"ISO3166_2":"VA"},"countryName":"United States","fcodeName":"airport","adminName1":"Virginia","lat":"37.13181","fcode":"AIRP"},{"adminCode1":"MN","lng":"-93.00049","geonameId":5039211,"toponymName":"Newport","countryId":"6252001","fcl":"P","population":3480,"countryCode":"US","name":"Newport","fclName":"city, village,...","adminCodes1":{"ISO3166_2":"MN"},"countryName":"United States","fcodeName":"populated place","adminName1":"Minnesota","lat":"44.86636","fcode":"PPL"},{"adminCode1":"CA","lng":"-122.0308","geonameId":5393052,"toponymName":"Santa Cruz","countryId":"6252001","fcl":"P","population":64220,"countryCode":"US","name":"Santa Cruz","fclName":"city, village,...","adminCodes1":{"ISO3166_2":"CA"},"countryName":"United States","fcodeName":"seat of a second-order administrative division","adminName1":"California","lat":"36.97412","fcode":"PPLA2"},{"adminCode1":"RI","lng":"-71.281","geonameId":5223601,"toponymName":"Newport County","countryId":"6252001","fcl":"A","population":82888,"countryCode":"US","name":"Newport","fclName":"country, state, region,...","adminCodes1":{"ISO3166_2":"RI"},"countryName":"United States","fcodeName":"second-order administrative division","adminName1":"Rhode Island","lat":"41.4998","fcode":"ADM2"},{"adminCode1":"RI","lng":"-71.28752","geonameId":7257658,"toponymName":"Newport East","countryId":"6252001","fcl":"P","population":11769,"countryCode":"US","name":"Newport East","fclName":"city, village,...","adminCodes1":{"ISO3166_2":"RI"},"countryName":"United States","fcodeName":"populated place","adminName1":"Rhode Island","lat":"41.51579","fcode":"PPL"},{"adminCode1":"VA","lng":"-76.50801","geonameId":4776037,"toponymName":"City of Newport News","countryId":"6252001","fcl":"A","population":180719,"countryCode":"US","name":"Newport News","fclName":"country, state, region,...","adminCodes1":{"ISO3166_2":"VA"},"countryName":"United States","fcodeName":"second-order administrative division","adminName1":"Virginia","lat":"37.06265","fcode":"ADM2"},{"adminCode1":"RI","lng":"-71.36728","geonameId":5222866,"toponymName":"Jamestown","countryId":"6252001","fcl":"P","population":5755,"countryCode":"US","name":"Jamestown","fclName":"city, village,...","adminCodes1":{"ISO3166_2":"RI"},"countryName":"United States","fcodeName":"populated place","adminName1":"Rhode Island","lat":"41.49705","fcode":"PPL"},{"adminCode1":"RI","lng":"-71.17116","geonameId":5223129,"toponymName":"Little Compton","countryId":"6252001","fcl":"P","population":0,"countryCode":"US","name":"Little Compton","fclName":"city, village,...","adminCodes1":{"ISO3166_2":"RI"},"countryName":"United States","fcodeName":"populated place","adminName1":"Rhode Island","lat":"41.5101","fcode":"PPL"},{"adminCode1":"RI","lng":"-71.26422","geonameId":5224284,"toponymName":"Rhode Island","countryId":"6252001","fcl":"T","population":0,"countryCode":"US","name":"Rhode Island","fclName":"mountain,hill,rock,... ","adminCodes1":{"ISO3166_2":"RI"},"countryName":"United States","fcodeName":"island","adminName1":"Rhode Island","lat":"41.55566","fcode":"ISL"},{"adminCode1":"RI","lng":"-71.21338","geonameId":5225245,"toponymName":"Tiverton","countryId":"6252001","fcl":"P","population":7557,"countryCode":"US","name":"Tiverton","fclName":"city, village,...","adminCodes1":{"ISO3166_2":"RI"},"countryName":"United States","fcodeName":"populated place","adminName1":"Rhode Island","lat":"41.62594","fcode":"PPL"},{"adminCode1":"OR","lng":"-124.05817","geonameId":5742751,"toponymName":"Newport Municipal Airport","countryId":"6252001","fcl":"S","population":0,"countryCode":"US","name":"Newport Municipal Airport","fclName":"spot, building, farm","adminCodes1":{"ISO3166_2":"OR"},"countryName":"United States","fcodeName":"airport","adminName1":"Oregon","lat":"44.57984","fcode":"AIRP"},{"adminCode1":"TN","lng":"-83.18766","geonameId":4645532,"toponymName":"Newport","countryId":"6252001","fcl":"P","population":6834,"countryCode":"US","name":"Newport","fclName":"city, village,...","adminCodes1":{"ISO3166_2":"TN"},"countryName":"United States","fcodeName":"seat of a second-order administrative division","adminName1":"Tennessee","lat":"35.96704","fcode":"PPLA2"},{"adminCode1":"VA","lng":"-76.54134","geonameId":4776034,"toponymName":"Newport News Park","countryId":"6252001","fcl":"L","population":0,"countryCode":"US","name":"Newport News Park","fclName":"parks,area, ...","adminCodes1":{"ISO3166_2":"VA"},"countryName":"United States","fcodeName":"park","adminName1":"Virginia","lat":"37.18903","fcode":"PRK"},{"adminCode1":"OR","lng":"-124.05345","geonameId":5742750,"toponymName":"Newport","countryId":"6252001","fcl":"P","population":10268,"countryCode":"US","name":"Newport","fclName":"city, village,...","adminCodes1":{"ISO3166_2":"OR"},"countryName":"United States","fcodeName":"seat of a second-order administrative division","adminName1":"Oregon","lat":"44.63678","fcode":"PPLA2"},{"adminCode1":"OH","lng":"-81.22678","geonameId":4519745,"toponymName":"Newport","countryId":"6252001","fcl":"P","population":1003,"countryCode":"US","name":"Newport","fclName":"city, village,...","adminCodes1":{"ISO3166_2":"OH"},"countryName":"United States","fcodeName":"populated place","adminName1":"Ohio","lat":"39.39091","fcode":"PPL"},{"adminCode1":"RI","lng":"-71.20088","geonameId":5223500,"toponymName":"Nannaquaket Pond","countryId":"6252001","fcl":"H","population":0,"countryCode":"US","name":"Nannaquaket Pond","fclName":"stream, lake, ...","adminCodes1":{"ISO3166_2":"RI"},"countryName":"United States","fcodeName":"lake","adminName1":"Rhode Island","lat":"41.61088","fcode":"LK"},{"adminCode1":"RI","lng":"-71.25588","geonameId":5223657,"toponymName":"Norman Bird Sanctuary","countryId":"6252001","fcl":"L","population":0,"countryCode":"US","name":"Norman Bird Sanctuary","fclName":"parks,area, ...","adminCodes1":{"ISO3166_2":"RI"},"countryName":"United States","fcodeName":"park","adminName1":"Rhode Island","lat":"41.49844","fcode":"PRK"},{"adminCode1":"RI","lng":"-71.31755","geonameId":5224184,"toponymName":"Prudence Island","countryId":"6252001","fcl":"T","population":0,"countryCode":"US","name":"Prudence Island","fclName":"mountain,hill,rock,... ","adminCodes1":{"ISO3166_2":"RI"},"countryName":"United States","fcodeName":"island","adminName1":"Rhode Island","lat":"41.60344","fcode":"ISL"},{"adminCode1":"RI","lng":"-71.13044","geonameId":5224215,"toponymName":"Quicksand Pond","countryId":"6252001","fcl":"H","population":0,"countryCode":"US","name":"Quicksand Pond","fclName":"stream, lake, ...","adminCodes1":{"ISO3166_2":"RI"},"countryName":"United States","fcodeName":"lake","adminName1":"Rhode Island","lat":"41.50641","fcode":"LK"},{"adminCode1":"RI","lng":"-71.24387","geonameId":5224484,"toponymName":"Sachuest Point National Wildlife Refuge","countryId":"6252001","fcl":"L","population":0,"countryCode":"US","name":"Sachuest Point National Wildlife Refuge","fclName":"parks,area, ...","adminCodes1":{"ISO3166_2":"RI"},"countryName":"United States","fcodeName":"park","adminName1":"Rhode Island","lat":"41.48151","fcode":"PRK"},{"adminCode1":"RI","lng":"-71.37478","geonameId":5225760,"toponymName":"Windmill Hill Historic District","countryId":"6252001","fcl":"L","population":0,"countryCode":"US","name":"Windmill Hill Historic District","fclName":"parks,area, ...","adminCodes1":{"ISO3166_2":"RI"},"countryName":"United States","fcodeName":"park","adminName1":"Rhode Island","lat":"41.52649","fcode":"PRK"},{"adminCode1":"RI","lng":"-71.37589","geonameId":5220698,"toponymName":"Artillery Park","countryId":"6252001","fcl":"L","population":0,"countryCode":"US","name":"Artillery Park","fclName":"parks,area, ...","adminCodes1":{"ISO3166_2":"RI"},"countryName":"United States","fcodeName":"park","adminName1":"Rhode Island","lat":"41.49594","fcode":"PRK"},{"adminCode1":"RI","lng":"-71.30727","geonameId":5220871,"toponymName":"Bellevue Avenue Historic District","countryId":"6252001","fcl":"L","population":0,"countryCode":"US","name":"Bellevue Avenue Historic District","fclName":"parks,area, ...","adminCodes1":{"ISO3166_2":"RI"},"countryName":"United States","fcodeName":"park","adminName1":"Rhode Island","lat":"41.4701","fcode":"PRK"},{"adminCode1":"RI","lng":"-71.31616","geonameId":5221278,"toponymName":"Cardines Field","countryId":"6252001","fcl":"L","population":0,"countryCode":"US","name":"Cardines Field","fclName":"parks,area, ...","adminCodes1":{"ISO3166_2":"RI"},"countryName":"United States","fcodeName":"park","adminName1":"Rhode Island","lat":"41.49066","fcode":"PRK"},{"adminCode1":"RI","lng":"-71.27394","geonameId":5222453,"toponymName":"Green Animals Topiary Garden","countryId":"6252001","fcl":"L","population":0,"countryCode":"US","name":"Green Animals Topiary Garden","fclName":"parks,area, ...","adminCodes1":{"ISO3166_2":"RI"},"countryName":"United States","fcodeName":"park","adminName1":"Rhode Island","lat":"41.60344","fcode":"PRK"},{"adminCode1":"RI","lng":"-71.19528","geonameId":4833724,"toponymName":"Nonquit Pond","countryId":"6252001","fcl":"H","population":0,"countryCode":"US","name":"Nonquit Pond","fclName":"stream, lake, ...","adminCodes1":{"ISO3166_2":"RI"},"countryName":"United States","fcodeName":"lake","adminName1":"Rhode Island","lat":"41.56399","fcode":"LK"},{"adminCode1":"VT","lng":"-72.2051","geonameId":5239058,"toponymName":"Newport","countryId":"6252001","fcl":"P","population":4442,"countryCode":"US","name":"Newport","fclName":"city, village,...","adminCodes1":{"ISO3166_2":"VT"},"countryName":"United States","fcodeName":"seat of a second-order administrative division","adminName1":"Vermont","lat":"44.93644","fcode":"PPLA2"},{"adminCode1":"VT","lng":"-72.22526","geonameId":5239066,"toponymName":"Newport State Airport","countryId":"6252001","fcl":"S","population":0,"countryCode":"US","name":"Newport State Airport","fclName":"spot, building, farm","adminCodes1":{"ISO3166_2":"VT"},"countryName":"United States","fcodeName":"airport","adminName1":"Vermont","lat":"44.88856","fcode":"AIRP"},{"adminCode1":"PA","lng":"-77.13054","geonameId":5203317,"toponymName":"Newport","countryId":"6252001","fcl":"P","population":1566,"countryCode":"US","name":"Newport","fclName":"city, village,...","adminCodes1":{"ISO3166_2":"PA"},"countryName":"United States","fcodeName":"populated place","adminName1":"Pennsylvania","lat":"40.47786","fcode":"PPL"},{"adminCode1":"ME","lng":"-69.27394","geonameId":4973333,"toponymName":"Newport","countryId":"6252001","fcl":"P","population":1776,"countryCode":"US","name":"Newport","fclName":"city, village,...","adminCodes1":{"ISO3166_2":"ME"},"countryName":"United States","fcodeName":"populated place","adminName1":"Maine","lat":"44.83534","fcode":"PPL"},{"adminCode1":"WV","lng":"-81.56151","geonameId":4817641,"toponymName":"Parkersburg","countryId":"6252001","fcl":"P","population":30991,"countryCode":"US","name":"Parkersburg","fclName":"city, village,...","adminCodes1":{"ISO3166_2":"WV"},"countryName":"United States","fcodeName":"seat of a second-order administrative division","adminName1":"West Virginia","lat":"39.26674","fcode":"PPLA2"},{"adminCode1":"AR","lng":"-91.2818","geonameId":4123830,"toponymName":"Newport","countryId":"6252001","fcl":"P","population":7767,"countryCode":"US","name":"Newport","fclName":"city, village,...","adminCodes1":{"ISO3166_2":"AR"},"countryName":"United States","fcodeName":"seat of a second-order administrative division","adminName1":"Arkansas","lat":"35.6048","fcode":"PPLA2"},{"adminCode1":"RI","lng":"-71.31116","geonameId":5223353,"toponymName":"Miantonomi Hill","countryId":"6252001","fcl":"T","population":0,"countryCode":"US","name":"Miantonomi Hill","fclName":"mountain,hill,rock,... ","adminCodes1":{"ISO3166_2":"RI"},"countryName":"United States","fcodeName":"mountain","adminName1":"Rhode Island","lat":"41.51038","fcode":"MT"},{"adminCode1":"RI","lng":"-71.32746","geonameId":5222352,"toponymName":"Goat Island","countryId":"6252001","fcl":"T","population":0,"countryCode":"US","name":"Goat Island","fclName":"mountain,hill,rock,... ","adminCodes1":{"ISO3166_2":"RI"},"countryName":"United States","fcodeName":"island","adminName1":"Rhode Island","lat":"41.48845","fcode":"ISL"},{"adminCode1":"VT","lng":"-72.30649","geonameId":5239060,"toponymName":"Newport Center","countryId":"6252001","fcl":"P","population":274,"countryCode":"US","name":"Newport Center","fclName":"city, village,...","adminCodes1":{"ISO3166_2":"VT"},"countryName":"United States","fcodeName":"populated place","adminName1":"Vermont","lat":"44.95088","fcode":"PPL"},{"adminCode1":"RI","lng":"-71.28338","geonameId":5223324,"toponymName":"Melville","countryId":"6252001","fcl":"P","population":1320,"countryCode":"US","name":"Melville","fclName":"city, village,...","adminCodes1":{"ISO3166_2":"RI"},"countryName":"United States","fcodeName":"populated place","adminName1":"Rhode Island","lat":"41.58705","fcode":"PPL"},{"adminCode1":"RI","lng":"-71.30866","geonameId":5223331,"toponymName":"Memorial Park","countryId":"6252001","fcl":"L","population":0,"countryCode":"US","name":"Memorial Park","fclName":"parks,area, ...","adminCodes1":{"ISO3166_2":"RI"},"countryName":"United States","fcodeName":"park","adminName1":"Rhode Island","lat":"41.5101","fcode":"PRK"},{"adminCode1":"RI","lng":"-71.32002","geonameId":5223497,"toponymName":"Nag Pond","countryId":"6252001","fcl":"H","population":0,"countryCode":"US","name":"Nag Pond","fclName":"stream, lake, ...","adminCodes1":{"ISO3166_2":"RI"},"countryName":"United States","fcodeName":"lake","adminName1":"Rhode Island","lat":"41.62863","fcode":"LK"},{"adminCode1":"RI","lng":"-71.25644","geonameId":5224812,"toponymName":"Second Beach","countryId":"6252001","fcl":"T","population":0,"countryCode":"US","name":"Second Beach","fclName":"mountain,hill,rock,... ","adminCodes1":{"ISO3166_2":"RI"},"countryName":"United States","fcodeName":"beach","adminName1":"Rhode Island","lat":"41.48483","fcode":"BCH"},{"adminCode1":"RI","lng":"-71.14867","geonameId":5224894,"toponymName":"Simmons Pond","countryId":"6252001","fcl":"H","population":0,"countryCode":"US","name":"Simmons Pond","fclName":"stream, lake, ...","adminCodes1":{"ISO3166_2":"RI"},"countryName":"United States","fcodeName":"lake","adminName1":"Rhode Island","lat":"41.53964","fcode":"LK"},{"adminCode1":"RI","lng":"-71.13116","geonameId":5220559,"toponymName":"Adamsville","countryId":"6252001","fcl":"P","population":0,"countryCode":"US","name":"Adamsville","fclName":"city, village,...","adminCodes1":{"ISO3166_2":"RI"},"countryName":"United States","fcodeName":"populated place","adminName1":"Rhode Island","lat":"41.55455","fcode":"PPL"},{"adminCode1":"RI","lng":"-71.327","geonameId":5221506,"toponymName":"Coasters Harbor Island","countryId":"6252001","fcl":"T","population":0,"countryCode":"US","name":"Coasters Harbor Island","fclName":"mountain,hill,rock,... ","adminCodes1":{"ISO3166_2":"RI"},"countryName":"United States","fcodeName":"island","adminName1":"Rhode Island","lat":"41.51066","fcode":"ISL"},{"adminCode1":"RI","lng":"-71.37589","geonameId":5221564,"toponymName":"Conanicut Island","countryId":"6252001","fcl":"T","population":0,"countryCode":"US","name":"Conanicut Island","fclName":"mountain,hill,rock,... ","adminCodes1":{"ISO3166_2":"RI"},"countryName":"United States","fcodeName":"island","adminName1":"Rhode Island","lat":"41.5376","fcode":"ISL"},{"adminCode1":"RI","lng":"-71.40005","geonameId":5221855,"toponymName":"Dutch Island","countryId":"6252001","fcl":"T","population":0,"countryCode":"US","name":"Dutch Island","fclName":"mountain,hill,rock,... ","adminCodes1":{"ISO3166_2":"RI"},"countryName":"United States","fcodeName":"island","adminName1":"Rhode Island","lat":"41.50399","fcode":"ISL"},{"adminCode1":"RI","lng":"-71.3445","geonameId":5222389,"toponymName":"Gould Island","countryId":"6252001","fcl":"T","population":0,"countryCode":"US","name":"Gould Island","fclName":"mountain,hill,rock,... ","adminCodes1":{"ISO3166_2":"RI"},"countryName":"United States","fcodeName":"island","adminName1":"Rhode Island","lat":"41.53344","fcode":"ISL"},{"adminCode1":"ME","lng":"-69.22255","geonameId":4963329,"toponymName":"East Newport","countryId":"6252001","fcl":"P","population":0,"countryCode":"US","name":"East Newport","fclName":"city, village,...","adminCodes1":{"ISO3166_2":"ME"},"countryName":"United States","fcodeName":"populated place","adminName1":"Maine","lat":"44.8209","fcode":"PPL"},{"adminCode1":"RI","lng":"-71.33533","geonameId":5222892,"toponymName":"Jenny Pond","countryId":"6252001","fcl":"H","population":0,"countryCode":"US","name":"Jenny Pond","fclName":"stream, lake, ...","adminCodes1":{"ISO3166_2":"RI"},"countryName":"United States","fcodeName":"lake","adminName1":"Rhode Island","lat":"41.63121","fcode":"LK"},{"adminCode1":"RI","lng":"-71.31672","geonameId":5223484,"toponymName":"Murphy Field","countryId":"6252001","fcl":"L","population":0,"countryCode":"US","name":"Murphy Field","fclName":"parks,area, ...","adminCodes1":{"ISO3166_2":"RI"},"countryName":"United States","fcodeName":"park","adminName1":"Rhode Island","lat":"41.46816","fcode":"PRK"},{"adminCode1":"RI","lng":"-71.30449","geonameId":5224440,"toponymName":"Rough Point","countryId":"6252001","fcl":"T","population":0,"countryCode":"US","name":"Rough Point","fclName":"mountain,hill,rock,... ","adminCodes1":{"ISO3166_2":"RI"},"countryName":"United States","fcodeName":"cape","adminName1":"Rhode Island","lat":"41.45455","fcode":"CAPE"},{"adminCode1":"RI","lng":"-71.1866","geonameId":5224443,"toponymName":"Round Pond","countryId":"6252001","fcl":"H","population":0,"countryCode":"US","name":"Round Pond","fclName":"stream, lake, ...","adminCodes1":{"ISO3166_2":"RI"},"countryName":"United States","fcodeName":"lake","adminName1":"Rhode Island","lat":"41.46317","fcode":"LK"},{"adminCode1":"RI","lng":"-71.24755","geonameId":5224483,"toponymName":"Sachuest Point","countryId":"6252001","fcl":"T","population":0,"countryCode":"US","name":"Sachuest Point","fclName":"mountain,hill,rock,... ","adminCodes1":{"ISO3166_2":"RI"},"countryName":"United States","fcodeName":"cape","adminName1":"Rhode Island","lat":"41.47233","fcode":"CAPE"},{"adminCode1":"RI","lng":"-71.30922","geonameId":5225271,"toponymName":"Touro Park","countryId":"6252001","fcl":"L","population":0,"countryCode":"US","name":"Touro Park","fclName":"parks,area, ...","adminCodes1":{"ISO3166_2":"RI"},"countryName":"United States","fcodeName":"park","adminName1":"Rhode Island","lat":"41.48566","fcode":"PRK"},{"adminCode1":"RI","lng":"-71.13966","geonameId":5225314,"toponymName":"Tunipus Pond","countryId":"6252001","fcl":"H","population":0,"countryCode":"US","name":"Tunipus Pond","fclName":"stream, lake, ...","adminCodes1":{"ISO3166_2":"RI"},"countryName":"United States","fcodeName":"lake","adminName1":"Rhode Island","lat":"41.49692","fcode":"LK"},{"adminCode1":"RI","lng":"-71.36144","geonameId":5221789,"toponymName":"Despair Island","countryId":"6252001","fcl":"T","population":0,"countryCode":"US","name":"Despair Island","fclName":"mountain,hill,rock,... ","adminCodes1":{"ISO3166_2":"RI"},"countryName":"United States","fcodeName":"island","adminName1":"Rhode Island","lat":"41.60788","fcode":"ISL"},{"adminCode1":"ME","lng":"-69.23654","geonameId":4973340,"toponymName":"Newport Sky Park","countryId":"6252001","fcl":"S","population":0,"countryCode":"US","name":"Newport Sky Park","fclName":"spot, building, farm","adminCodes1":{"ISO3166_2":"ME"},"countryName":"United States","fcodeName":"airport","adminName1":"Maine","lat":"44.82173","fcode":"AIRP"},{"adminCode1":"VA","lng":"-76.53083","geonameId":6347850,"toponymName":"Riverview Farm Park","countryId":"6252001","fcl":"L","population":0,"countryCode":"US","name":"Riverview Farm Park","fclName":"parks,area, ...","adminCodes1":{"ISO3166_2":"VA"},"countryName":"United States","fcodeName":"park","adminName1":"Virginia","lat":"37.08917","fcode":"PRK"},{"adminCode1":"VA","lng":"-76.53167","geonameId":6347852,"toponymName":"Nicewood Park","countryId":"6252001","fcl":"L","population":0,"countryCode":"US","name":"Nicewood Park","fclName":"parks,area, ...","adminCodes1":{"ISO3166_2":"VA"},"countryName":"United States","fcodeName":"park","adminName1":"Virginia","lat":"37.11111","fcode":"PRK"},{"adminCode1":"VA","lng":"-76.41078","geonameId":4769600,"toponymName":"King-Lincoln Park","countryId":"6252001","fcl":"L","population":0,"countryCode":"US","name":"King-Lincoln Park","fclName":"parks,area, ...","adminCodes1":{"ISO3166_2":"VA"},"countryName":"United States","fcodeName":"park","adminName1":"Virginia","lat":"36.96681","fcode":"PRK"},{"adminCode1":"AR","lng":"-91.1777","geonameId":4123840,"toponymName":"Newport Municipal Airport","countryId":"6252001","fcl":"S","population":0,"countryCode":"US","name":"Newport Municipal Airport","fclName":"spot, building, farm","adminCodes1":{"ISO3166_2":"AR"},"countryName":"United States","fcodeName":"airport","adminName1":"Arkansas","lat":"35.64048","fcode":"AIRP"},{"adminCode1":"WI","lng":"-86.99734","geonameId":5264548,"toponymName":"Newport State Park","countryId":"6252001","fcl":"L","population":0,"countryCode":"US","name":"Newport State Park","fclName":"parks,area, ...","adminCodes1":{"ISO3166_2":"WI"},"countryName":"United States","fcodeName":"park","adminName1":"Wisconsin","lat":"45.24721","fcode":"PRK"},{"adminCode1":"DE","lng":"-75.60937","geonameId":4143871,"toponymName":"Newport","countryId":"6252001","fcl":"P","population":1058,"countryCode":"US","name":"Newport","fclName":"city, village,...","adminCodes1":{"ISO3166_2":"DE"},"countryName":"United States","fcodeName":"populated place","adminName1":"Delaware","lat":"39.71372","fcode":"PPL"},{"adminCode1":"CA","lng":"-117.91895","geonameId":5376889,"toponymName":"Newport Beach","countryId":"6252001","fcl":"T","population":0,"countryCode":"US","name":"Newport Beach","fclName":"mountain,hill,rock,... ","adminCodes1":{"ISO3166_2":"CA"},"countryName":"United States","fcodeName":"beach","adminName1":"California","lat":"33.59058","fcode":"BCH"},{"adminCode1":"NH","lng":"-72.17342","geonameId":5090256,"toponymName":"Newport","countryId":"6252001","fcl":"P","population":4769,"countryCode":"US","name":"Newport","fclName":"city, village,...","adminCodes1":{"ISO3166_2":"NH"},"countryName":"United States","fcodeName":"seat of a second-order administrative division","adminName1":"New Hampshire","lat":"43.36535","fcode":"PPLA2"},{"adminCode1":"RI","lng":"-71.32292","geonameId":5223623,"toponymName":"City of Newport","countryId":"6252001","fcl":"A","population":24672,"countryCode":"US","name":"City of Newport","fclName":"country, state, region,...","adminCodes1":{"ISO3166_2":"RI"},"countryName":"United States","fcodeName":"third-order administrative division","adminName1":"Rhode Island","lat":"41.48199","fcode":"ADM3"},{"adminCode1":"MO","lng":"-94.10439","geonameId":4400573,"toponymName":"Newport","countryId":"6252001","fcl":"P","population":0,"countryCode":"US","name":"Newport","fclName":"city, village,...","adminCodes1":{"ISO3166_2":"MO"},"countryName":"United States","fcodeName":"populated place","adminName1":"Missouri","lat":"37.52782","fcode":"PPL"},{"adminCode1":"CA","lng":"-117.88333","geonameId":6297519,"toponymName":"Newport Beach","countryId":"6252001","fcl":"S","population":0,"countryCode":"US","name":"Newport Beach","fclName":"spot, building, farm","adminCodes1":{"ISO3166_2":"CA"},"countryName":"United States","fcodeName":"meteorological station","adminName1":"California","lat":"33.6","fcode":"STNM"},{"adminCode1":"VA","lng":"-76.49463","geonameId":4776019,"toponymName":"Christopher Newport University","countryId":"6252001","fcl":"S","population":0,"countryCode":"US","name":"Christopher Newport University","fclName":"spot, building, farm","adminCodes1":{"ISO3166_2":"VA"},"countryName":"United States","fcodeName":"school","adminName1":"Virginia","lat":"37.06359","fcode":"SCH"},{"adminCode1":"NC","lng":"-76.85911","geonameId":4482084,"toponymName":"Newport","countryId":"6252001","fcl":"P","population":4723,"countryCode":"US","name":"Newport","fclName":"city, village,...","adminCodes1":{"ISO3166_2":"NC"},"countryName":"United States","fcodeName":"populated place","adminName1":"North Carolina","lat":"34.78655","fcode":"PPL"},{"adminCode1":"WA","lng":"-117.04326","geonameId":5804694,"toponymName":"Newport","countryId":"6252001","fcl":"P","population":2137,"countryCode":"US","name":"Newport","fclName":"city, village,...","adminCodes1":{"ISO3166_2":"WA"},"countryName":"United States","fcodeName":"seat of a second-order administrative division","adminName1":"Washington","lat":"48.17963","fcode":"PPLA2"},{"adminCode1":"RI","lng":"-71.30699","geonameId":5222828,"toponymName":"International Tennis Hall of Fame","countryId":"6252001","fcl":"S","population":0,"countryCode":"US","name":"International Tennis Hall of Fame","fclName":"spot, building, farm","adminCodes1":{"ISO3166_2":"RI"},"countryName":"United States","fcodeName":"building(s)","adminName1":"Rhode Island","lat":"41.48149","fcode":"BLDG"},{"adminCode1":"RI","lng":"-71.31311","geonameId":5220751,"toponymName":"Bailey Beach","countryId":"6252001","fcl":"T","population":0,"countryCode":"US","name":"Bailey Beach","fclName":"mountain,hill,rock,... ","adminCodes1":{"ISO3166_2":"RI"},"countryName":"United States","fcodeName":"beach","adminName1":"Rhode Island","lat":"41.45649","fcode":"BCH"},{"adminCode1":"RI","lng":"-71.29116","geonameId":5221943,"toponymName":"Easton Beach","countryId":"6252001","fcl":"T","population":0,"countryCode":"US","name":"Easton Beach","fclName":"mountain,hill,rock,... ","adminCodes1":{"ISO3166_2":"RI"},"countryName":"United States","fcodeName":"beach","adminName1":"Rhode Island","lat":"41.4876","fcode":"BCH"},{"adminCode1":"RI","lng":"-71.32116","geonameId":5222371,"toponymName":"Gooseberry Beach","countryId":"6252001","fcl":"T","population":0,"countryCode":"US","name":"Gooseberry Beach","fclName":"mountain,hill,rock,... ","adminCodes1":{"ISO3166_2":"RI"},"countryName":"United States","fcodeName":"beach","adminName1":"Rhode Island","lat":"41.4601","fcode":"BCH"},{"adminCode1":"RI","lng":"-71.32533","geonameId":5222590,"toponymName":"Hazard Beach","countryId":"6252001","fcl":"T","population":0,"countryCode":"US","name":"Hazard Beach","fclName":"mountain,hill,rock,... ","adminCodes1":{"ISO3166_2":"RI"},"countryName":"United States","fcodeName":"beach","adminName1":"Rhode Island","lat":"41.45982","fcode":"BCH"},{"adminCode1":"IL","lng":"-87.92397","geonameId":4915294,"toponymName":"Wadsworth","countryId":"6252001","fcl":"P","population":3739,"countryCode":"US","name":"Wadsworth","fclName":"city, village,...","adminCodes1":{"ISO3166_2":"IL"},"countryName":"United States","fcodeName":"populated place","adminName1":"Illinois","lat":"42.42863","fcode":"PPL"},{"adminCode1":"RI","lng":"-71.31311","geonameId":5223608,"toponymName":"Newport Historic District","countryId":"6252001","fcl":"L","population":0,"countryCode":"US","name":"Newport Historic District","fclName":"parks,area, ...","adminCodes1":{"ISO3166_2":"RI"},"countryName":"United States","fcodeName":"park","adminName1":"Rhode Island","lat":"41.49038","fcode":"PRK"},{"adminCode1":"RI","lng":"-71.24144","geonameId":5224480,"toponymName":"Sachuest","countryId":"6252001","fcl":"P","population":0,"countryCode":"US","name":"Sachuest","fclName":"city, village,...","adminCodes1":{"ISO3166_2":"RI"},"countryName":"United States","fcodeName":"populated place","adminName1":"Rhode Island","lat":"41.48038","fcode":"PPL"},{"adminCode1":"OH","lng":"-81.34512","geonameId":4517172,"toponymName":"Lower Newport","countryId":"6252001","fcl":"P","population":0,"countryCode":"US","name":"Lower Newport","fclName":"city, village,...","adminCodes1":{"ISO3166_2":"OH"},"countryName":"United States","fcodeName":"populated place","adminName1":"Ohio","lat":"39.35202","fcode":"PPL"},{"adminCode1":"RI","lng":"-71.32","geonameId":7309458,"toponymName":"Little Ida Lewis Rock","countryId":"6252001","fcl":"T","population":0,"countryCode":"US","name":"Little Ida Lewis Rock","fclName":"mountain,hill,rock,... ","adminCodes1":{"ISO3166_2":"RI"},"countryName":"United States","fcodeName":"island","adminName1":"Rhode Island","lat":"41.48","fcode":"ISL"},{"adminCode1":"RI","lng":"-71.33144","geonameId":5223194,"toponymName":"Long Wharf Mill","countryId":"6252001","fcl":"L","population":0,"countryCode":"US","name":"Long Wharf Mill","fclName":"parks,area, ...","adminCodes1":{"ISO3166_2":"RI"},"countryName":"United States","fcodeName":"park","adminName1":"Rhode Island","lat":"41.49094","fcode":"PRK"},{"adminCode1":"RI","lng":"-71.38283","geonameId":5223222,"toponymName":"Mackeral Cove Beach","countryId":"6252001","fcl":"T","population":0,"countryCode":"US","name":"Mackeral Cove Beach","fclName":"mountain,hill,rock,... ","adminCodes1":{"ISO3166_2":"RI"},"countryName":"United States","fcodeName":"beach","adminName1":"Rhode Island","lat":"41.48899","fcode":"BCH"},{"adminCode1":"RI","lng":"-71.25838","geonameId":5223495,"toponymName":"Musselbed Shoals","countryId":"6252001","fcl":"T","population":0,"countryCode":"US","name":"Musselbed Shoals","fclName":"mountain,hill,rock,... ","adminCodes1":{"ISO3166_2":"RI"},"countryName":"United States","fcodeName":"bar","adminName1":"Rhode Island","lat":"41.63538","fcode":"BAR"},{"adminCode1":"RI","lng":"-71.19143","geonameId":5223693,"toponymName":"North Tiverton","countryId":"6252001","fcl":"P","population":0,"countryCode":"US","name":"North Tiverton","fclName":"city, village,...","adminCodes1":{"ISO3166_2":"RI"},"countryName":"United States","fcodeName":"populated place","adminName1":"Rhode Island","lat":"41.66482","fcode":"PPL"},{"adminCode1":"RI","lng":"-71.3545","geonameId":5223738,"toponymName":"Ocean Drive State Park","countryId":"6252001","fcl":"L","population":0,"countryCode":"US","name":"Ocean Drive State Park","fclName":"parks,area, ...","adminCodes1":{"ISO3166_2":"RI"},"countryName":"United States","fcodeName":"park","adminName1":"Rhode Island","lat":"41.45288","fcode":"PRK"},{"adminCode1":"RI","lng":"-71.3595","geonameId":5223864,"toponymName":"Patience Island","countryId":"6252001","fcl":"T","population":0,"countryCode":"US","name":"Patience Island","fclName":"mountain,hill,rock,... ","adminCodes1":{"ISO3166_2":"RI"},"countryName":"United States","fcodeName":"island","adminName1":"Rhode Island","lat":"41.65677","fcode":"ISL"},{"adminCode1":"RI","lng":"-71.32977","geonameId":5224186,"toponymName":"Prudence Park","countryId":"6252001","fcl":"P","population":0,"countryCode":"US","name":"Prudence Park","fclName":"city, village,...","adminCodes1":{"ISO3166_2":"RI"},"countryName":"United States","fcodeName":"populated place","adminName1":"Rhode Island","lat":"41.60427","fcode":"PPL"},{"adminCode1":"RI","lng":"-71.31444","geonameId":5224203,"toponymName":"Queen Anne Square","countryId":"6252001","fcl":"L","population":0,"countryCode":"US","name":"Queen Anne Square","fclName":"parks,area, ...","adminCodes1":{"ISO3166_2":"RI"},"countryName":"United States","fcodeName":"park","adminName1":"Rhode Island","lat":"41.48733","fcode":"PRK"},{"adminCode1":"RI","lng":"-71.34116","geonameId":5224432,"toponymName":"Rose Island","countryId":"6252001","fcl":"T","population":0,"countryCode":"US","name":"Rose Island","fclName":"mountain,hill,rock,... ","adminCodes1":{"ISO3166_2":"RI"},"countryName":"United States","fcodeName":"island","adminName1":"Rhode Island","lat":"41.49649","fcode":"ISL"},{"adminCode1":"RI","lng":"-71.27026","geonameId":5224617,"toponymName":"Saint Marys Pond","countryId":"6252001","fcl":"H","population":0,"countryCode":"US","name":"Saint Marys Pond","fclName":"stream, lake, ...","adminCodes1":{"ISO3166_2":"RI"},"countryName":"United States","fcodeName":"lake","adminName1":"Rhode Island","lat":"41.55497","fcode":"LK"},{"adminCode1":"RI","lng":"-71.19477","geonameId":5224694,"toponymName":"Sakonnet Point","countryId":"6252001","fcl":"T","population":0,"countryCode":"US","name":"Sakonnet Point","fclName":"mountain,hill,rock,... ","adminCodes1":{"ISO3166_2":"RI"},"countryName":"United States","fcodeName":"cape","adminName1":"Rhode Island","lat":"41.45427","fcode":"CAPE"},{"adminCode1":"RI","lng":"-71.19949","geonameId":5224747,"toponymName":"Sapowet Marsh Wildlife Preserve","countryId":"6252001","fcl":"L","population":0,"countryCode":"US","name":"Sapowet Marsh Wildlife Preserve","fclName":"parks,area, ...","adminCodes1":{"ISO3166_2":"RI"},"countryName":"United States","fcodeName":"park","adminName1":"Rhode Island","lat":"41.58344","fcode":"PRK"},{"adminCode1":"RI","lng":"-71.34839","geonameId":5220827,"toponymName":"Bay Island Park","countryId":"6252001","fcl":"L","population":0,"countryCode":"US","name":"Bay Island Park","fclName":"parks,area, ...","adminCodes1":{"ISO3166_2":"RI"},"countryName":"United States","fcodeName":"park","adminName1":"Rhode Island","lat":"41.64149","fcode":"PRK"}]}
