{"totalResultsCount":28,"geonames":[{"adminCode1":"FL","lng":"-81.54105","geonameId":4166115,"toponymName":"Lake Norris","countryId":"6252001","fcl":"H","population":0,"countryCode":"US","name":"Lake Norris","fclName":"stream, lake, ...","adminCodes1":{"ISO3166_2":"FL"},"countryName":"United States","fcodeName":"lake","adminName1":"Florida","lat":"28.93935","fcode":"LK"},{"adminCode1":"MD","lng":"-76.3914","geonameId":4049064,"toponymName":"Norris Pond","countryId":"6252001","fcl":"H","population":0,"countryCode":"US","name":"Norris Pond","fclName":"stream, lake, ...","adminCodes1":{"ISO3166_2":"MD"},"countryName":"United States","fcodeName":"lake","adminName1":"Maryland","lat":"38.22644","fcode":"LK"},{"adminCode1":"NE","lng":"-102.85548","geonameId":5697913,"toponymName":"Norris Lake","countryId":"6252001","fcl":"H","population":0,"countryCode":"US","name":"Norris Lake","fclName":"stream, lake, ...","adminCodes1":{"ISO3166_2":"NE"},"countryName":"United States","fcodeName":"lake","adminName1":"Nebraska","lat":"41.82025","fcode":"LK"},{"adminCode1":"MN","lng":"-93.39023","geonameId":5281146,"toponymName":"Norris Lake","countryId":"6252001","fcl":"H","population":0,"countryCode":"US","name":"Norris Lake","fclName":"stream, lake, ...","adminCodes1":{"ISO3166_2":"MN"},"countryName":"United States","fcodeName":"lake","adminName1":"Minnesota","lat":"45.37876","fcode":"LK"},{"adminCode1":"MN","lng":"-95.56131","geonameId":5039396,"toponymName":"Norris Lake","countryId":"6252001","fcl":"H","population":0,"countryCode":"US","name":"Norris Lake","fclName":"stream, lake, ...","adminCodes1":{"ISO3166_2":"MN"},"countryName":"United States","fcodeName":"lake","adminName1":"Minnesota","lat":"47.26549","fcode":"LK"},{"adminCode1":"OR","lng":"-122.26926","geonameId":5742954,"toponymName":"Norris Pond","countryId":"6252001","fcl":"H","population":0,"countryCode":"US","name":"Norris Pond","fclName":"stream, lake, ...","adminCodes1":{"ISO3166_2":"OR"},"countryName":"United States","fcodeName":"lake","adminName1":"Oregon","lat":"42.46623","fcode":"LK"},{"adminCode1":"VA","lng":"-76.36513","geonameId":4776260,"toponymName":"Norris Pond","countryId":"6252001","fcl":"H","population":0,"countryCode":"US","name":"Norris Pond","fclName":"stream, lake, ...","adminCodes1":{"ISO3166_2":"VA"},"countryName":"United States","fcodeName":"lake","adminName1":"Virginia","lat":"37.74029","fcode":"LK"},{"adminCode1":"WI","lng":"-88.22938","geonameId":11382818,"toponymName":"Norris Pond","countryId":"6252001","fcl":"H","population":0,"countryCode":"US","name":"Norris Pond","fclName":"stream, lake, ...","adminCodes1":{"ISO3166_2":"WI"},"countryName":"United States","fcodeName":"lake","adminName1":"Wisconsin","lat":"42.84949","fcode":"LK"},{"adminCode1":"MI","lng":"-86.49556","geonameId":4995055,"toponymName":"Hagley Lake","countryId":"6252001","fcl":"H","population":0,"countryCode":"US","name":"Hagley Lake","fclName":"stream, lake, ...","adminCodes1":{"ISO3166_2":"MI"},"countryName":"United States","fcodeName":"lake","adminName1":"Michigan","lat":"41.85433","fcode":"LK"},{"adminCode1":"CA","lng":"-119.33903","geonameId":5377251,"toponymName":"Norris Lake","countryId":"6252001","fcl":"H","population":0,"countryCode":"US","name":"Norris Lake","fclName":"stream, lake, ...","adminCodes1":{"ISO3166_2":"CA"},"countryName":"United States","fcodeName":"lake","adminName1":"California","lat":"37.52722","fcode":"LK"},{"adminCode1":"ME","lng":"-68.57816","geonameId":4973897,"toponymName":"Noyes Pond","countryId":"6252001","fcl":"H","population":0,"countryCode":"US","name":"Noyes Pond","fclName":"stream, lake, ...","adminCodes1":{"ISO3166_2":"ME"},"countryName":"United States","fcodeName":"lake","adminName1":"Maine","lat":"44.44369","fcode":"LK"},{"adminCode1":"NY","lng":"-73.68051","geonameId":5128877,"toponymName":"Norris Pond","countryId":"6252001","fcl":"H","population":0,"countryCode":"US","name":"Norris Pond","fclName":"stream, lake, ...","adminCodes1":{"ISO3166_2":"NY"},"countryName":"United States","fcodeName":"lake","adminName1":"New York","lat":"41.71689","fcode":"LK"},{"adminCode1":"TN","lng":"-83.88252","geonameId":4645816,"toponymName":"Norris Lake","countryId":"6252001","fcl":"H","population":0,"countryCode":"US","name":"Norris Lake","fclName":"stream, lake, ...","adminCodes1":{"ISO3166_2":"TN"},"countryName":"United States","fcodeName":"reservoir(s)","adminName1":"Tennessee","lat":"36.30353","fcode":"RSV"},{"adminCode1":"GA","lng":"-84.03269","geonameId":4212932,"toponymName":"Norris Lake Shores","countryId":"6252001","fcl":"P","population":0,"countryCode":"US","name":"Norris Lake Shores","fclName":"city, village,...","adminCodes1":{"ISO3166_2":"GA"},"countryName":"United States","fcodeName":"populated place","adminName1":"Georgia","lat":"33.76622","fcode":"PPL"},{"adminCode1":"CA","lng":"-123.07667","geonameId":5377254,"toponymName":"Norris Ranch","countryId":"6252001","fcl":"S","population":0,"countryCode":"US","name":"Norris Ranch","fclName":"spot, building, farm","adminCodes1":{"ISO3166_2":"CA"},"countryName":"United States","fcodeName":"","adminName1":"California","lat":"39.08878"},{"adminCode1":"FL","lng":"-81.54097","geonameId":7136476,"toponymName":"Lake County Fire Rescue Station 21","countryId":"6252001","fcl":"S","population":0,"countryCode":"US","name":"Lake County Fire Rescue Station 21","fclName":"spot, building, farm","adminCodes1":{"ISO3166_2":"FL"},"countryName":"United States","fcodeName":"building(s)","adminName1":"Florida","lat":"28.87638","fcode":"BLDG"},{"adminCode1":"NC","lng":"-78.80334","geonameId":4453888,"toponymName":"Bass Lake","countryId":"6252001","fcl":"H","population":0,"countryCode":"US","name":"Bass Lake","fclName":"stream, lake, ...","adminCodes1":{"ISO3166_2":"NC"},"countryName":"United States","fcodeName":"reservoir(s)","adminName1":"North Carolina","lat":"35.6421","fcode":"RSV"},{"adminCode1":"MN","lng":"-95.18691","geonameId":5039397,"toponymName":"Cox-Coyour Memorial Air Field","countryId":"6252001","fcl":"S","population":0,"countryCode":"US","name":"Cox-Coyour Memorial Air Field","fclName":"spot, building, farm","adminCodes1":{"ISO3166_2":"MN"},"countryName":"United States","fcodeName":"airfield","adminName1":"Minnesota","lat":"48.59942","fcode":"AIRF"},{"adminCode1":"PA","lng":"-75.92392","geonameId":5194810,"toponymName":"Indian Lake","countryId":"6252001","fcl":"H","population":0,"countryCode":"US","name":"Indian Lake","fclName":"stream, lake, ...","adminCodes1":{"ISO3166_2":"PA"},"countryName":"United States","fcodeName":"reservoir(s)","adminName1":"Pennsylvania","lat":"41.76011","fcode":"RSV"},{"adminCode1":"GA","lng":"-84.73021","geonameId":4212929,"toponymName":"Norris Lake","countryId":"6252001","fcl":"H","population":0,"countryCode":"US","name":"Norris Lake","fclName":"stream, lake, ...","adminCodes1":{"ISO3166_2":"GA"},"countryName":"United States","fcodeName":"reservoir(s)","adminName1":"Georgia","lat":"33.44206","fcode":"RSV"},{"adminCode1":"GA","lng":"-84.05075","geonameId":4212930,"toponymName":"Norris Lake Church","countryId":"6252001","fcl":"S","population":0,"countryCode":"US","name":"Norris Lake Church","fclName":"spot, building, farm","adminCodes1":{"ISO3166_2":"GA"},"countryName":"United States","fcodeName":"church","adminName1":"Georgia","lat":"33.76039","fcode":"CH"},{"adminCode1":"GA","lng":"-84.04741","geonameId":4212931,"toponymName":"Norris Lake Dam","countryId":"6252001","fcl":"S","population":0,"countryCode":"US","name":"Norris Lake Dam","fclName":"spot, building, farm","adminCodes1":{"ISO3166_2":"GA"},"countryName":"United States","fcodeName":"dam","adminName1":"Georgia","lat":"33.76066","fcode":"DAM"},{"adminCode1":"GA","lng":"-84.04042","geonameId":4212948,"toponymName":"Norris Lake","countryId":"6252001","fcl":"H","population":0,"countryCode":"US","name":"Norris Lake","fclName":"stream, lake, ...","adminCodes1":{"ISO3166_2":"GA"},"countryName":"United States","fcodeName":"reservoir(s)","adminName1":"Georgia","lat":"33.7638","fcode":"RSV"},{"adminCode1":"MN","lng":"-95.14912","geonameId":5039398,"toponymName":"Norris Lookout Tower","countryId":"6252001","fcl":"S","population":0,"countryCode":"US","name":"Norris Lookout Tower","fclName":"spot, building, farm","adminCodes1":{"ISO3166_2":"MN"},"countryName":"United States","fcodeName":"tower","adminName1":"Minnesota","lat":"48.62137","fcode":"TOWR"},{"adminCode1":"MS","lng":"-88.73005","geonameId":4438913,"toponymName":"Norris Lake Dam","countryId":"6252001","fcl":"S","population":0,"countryCode":"US","name":"Norris Lake Dam","fclName":"spot, building, farm","adminCodes1":{"ISO3166_2":"MS"},"countryName":"United States","fcodeName":"dam","adminName1":"Mississippi","lat":"33.47845","fcode":"DAM"},{"adminCode1":"MS","lng":"-88.4106","geonameId":4438922,"toponymName":"Norris Lake","countryId":"6252001","fcl":"H","population":0,"countryCode":"US","name":"Norris Lake","fclName":"stream, lake, ...","adminCodes1":{"ISO3166_2":"MS"},"countryName":"United States","fcodeName":"reservoir(s)","adminName1":"Mississippi","lat":"33.4779","fcode":"RSV"},{"adminCode1":"IL","lng":"-90.86681","geonameId":4903810,"toponymName":"Norris Lake","countryId":"6252001","fcl":"H","population":0,"countryCode":"US","name":"Norris Lake","fclName":"stream, lake, ...","adminCodes1":{"ISO3166_2":"IL"},"countryName":"United States","fcodeName":"reservoir(s)","adminName1":"Illinois","lat":"40.84337","fcode":"RSV"},{"adminCode1":"IL","lng":"-90.86681","geonameId":4903811,"toponymName":"Norris Lake Dam","countryId":"6252001","fcl":"S","population":0,"countryCode":"US","name":"Norris Lake Dam","fclName":"spot, building, farm","adminCodes1":{"ISO3166_2":"IL"},"countryName":"United States","fcodeName":"dam","adminName1":"Illinois","lat":"40.84337","fcode":"DAM"}]}
