{"totalResultsCount":56720,"geonames":[{"adminCode1":"NM","lng":"-106.65114","geonameId":5454711,"toponymName":"Albuquerque","countryId":"6252001","fcl":"P","population":559121,"countryCode":"US","name":"Albuquerque","fclName":"city, village,...","adminCodes1":{"ISO3166_2":"NM"},"countryName":"United States","fcodeName":"seat of a second-order administrative division","adminName1":"New Mexico","lat":"35.08449","fcode":"PPLA2"},{"adminCode1":"NM","lng":"-105.9378","geonameId":5490263,"toponymName":"Santa Fe","countryId":"6252001","fcl":"P","population":84099,"countryCode":"US","name":"Santa Fe","fclName":"city, village,...","adminCodes1":{"ISO3166_2":"NM"},"countryName":"United States","fcodeName":"seat of a first-order administrative division","adminName1":"New Mexico","lat":"35.68698","fcode":"PPLA"},{"adminCode1":"NC","lng":"-77.94471","geonameId":4499379,"toponymName":"Wilmington","countryId":"6252001","fcl":"P","population":115933,"countryCode":"US","name":"Wilmington","fclName":"city, village,...","adminCodes1":{"ISO3166_2":"NC"},"countryName":"United States","fcodeName":"seat of a second-order administrative division","adminName1":"North Carolina","lat":"34.22573","fcode":"PPLA2"},{"adminCode1":"NM","lng":"-106.77834","geonameId":5475352,"toponymName":"Las Cruces","countryId":"6252001","fcl":"P","population":101643,"countryCode":"US","name":"Las Cruces","fclName":"city, village,...","adminCodes1":{"ISO3166_2":"NM"},"countryName":"United States","fcodeName":"seat of a second-order administrative division","adminName1":"New Mexico","lat":"32.31232","fcode":"PPLA2"},{"adminCode1":"NM","lng":"-106.00085","geonameId":5481136,"toponymName":"New Mexico","countryId":"6252001","fcl":"A","population":1912684,"countryCode":"US","name":"New Mexico","fclName":"country, state, region,...","adminCodes1":{"ISO3166_2":"NM"},"countryName":"United States","fcodeName":"first-order administrative division","adminName1":"New Mexico","lat":"34.50034","fcode":"ADM1"},{"adminCode1":"NM","lng":"-103.13604","geonameId":5471578,"toponymName":"Hobbs","countryId":"6252001","fcl":"P","population":38416,"countryCode":"US","name":"Hobbs","fclName":"city, village,...","adminCodes1":{"ISO3166_2":"NM"},"countryName":"United States","fcodeName":"populated place","adminName1":"New Mexico","lat":"32.70261","fcode":"PPL"},{"adminCode1":"NM","lng":"-104.52491","geonameId":5488441,"toponymName":"Roswell","countryId":"6252001","fcl":"P","population":48544,"countryCode":"US","name":"Roswell","fclName":"city, village,...","adminCodes1":{"ISO3166_2":"NM"},"countryName":"United States","fcodeName":"seat of a second-order administrative division","adminName1":"New Mexico","lat":"33.39437","fcode":"PPLA2"},{"adminCode1":"CT","lng":"-72.07591","geonameId":4839843,"toponymName":"Norwich","countryId":"6252001","fcl":"P","population":39899,"countryCode":"US","name":"Norwich","fclName":"city, village,...","adminCodes1":{"ISO3166_2":"CT"},"countryName":"United States","fcodeName":"populated place","adminName1":"Connecticut","lat":"41.52426","fcode":"PPL"},{"adminCode1":"NM","lng":"-108.21869","geonameId":5467328,"toponymName":"Farmington","countryId":"6252001","fcl":"P","population":42871,"countryCode":"US","name":"Farmington","fclName":"city, village,...","adminCodes1":{"ISO3166_2":"NM"},"countryName":"United States","fcodeName":"populated place","adminName1":"New Mexico","lat":"36.72806","fcode":"PPL"},{"adminCode1":"NM","lng":"-105.96027","geonameId":5454627,"toponymName":"Alamogordo","countryId":"6252001","fcl":"P","population":30753,"countryCode":"US","name":"Alamogordo","fclName":"city, village,...","adminCodes1":{"ISO3166_2":"NM"},"countryName":"United States","fcodeName":"seat of a second-order administrative division","adminName1":"New Mexico","lat":"32.89953","fcode":"PPLA2"},{"adminCode1":"VA","lng":"-77.37331","geonameId":4772566,"toponymName":"Mechanicsville","countryId":"6252001","fcl":"P","population":36348,"countryCode":"US","name":"Mechanicsville","fclName":"city, village,...","adminCodes1":{"ISO3166_2":"VA"},"countryName":"United States","fcodeName":"populated place","adminName1":"Virginia","lat":"37.60876","fcode":"PPL"},{"adminCode1":"NM","lng":"-108.74258","geonameId":5468773,"toponymName":"Gallup","countryId":"6252001","fcl":"P","population":23240,"countryCode":"US","name":"Gallup","fclName":"city, village,...","adminCodes1":{"ISO3166_2":"NM"},"countryName":"United States","fcodeName":"seat of a second-order administrative division","adminName1":"New Mexico","lat":"35.52808","fcode":"PPLA2"},{"adminCode1":"NM","lng":"-104.4033","geonameId":5455796,"toponymName":"Artesia","countryId":"6252001","fcl":"P","population":12036,"countryCode":"US","name":"Artesia","fclName":"city, village,...","adminCodes1":{"ISO3166_2":"NM"},"countryName":"United States","fcodeName":"populated place","adminName1":"New Mexico","lat":"32.84233","fcode":"PPL"},{"adminCode1":"NM","lng":"-104.22884","geonameId":5460459,"toponymName":"Carlsbad","countryId":"6252001","fcl":"P","population":28957,"countryCode":"US","name":"Carlsbad","fclName":"city, village,...","adminCodes1":{"ISO3166_2":"NM"},"countryName":"United States","fcodeName":"seat of a second-order administrative division","adminName1":"New Mexico","lat":"32.42067","fcode":"PPLA2"},{"adminCode1":"NM","lng":"-103.20523","geonameId":5462393,"toponymName":"Clovis","countryId":"6252001","fcl":"P","population":39480,"countryCode":"US","name":"Clovis","fclName":"city, village,...","adminCodes1":{"ISO3166_2":"NM"},"countryName":"United States","fcodeName":"seat of a second-order administrative division","adminName1":"New Mexico","lat":"34.4048","fcode":"PPLA2"},{"adminCode1":"NM","lng":"-107.75864","geonameId":5464806,"toponymName":"Deming","countryId":"6252001","fcl":"P","population":14522,"countryCode":"US","name":"Deming","fclName":"city, village,...","adminCodes1":{"ISO3166_2":"NM"},"countryName":"United States","fcodeName":"seat of a second-order administrative division","adminName1":"New Mexico","lat":"32.2687","fcode":"PPLA2"},{"adminCode1":"NM","lng":"-106.08058","geonameId":5467024,"toponymName":"Española","countryId":"6252001","fcl":"P","population":10224,"countryCode":"US","name":"Española","fclName":"city, village,...","adminCodes1":{"ISO3166_2":"NM"},"countryName":"United States","fcodeName":"populated place","adminName1":"New Mexico","lat":"35.99113","fcode":"PPL"},{"adminCode1":"NM","lng":"-106.72832","geonameId":5473297,"toponymName":"Jemez Pueblo","countryId":"6252001","fcl":"P","population":1788,"countryCode":"US","name":"Jemez Pueblo","fclName":"city, village,...","adminCodes1":{"ISO3166_2":"NM"},"countryName":"United States","fcodeName":"populated place","adminName1":"New Mexico","lat":"35.61422","fcode":"PPL"},{"adminCode1":"NM","lng":"-107.38282","geonameId":5475044,"toponymName":"Laguna","countryId":"6252001","fcl":"P","population":1241,"countryCode":"US","name":"Laguna","fclName":"city, village,...","adminCodes1":{"ISO3166_2":"NM"},"countryName":"United States","fcodeName":"populated place","adminName1":"New Mexico","lat":"35.03671","fcode":"PPL"},{"adminCode1":"NM","lng":"-105.2239","geonameId":5475433,"toponymName":"Las Vegas","countryId":"6252001","fcl":"P","population":13386,"countryCode":"US","name":"Las Vegas","fclName":"city, village,...","adminCodes1":{"ISO3166_2":"NM"},"countryName":"United States","fcodeName":"seat of a second-order administrative division","adminName1":"New Mexico","lat":"35.59393","fcode":"PPLA2"},{"adminCode1":"NM","lng":"-106.66447","geonameId":5487811,"toponymName":"Rio Rancho","countryId":"6252001","fcl":"P","population":87521,"countryCode":"US","name":"Rio Rancho","fclName":"city, village,...","adminCodes1":{"ISO3166_2":"NM"},"countryName":"United States","fcodeName":"populated place","adminName1":"New Mexico","lat":"35.23338","fcode":"PPL"},{"adminCode1":"NM","lng":"-105.67304","geonameId":5488598,"toponymName":"Ruidoso","countryId":"6252001","fcl":"P","population":7739,"countryCode":"US","name":"Ruidoso","fclName":"city, village,...","adminCodes1":{"ISO3166_2":"NM"},"countryName":"United States","fcodeName":"populated place","adminName1":"New Mexico","lat":"33.33175","fcode":"PPL"},{"adminCode1":"NM","lng":"-106.30697","geonameId":5476825,"toponymName":"Los Alamos","countryId":"6252001","fcl":"P","population":12019,"countryCode":"US","name":"Los Alamos","fclName":"city, village,...","adminCodes1":{"ISO3166_2":"NM"},"countryName":"United States","fcodeName":"seat of a second-order administrative division","adminName1":"New Mexico","lat":"35.88808","fcode":"PPLA2"},{"adminCode1":"NM","lng":"-106.36586","geonameId":5490385,"toponymName":"Santo Domingo Pueblo","countryId":"6252001","fcl":"P","population":2456,"countryCode":"US","name":"Santo Domingo Pueblo","fclName":"city, village,...","adminCodes1":{"ISO3166_2":"NM"},"countryName":"United States","fcodeName":"populated place","adminName1":"New Mexico","lat":"35.51476","fcode":"PPL"},{"adminCode1":"NM","lng":"-108.28033","geonameId":5491487,"toponymName":"Silver City","countryId":"6252001","fcl":"P","population":10004,"countryCode":"US","name":"Silver City","fclName":"city, village,...","adminCodes1":{"ISO3166_2":"NM"},"countryName":"United States","fcodeName":"seat of a second-order administrative division","adminName1":"New Mexico","lat":"32.77007","fcode":"PPLA2"},{"adminCode1":"NM","lng":"-105.54445","geonameId":5493798,"toponymName":"Taos Pueblo","countryId":"6252001","fcl":"P","population":1135,"countryCode":"US","name":"Taos Pueblo","fclName":"city, village,...","adminCodes1":{"ISO3166_2":"NM"},"countryName":"United States","fcodeName":"populated place","adminName1":"New Mexico","lat":"36.43864","fcode":"PPL"},{"adminCode1":"NM","lng":"-103.32071","geonameId":6298034,"toponymName":"Cannon Air Force Base","countryId":"6252001","fcl":"S","population":0,"countryCode":"US","name":"Cannon AFB","fclName":"spot, building, farm","adminCodes1":{"ISO3166_2":"NM"},"countryName":"United States","fcodeName":"airport","adminName1":"New Mexico","lat":"34.392","fcode":"AIRP"},{"adminCode1":"NM","lng":"-108.77817","geonameId":5468786,"toponymName":"Gallup Municipal Airport","countryId":"6252001","fcl":"S","population":0,"countryCode":"US","name":"Gallup Municipal Airport","fclName":"spot, building, farm","adminCodes1":{"ISO3166_2":"NM"},"countryName":"United States","fcodeName":"airport","adminName1":"New Mexico","lat":"35.51364","fcode":"AIRP"},{"adminCode1":"NM","lng":"-107.85261","geonameId":5469841,"toponymName":"Grants","countryId":"6252001","fcl":"P","population":9239,"countryCode":"US","name":"Grants","fclName":"city, village,...","adminCodes1":{"ISO3166_2":"NM"},"countryName":"United States","fcodeName":"seat of a second-order administrative division","adminName1":"New Mexico","lat":"35.1476","fcode":"PPLA2"},{"adminCode1":"NM","lng":"-103.21687","geonameId":5471579,"toponymName":"Hobbs Airport","countryId":"6252001","fcl":"S","population":0,"countryCode":"US","name":"Hobbs Airport","fclName":"spot, building, farm","adminCodes1":{"ISO3166_2":"NM"},"countryName":"United States","fcodeName":"airport","adminName1":"New Mexico","lat":"32.68734","fcode":"AIRP"},{"adminCode1":"NM","lng":"-107.72058","geonameId":5464773,"toponymName":"Deming Municipal Airport","countryId":"6252001","fcl":"S","population":0,"countryCode":"US","name":"Deming Municipal Airport","fclName":"spot, building, farm","adminCodes1":{"ISO3166_2":"NM"},"countryName":"United States","fcodeName":"airport","adminName1":"New Mexico","lat":"32.26231","fcode":"AIRP"},{"adminCode1":"NM","lng":"-104.46746","geonameId":5455805,"toponymName":"Artesia Municipal Airport","countryId":"6252001","fcl":"S","population":0,"countryCode":"US","name":"Artesia Municipal Airport","fclName":"spot, building, farm","adminCodes1":{"ISO3166_2":"NM"},"countryName":"United States","fcodeName":"airport","adminName1":"New Mexico","lat":"32.85233","fcode":"AIRP"},{"adminCode1":"NM","lng":"-106.77642","geonameId":5456975,"toponymName":"Belen","countryId":"6252001","fcl":"P","population":7152,"countryCode":"US","name":"Belen","fclName":"city, village,...","adminCodes1":{"ISO3166_2":"NM"},"countryName":"United States","fcodeName":"populated place","adminName1":"New Mexico","lat":"34.66284","fcode":"PPL"},{"adminCode1":"NM","lng":"-104.263","geonameId":5460834,"toponymName":"Cavern City Air Terminal","countryId":"6252001","fcl":"S","population":0,"countryCode":"US","name":"Cavern City Air Terminal","fclName":"spot, building, farm","adminCodes1":{"ISO3166_2":"NM"},"countryName":"United States","fcodeName":"airport","adminName1":"New Mexico","lat":"32.33734","fcode":"AIRP"},{"adminCode1":"NM","lng":"-103.07828","geonameId":5462403,"toponymName":"Clovis Municipal Airport","countryId":"6252001","fcl":"S","population":0,"countryCode":"US","name":"Clovis Municipal Airport","fclName":"spot, building, farm","adminCodes1":{"ISO3166_2":"NM"},"countryName":"United States","fcodeName":"airport","adminName1":"New Mexico","lat":"34.42646","fcode":"AIRP"},{"adminCode1":"NM","lng":"-107.64002","geonameId":5462683,"toponymName":"Columbus","countryId":"6252001","fcl":"P","population":1625,"countryCode":"US","name":"Columbus","fclName":"city, village,...","adminCodes1":{"ISO3166_2":"NM"},"countryName":"United States","fcodeName":"populated place","adminName1":"New Mexico","lat":"31.8276","fcode":"PPL"},{"adminCode1":"NM","lng":"-105.60946","geonameId":5486761,"toponymName":"Ranchos de Taos","countryId":"6252001","fcl":"P","population":2518,"countryCode":"US","name":"Ranchos de Taos","fclName":"city, village,...","adminCodes1":{"ISO3166_2":"NM"},"countryName":"United States","fcodeName":"populated place","adminName1":"New Mexico","lat":"36.35864","fcode":"PPL"},{"adminCode1":"NM","lng":"-103.60302","geonameId":5495373,"toponymName":"Tucumcari Municipal Airport","countryId":"6252001","fcl":"S","population":0,"countryCode":"US","name":"Tucumcari Municipal Airport","fclName":"spot, building, farm","adminCodes1":{"ISO3166_2":"NM"},"countryName":"United States","fcodeName":"airport","adminName1":"New Mexico","lat":"35.18256","fcode":"AIRP"},{"adminCode1":"NM","lng":"-108.15643","geonameId":5491488,"toponymName":"Silver City Airport","countryId":"6252001","fcl":"S","population":0,"countryCode":"US","name":"Silver City Airport","fclName":"spot, building, farm","adminCodes1":{"ISO3166_2":"NM"},"countryName":"United States","fcodeName":"airport","adminName1":"New Mexico","lat":"32.63647","fcode":"AIRP"},{"adminCode1":"NM","lng":"-106.90314","geonameId":5492014,"toponymName":"Socorro Municipal Airport","countryId":"6252001","fcl":"S","population":0,"countryCode":"US","name":"Socorro Municipal Airport","fclName":"spot, building, farm","adminCodes1":{"ISO3166_2":"NM"},"countryName":"United States","fcodeName":"airport","adminName1":"New Mexico","lat":"34.02247","fcode":"AIRP"},{"adminCode1":"NM","lng":"-106.86315","geonameId":5493109,"toponymName":"Stinking Lake","countryId":"6252001","fcl":"H","population":0,"countryCode":"US","name":"Stinking Lake","fclName":"stream, lake, ...","adminCodes1":{"ISO3166_2":"NM"},"countryName":"United States","fcodeName":"lake","adminName1":"New Mexico","lat":"36.61794","fcode":"LK"},{"adminCode1":"NM","lng":"-105.67223","geonameId":5493794,"toponymName":"Taos Regional Airport","countryId":"6252001","fcl":"S","population":0,"countryCode":"US","name":"Taos Regional Airport","fclName":"spot, building, farm","adminCodes1":{"ISO3166_2":"NM"},"countryName":"United States","fcodeName":"airport","adminName1":"New Mexico","lat":"36.45808","fcode":"AIRP"},{"adminCode1":"NM","lng":"-106.31864","geonameId":5454116,"toponymName":"Abiquiu","countryId":"6252001","fcl":"P","population":231,"countryCode":"US","name":"Abiquiu","fclName":"city, village,...","adminCodes1":{"ISO3166_2":"NM"},"countryName":"United States","fcodeName":"populated place","adminName1":"New Mexico","lat":"36.20724","fcode":"PPL"},{"adminCode1":"NM","lng":"-104.21642","geonameId":5468143,"toponymName":"Fort Sumner Municipal Airport","countryId":"6252001","fcl":"S","population":0,"countryCode":"US","name":"Fort Sumner Municipal Airport","fclName":"spot, building, farm","adminCodes1":{"ISO3166_2":"NM"},"countryName":"United States","fcodeName":"airport","adminName1":"New Mexico","lat":"34.48431","fcode":"AIRP"},{"adminCode1":"NM","lng":"-108.2298","geonameId":5468218,"toponymName":"Four Corners Regional Airport","countryId":"6252001","fcl":"S","population":0,"countryCode":"US","name":"Four Corners Regional Airport","fclName":"spot, building, farm","adminCodes1":{"ISO3166_2":"NM"},"countryName":"United States","fcodeName":"airport","adminName1":"New Mexico","lat":"36.74195","fcode":"AIRP"},{"adminCode1":"NM","lng":"-105.99054","geonameId":5454632,"toponymName":"Alamogordo-White Sands Regional Airport","countryId":"6252001","fcl":"S","population":0,"countryCode":"US","name":"Alamogordo-White Sands Regional Airport","fclName":"spot, building, farm","adminCodes1":{"ISO3166_2":"NM"},"countryName":"United States","fcodeName":"airport","adminName1":"New Mexico","lat":"32.83981","fcode":"AIRP"},{"adminCode1":"NM","lng":"-106.60697","geonameId":5454724,"toponymName":"Albuquerque International Airport","countryId":"6252001","fcl":"S","population":0,"countryCode":"US","name":"Albuquerque International Airport","fclName":"spot, building, farm","adminCodes1":{"ISO3166_2":"NM"},"countryName":"United States","fcodeName":"airport","adminName1":"New Mexico","lat":"35.04199","fcode":"AIRP"},{"adminCode1":"NM","lng":"-107.95601","geonameId":5461202,"toponymName":"Chaco Culture National Historical Park","countryId":"6252001","fcl":"L","population":0,"countryCode":"US","name":"Chaco Culture National Historical Park","fclName":"parks,area, ...","adminCodes1":{"ISO3166_2":"NM"},"countryName":"United States","fcodeName":"park","adminName1":"New Mexico","lat":"36.0396","fcode":"PRK"},{"adminCode1":"NM","lng":"-103.15466","geonameId":5462285,"toponymName":"Clayton Municipal Airport","countryId":"6252001","fcl":"S","population":0,"countryCode":"US","name":"Clayton Municipal Airport","fclName":"spot, building, farm","adminCodes1":{"ISO3166_2":"NM"},"countryName":"United States","fcodeName":"airport","adminName1":"New Mexico","lat":"36.44586","fcode":"AIRP"},{"adminCode1":"NM","lng":"-106.34725","geonameId":5462496,"toponymName":"Cochiti Pueblo","countryId":"6252001","fcl":"P","population":0,"countryCode":"US","name":"Cochiti Pueblo","fclName":"city, village,...","adminCodes1":{"ISO3166_2":"NM"},"countryName":"United States","fcodeName":"populated place","adminName1":"New Mexico","lat":"35.60753","fcode":"PPL"},{"adminCode1":"NM","lng":"-106.92195","geonameId":5475361,"toponymName":"Las Cruces International Airport","countryId":"6252001","fcl":"S","population":0,"countryCode":"US","name":"Las Cruces International Airport","fclName":"spot, building, farm","adminCodes1":{"ISO3166_2":"NM"},"countryName":"United States","fcodeName":"airport","adminName1":"New Mexico","lat":"32.28926","fcode":"AIRP"},{"adminCode1":"NM","lng":"-105.14223","geonameId":5475446,"toponymName":"Las Vegas Municipal Airport","countryId":"6252001","fcl":"S","population":0,"countryCode":"US","name":"Las Vegas Municipal Airport","fclName":"spot, building, farm","adminCodes1":{"ISO3166_2":"NM"},"countryName":"United States","fcodeName":"airport","adminName1":"New Mexico","lat":"35.65421","fcode":"AIRP"},{"adminCode1":"NM","lng":"-104.53052","geonameId":5488446,"toponymName":"Roswell Industrial Air Center Airport","countryId":"6252001","fcl":"S","population":0,"countryCode":"US","name":"Roswell Industrial Air Center Airport","fclName":"spot, building, farm","adminCodes1":{"ISO3166_2":"NM"},"countryName":"United States","fcodeName":"airport","adminName1":"New Mexico","lat":"33.30149","fcode":"AIRP"},{"adminCode1":"NM","lng":"-105.71002","geonameId":5484120,"toponymName":"Picuris Pueblo","countryId":"6252001","fcl":"P","population":68,"countryCode":"US","name":"Picuris Pueblo","fclName":"city, village,...","adminCodes1":{"ISO3166_2":"NM"},"countryName":"United States","fcodeName":"populated place","adminName1":"New Mexico","lat":"36.20086","fcode":"PPL"},{"adminCode1":"NM","lng":"-106.27324","geonameId":5476830,"toponymName":"Los Alamos County Airport","countryId":"6252001","fcl":"S","population":0,"countryCode":"US","name":"Los Alamos County Airport","fclName":"spot, building, farm","adminCodes1":{"ISO3166_2":"NM"},"countryName":"United States","fcodeName":"airport","adminName1":"New Mexico","lat":"35.88036","fcode":"AIRP"},{"adminCode1":"NM","lng":"-106.25086","geonameId":5476844,"toponymName":"Los Alamos National Laboratory","countryId":"6252001","fcl":"L","population":0,"countryCode":"US","name":"Los Alamos National Laboratory","fclName":"parks,area, ...","adminCodes1":{"ISO3166_2":"NM"},"countryName":"United States","fcodeName":"reserve","adminName1":"New Mexico","lat":"35.83336","fcode":"RES"},{"adminCode1":"NM","lng":"-107.26998","geonameId":5495296,"toponymName":"Truth or Consequences Municipal Airport","countryId":"6252001","fcl":"S","population":0,"countryCode":"US","name":"Truth or Consequences Municipal Airport","fclName":"spot, building, farm","adminCodes1":{"ISO3166_2":"NM"},"countryName":"United States","fcodeName":"airport","adminName1":"New Mexico","lat":"33.23814","fcode":"AIRP"},{"adminCode1":"NM","lng":"-106.08863","geonameId":5490234,"toponymName":"Santa Clara Pueblo","countryId":"6252001","fcl":"P","population":1018,"countryCode":"US","name":"Santa Clara Pueblo","fclName":"city, village,...","adminCodes1":{"ISO3166_2":"NM"},"countryName":"United States","fcodeName":"populated place","adminName1":"New Mexico","lat":"35.96558","fcode":"PPL"},{"adminCode1":"NM","lng":"-106.08919","geonameId":5490274,"toponymName":"Santa Fe Municipal Airport","countryId":"6252001","fcl":"S","population":0,"countryCode":"US","name":"Santa Fe Municipal Airport","fclName":"spot, building, farm","adminCodes1":{"ISO3166_2":"NM"},"countryName":"United States","fcodeName":"airport","adminName1":"New Mexico","lat":"35.61698","fcode":"AIRP"},{"adminCode1":"NM","lng":"-105.5347","geonameId":5491390,"toponymName":"Sierra Blanca Regional Airport","countryId":"6252001","fcl":"S","population":0,"countryCode":"US","name":"Sierra Blanca Regional Airport","fclName":"spot, building, farm","adminCodes1":{"ISO3166_2":"NM"},"countryName":"United States","fcodeName":"airport","adminName1":"New Mexico","lat":"33.46286","fcode":"AIRP"},{"adminCode1":"NM","lng":"-106.57999","geonameId":5493403,"toponymName":"Sunland Park","countryId":"6252001","fcl":"P","population":15940,"countryCode":"US","name":"Sunland Park","fclName":"city, village,...","adminCodes1":{"ISO3166_2":"NM"},"countryName":"United States","fcodeName":"populated place","adminName1":"New Mexico","lat":"31.7965","fcode":"PPL"},{"adminCode1":"NC","lng":"-77.9025","geonameId":6301617,"toponymName":"Wilmington International Airport","countryId":"6252001","fcl":"S","population":0,"countryCode":"US","name":"Wilmington International Airport","fclName":"spot, building, farm","adminCodes1":{"ISO3166_2":"NC"},"countryName":"United States","fcodeName":"airport","adminName1":"North Carolina","lat":"34.27056","fcode":"AIRP"},{"adminCode1":"ME","lng":"-70.54478","geonameId":4973840,"toponymName":"Norway","countryId":"6252001","fcl":"P","population":2748,"countryCode":"US","name":"Norway","fclName":"city, village,...","adminCodes1":{"ISO3166_2":"ME"},"countryName":"United States","fcodeName":"populated place","adminName1":"Maine","lat":"44.21396","fcode":"PPL"},{"adminCode1":"MI","lng":"-87.90374","geonameId":5004016,"toponymName":"Norway","countryId":"6252001","fcl":"P","population":2798,"countryCode":"US","name":"Norway","fclName":"city, village,...","adminCodes1":{"ISO3166_2":"MI"},"countryName":"United States","fcodeName":"populated place","adminName1":"Michigan","lat":"45.7869","fcode":"PPL"},{"adminCode1":"KS","lng":"-97.77393","geonameId":4276466,"toponymName":"Norway","countryId":"6252001","fcl":"P","population":0,"countryCode":"US","name":"Norway","fclName":"city, village,...","adminCodes1":{"ISO3166_2":"KS"},"countryName":"United States","fcodeName":"populated place","adminName1":"Kansas","lat":"39.69612","fcode":"PPL"},{"adminCode1":"VA","lng":"-77.49087","geonameId":4762988,"toponymName":"Hanover County","countryId":"6252001","fcl":"A","population":99863,"countryCode":"US","name":"Hanover","fclName":"country, state, region,...","adminCodes1":{"ISO3166_2":"VA"},"countryName":"United States","fcodeName":"second-order administrative division","adminName1":"Virginia","lat":"37.76015","fcode":"ADM2"},{"adminCode1":"VA","lng":"-77.47583","geonameId":6346748,"toponymName":"Keeble Observatory","countryId":"6252001","fcl":"L","population":0,"countryCode":"US","name":"Keeble Observatory","fclName":"parks,area, ...","adminCodes1":{"ISO3166_2":"VA"},"countryName":"United States","fcodeName":"park","adminName1":"Virginia","lat":"37.76222","fcode":"PRK"},{"adminCode1":"VA","lng":"-77.47998","geonameId":4744905,"toponymName":"Ashland","countryId":"6252001","fcl":"P","population":7503,"countryCode":"US","name":"Ashland","fclName":"city, village,...","adminCodes1":{"ISO3166_2":"VA"},"countryName":"United States","fcodeName":"populated place","adminName1":"Virginia","lat":"37.75903","fcode":"PPL"},{"adminCode1":"NM","lng":"-105.82165","geonameId":11257814,"toponymName":"Congressional District 3","countryId":"6252001","fcl":"A","population":0,"countryCode":"US","name":"Congressional District 3","fclName":"country, state, region,...","adminCodes1":{"ISO3166_2":"NM"},"countryName":"United States","fcodeName":"administrative division","adminName1":"New Mexico","lat":"35.99552","fcode":"ADMD"},{"adminCode1":"NM","lng":"-106.29726","geonameId":11257815,"toponymName":"Congressional District 2","countryId":"6252001","fcl":"A","population":0,"countryCode":"US","name":"Congressional District 2","fclName":"country, state, region,...","adminCodes1":{"ISO3166_2":"NM"},"countryName":"United States","fcodeName":"administrative division","adminName1":"New Mexico","lat":"33.38073","fcode":"ADMD"},{"adminCode1":"NC","lng":"-77.86561","geonameId":4481757,"toponymName":"New Hanover County","countryId":"6252001","fcl":"A","population":202667,"countryCode":"US","name":"New Hanover","fclName":"country, state, region,...","adminCodes1":{"ISO3166_2":"NC"},"countryName":"United States","fcodeName":"second-order administrative division","adminName1":"North Carolina","lat":"34.18141","fcode":"ADM2"},{"adminCode1":"VA","lng":"-77.4378","geonameId":4762990,"toponymName":"Hanover County Municipal Airport","countryId":"6252001","fcl":"S","population":0,"countryCode":"US","name":"Hanover County Municipal Airport","fclName":"spot, building, farm","adminCodes1":{"ISO3166_2":"VA"},"countryName":"United States","fcodeName":"airport","adminName1":"Virginia","lat":"37.70729","fcode":"AIRP"},{"adminCode1":"NM","lng":"-107.90061","geonameId":5469855,"toponymName":"Grants-Milan Municipal Airport","countryId":"6252001","fcl":"S","population":0,"countryCode":"US","name":"Grants-Milan Municipal Airport","fclName":"spot, building, farm","adminCodes1":{"ISO3166_2":"NM"},"countryName":"United States","fcodeName":"airport","adminName1":"New Mexico","lat":"35.1667","fcode":"AIRP"},{"adminCode1":"NM","lng":"-108.15118","geonameId":5463890,"toponymName":"Crownpoint","countryId":"6252001","fcl":"P","population":2278,"countryCode":"US","name":"Crownpoint","fclName":"city, village,...","adminCodes1":{"ISO3166_2":"NM"},"countryName":"United States","fcodeName":"populated place","adminName1":"New Mexico","lat":"35.67808","fcode":"PPL"},{"adminCode1":"NM","lng":"-105.29057","geonameId":5455197,"toponymName":"Angel Fire Airport","countryId":"6252001","fcl":"S","population":0,"countryCode":"US","name":"Angel Fire Airport","fclName":"spot, building, farm","adminCodes1":{"ISO3166_2":"NM"},"countryName":"United States","fcodeName":"airport","adminName1":"New Mexico","lat":"36.41079","fcode":"AIRP"},{"adminCode1":"NM","lng":"-105.56918","geonameId":5455775,"toponymName":"Arroyo Seco","countryId":"6252001","fcl":"P","population":1785,"countryCode":"US","name":"Arroyo Seco","fclName":"city, village,...","adminCodes1":{"ISO3166_2":"NM"},"countryName":"United States","fcodeName":"populated place","adminName1":"New Mexico","lat":"36.51669","fcode":"PPL"},{"adminCode1":"NM","lng":"-106.55114","geonameId":5457198,"toponymName":"Bernalillo","countryId":"6252001","fcl":"P","population":8843,"countryCode":"US","name":"Bernalillo","fclName":"city, village,...","adminCodes1":{"ISO3166_2":"NM"},"countryName":"United States","fcodeName":"seat of a second-order administrative division","adminName1":"New Mexico","lat":"35.30004","fcode":"PPLA2"},{"adminCode1":"NM","lng":"-107.65565","geonameId":5462687,"toponymName":"Columbus Municipal Airport","countryId":"6252001","fcl":"S","population":0,"countryCode":"US","name":"Columbus Municipal Airport","fclName":"spot, building, farm","adminCodes1":{"ISO3166_2":"NM"},"countryName":"United States","fcodeName":"airport","adminName1":"New Mexico","lat":"31.80878","fcode":"AIRP"},{"adminCode1":"NM","lng":"-104.43915","geonameId":5486795,"toponymName":"Raton","countryId":"6252001","fcl":"P","population":6187,"countryCode":"US","name":"Raton","fclName":"city, village,...","adminCodes1":{"ISO3166_2":"NM"},"countryName":"United States","fcodeName":"seat of a second-order administrative division","adminName1":"New Mexico","lat":"36.90336","fcode":"PPLA2"},{"adminCode1":"NM","lng":"-103.3344","geonameId":5484874,"toponymName":"Portales","countryId":"6252001","fcl":"P","population":11995,"countryCode":"US","name":"Portales","fclName":"city, village,...","adminCodes1":{"ISO3166_2":"NM"},"countryName":"United States","fcodeName":"seat of a second-order administrative division","adminName1":"New Mexico","lat":"34.18619","fcode":"PPLA2"},{"adminCode1":"NM","lng":"-103.34855","geonameId":5477090,"toponymName":"Lovington","countryId":"6252001","fcl":"P","population":11800,"countryCode":"US","name":"Lovington","fclName":"city, village,...","adminCodes1":{"ISO3166_2":"NM"},"countryName":"United States","fcodeName":"seat of a second-order administrative division","adminName1":"New Mexico","lat":"32.94401","fcode":"PPLA2"},{"adminCode1":"NM","lng":"-103.72686","geonameId":5495360,"toponymName":"Tucumcari","countryId":"6252001","fcl":"P","population":5025,"countryCode":"US","name":"Tucumcari","fclName":"city, village,...","adminCodes1":{"ISO3166_2":"NM"},"countryName":"United States","fcodeName":"seat of a second-order administrative division","adminName1":"New Mexico","lat":"35.17191","fcode":"PPLA2"},{"adminCode1":"NM","lng":"-106.67808","geonameId":5492450,"toponymName":"South Valley","countryId":"6252001","fcl":"P","population":40976,"countryCode":"US","name":"South Valley","fclName":"city, village,...","adminCodes1":{"ISO3166_2":"NM"},"countryName":"United States","fcodeName":"populated place","adminName1":"New Mexico","lat":"35.01005","fcode":"PPL"},{"adminCode1":"NM","lng":"-105.57307","geonameId":5493811,"toponymName":"Taos","countryId":"6252001","fcl":"P","population":5740,"countryCode":"US","name":"Taos","fclName":"city, village,...","adminCodes1":{"ISO3166_2":"NM"},"countryName":"United States","fcodeName":"seat of a second-order administrative division","adminName1":"New Mexico","lat":"36.40725","fcode":"PPLA2"},{"adminCode1":"NM","lng":"-106.79222","geonameId":7306619,"toponymName":"Jemez National Recreation Area","countryId":"6252001","fcl":"L","population":0,"countryCode":"US","name":"Jemez National Recreation Area","fclName":"parks,area, ...","adminCodes1":{"ISO3166_2":"NM"},"countryName":"United States","fcodeName":"park","adminName1":"New Mexico","lat":"35.80583","fcode":"PRK"},{"adminCode1":"NM","lng":"-108.08035","geonameId":5467905,"toponymName":"Flora Vista","countryId":"6252001","fcl":"P","population":2191,"countryCode":"US","name":"Flora Vista","fclName":"city, village,...","adminCodes1":{"ISO3166_2":"NM"},"countryName":"United States","fcodeName":"populated place","adminName1":"New Mexico","lat":"36.79445","fcode":"PPL"},{"adminCode1":"NM","lng":"-103.7033","geonameId":5468084,"toponymName":"Fort Bascom Historical Marker","countryId":"6252001","fcl":"L","population":0,"countryCode":"US","name":"Fort Bascom Historical Marker","fclName":"parks,area, ...","adminCodes1":{"ISO3166_2":"NM"},"countryName":"United States","fcodeName":"park","adminName1":"New Mexico","lat":"35.31783","fcode":"PRK"},{"adminCode1":"NM","lng":"-105.01452","geonameId":5468156,"toponymName":"Fort Union National Monument","countryId":"6252001","fcl":"L","population":0,"countryCode":"US","name":"Fort Union National Monument","fclName":"parks,area, ...","adminCodes1":{"ISO3166_2":"NM"},"countryName":"United States","fcodeName":"park","adminName1":"New Mexico","lat":"35.90701","fcode":"PRK"},{"adminCode1":"NM","lng":"-108.54119","geonameId":5468166,"toponymName":"Fort Wingate","countryId":"6252001","fcl":"P","population":0,"countryCode":"US","name":"Fort Wingate","fclName":"city, village,...","adminCodes1":{"ISO3166_2":"NM"},"countryName":"United States","fcodeName":"populated place","adminName1":"New Mexico","lat":"35.4678","fcode":"PPL"},{"adminCode1":"NM","lng":"-108.39564","geonameId":5468498,"toponymName":"Fruitland","countryId":"6252001","fcl":"P","population":0,"countryCode":"US","name":"Fruitland","fclName":"city, village,...","adminCodes1":{"ISO3166_2":"NM"},"countryName":"United States","fcodeName":"populated place","adminName1":"New Mexico","lat":"36.73917","fcode":"PPL"},{"adminCode1":"NM","lng":"-108.27067","geonameId":5469176,"toponymName":"Gila Cliff Dwellings National Monument","countryId":"6252001","fcl":"L","population":0,"countryCode":"US","name":"Gila Cliff Dwellings National Monument","fclName":"parks,area, ...","adminCodes1":{"ISO3166_2":"NM"},"countryName":"United States","fcodeName":"park","adminName1":"New Mexico","lat":"33.22715","fcode":"PRK"},{"adminCode1":"NM","lng":"-108.38995","geonameId":5469192,"toponymName":"Gila Wilderness","countryId":"6252001","fcl":"L","population":0,"countryCode":"US","name":"Gila Wilderness","fclName":"parks,area, ...","adminCodes1":{"ISO3166_2":"NM"},"countryName":"United States","fcodeName":"reserve","adminName1":"New Mexico","lat":"33.22221","fcode":"RES"},{"adminCode1":"NM","lng":"-108.38225","geonameId":5469835,"toponymName":"Grant County","countryId":"6252001","fcl":"A","population":29514,"countryCode":"US","name":"Grant","fclName":"country, state, region,...","adminCodes1":{"ISO3166_2":"NM"},"countryName":"United States","fcodeName":"second-order administrative division","adminName1":"New Mexico","lat":"32.73901","fcode":"ADM2"},{"adminCode1":"NM","lng":"-103.0764","geonameId":5470170,"toponymName":"Grulla National Wildlife Refuge","countryId":"6252001","fcl":"L","population":0,"countryCode":"US","name":"Grulla National Wildlife Refuge","fclName":"parks,area, ...","adminCodes1":{"ISO3166_2":"NM"},"countryName":"United States","fcodeName":"park","adminName1":"New Mexico","lat":"34.08788","fcode":"PRK"},{"adminCode1":"NM","lng":"-104.7907","geonameId":5470197,"toponymName":"Guadalupe County","countryId":"6252001","fcl":"A","population":4687,"countryCode":"US","name":"Guadalupe","fclName":"country, state, region,...","adminCodes1":{"ISO3166_2":"NM"},"countryName":"United States","fcodeName":"second-order administrative division","adminName1":"New Mexico","lat":"34.86333","fcode":"ADM2"},{"adminCode1":"NM","lng":"-104.32691","geonameId":5470519,"toponymName":"Hagerman","countryId":"6252001","fcl":"P","population":1254,"countryCode":"US","name":"Hagerman","fclName":"city, village,...","adminCodes1":{"ISO3166_2":"NM"},"countryName":"United States","fcodeName":"populated place","adminName1":"New Mexico","lat":"33.11511","fcode":"PPL"},{"adminCode1":"NM","lng":"-104.28467","geonameId":5470644,"toponymName":"Happy Valley","countryId":"6252001","fcl":"L","population":0,"countryCode":"US","name":"Happy Valley","fclName":"parks,area, ...","adminCodes1":{"ISO3166_2":"NM"},"countryName":"United States","fcodeName":"area","adminName1":"New Mexico","lat":"32.41956","fcode":"AREA"},{"adminCode1":"NM","lng":"-108.71482","geonameId":5471293,"toponymName":"Hidalgo County","countryId":"6252001","fcl":"A","population":4894,"countryCode":"US","name":"Hidalgo","fclName":"country, state, region,...","adminCodes1":{"ISO3166_2":"NM"},"countryName":"United States","fcodeName":"second-order administrative division","adminName1":"New Mexico","lat":"31.91416","fcode":"ADM2"},{"adminCode1":"NM","lng":"-106.81194","geonameId":5472048,"toponymName":"Horse Lake","countryId":"6252001","fcl":"H","population":0,"countryCode":"US","name":"Horse Lake","fclName":"stream, lake, ...","adminCodes1":{"ISO3166_2":"NM"},"countryName":"United States","fcodeName":"lake","adminName1":"New Mexico","lat":"36.79786","fcode":"LK"},{"adminCode1":"NM","lng":"-106.60669","geonameId":5463237,"toponymName":"Corrales","countryId":"6252001","fcl":"P","population":8502,"countryCode":"US","name":"Corrales","fclName":"city, village,...","adminCodes1":{"ISO3166_2":"NM"},"countryName":"United States","fcodeName":"populated place","adminName1":"New Mexico","lat":"35.23782","fcode":"PPL"}]}
