{"totalResultsCount":23,"geonames":[{"adminCode1":"HI","lng":"-157.96667","geonameId":5851609,"toponymName":"O\u2018ahu","countryId":"6252001","fcl":"T","population":976372,"countryCode":"US","name":"O\u2018ahu","fclName":"mountain,hill,rock,... ","adminCodes1":{"ISO3166_2":"HI"},"countryName":"United States","fcodeName":"island","adminName1":"Hawaii","lat":"21.43333","fcode":"ISL"},{"adminCode1":"HI","lng":"-157.92277","geonameId":8125499,"toponymName":"Oahu Forest National Wildlife Refuge","countryId":"6252001","fcl":"L","population":0,"countryCode":"US","name":"Oahu Forest National Wildlife Refuge","fclName":"parks,area, ...","adminCodes1":{"ISO3166_2":"HI"},"countryName":"United States","fcodeName":"park","adminName1":"Hawaii","lat":"21.48429","fcode":"PRK"},{"adminCode1":"MI","lng":"-83.61335","geonameId":5004259,"toponymName":"Lake Oahu","countryId":"6252001","fcl":"H","population":0,"countryCode":"US","name":"Lake Oahu","fclName":"stream, lake, ...","adminCodes1":{"ISO3166_2":"MI"},"countryName":"United States","fcodeName":"lake","adminName1":"Michigan","lat":"42.81391","fcode":"LK"},{"adminCode1":"HI","lng":"-158.1094","geonameId":9169631,"toponymName":"North Shore Oahu","countryId":"6252001","fcl":"L","population":0,"countryCode":"US","name":"North Shore Oahu","fclName":"parks,area, ...","adminCodes1":{"ISO3166_2":"HI"},"countryName":"United States","fcodeName":"area","adminName1":"Hawaii","lat":"21.59116","fcode":"AREA"},{"adminCode1":"NY","lng":"-73.62178","geonameId":5129459,"toponymName":"Oahu Island","countryId":"6252001","fcl":"T","population":0,"countryCode":"US","name":"Oahu Island","fclName":"mountain,hill,rock,... ","adminCodes1":{"ISO3166_2":"NY"},"countryName":"United States","fcodeName":"island","adminName1":"New York","lat":"43.57035","fcode":"ISL"},{"adminCode1":"HI","lng":"-157.85013","geonameId":5851610,"toponymName":"Oahu Cemetery and Crematory","countryId":"6252001","fcl":"S","population":0,"countryCode":"US","name":"Oahu Cemetery and Crematory","fclName":"spot, building, farm","adminCodes1":{"ISO3166_2":"HI"},"countryName":"United States","fcodeName":"cemetery","adminName1":"Hawaii","lat":"21.3244","fcode":"CMTY"},{"adminCode1":"HI","lng":"-158.00589","geonameId":9781204,"toponymName":"Patsy T. Mink Central Oahu Regional","countryId":"6252001","fcl":"L","population":0,"countryCode":"US","name":"Patsy T. Mink Central Oahu Regional","fclName":"parks,area, ...","adminCodes1":{"ISO3166_2":"HI"},"countryName":"United States","fcodeName":"park","adminName1":"Hawaii","lat":"21.41923","fcode":"PRK"},{"adminCode1":"HI","lng":"-157.02167","geonameId":5853006,"toponymName":"Puu Oahu","countryId":"6252001","fcl":"T","population":0,"countryCode":"US","name":"Puu Oahu","fclName":"mountain,hill,rock,... ","adminCodes1":{"ISO3166_2":"HI"},"countryName":"United States","fcodeName":"mountain","adminName1":"Hawaii","lat":"21.11361","fcode":"MT"},{"adminCode1":"HI","lng":"-155.99719","geonameId":5851613,"toponymName":"O\u2018ahu Point","countryId":"6252001","fcl":"T","population":0,"countryCode":"US","name":"O\u2018ahu Point","fclName":"mountain,hill,rock,... ","adminCodes1":{"ISO3166_2":"HI"},"countryName":"United States","fcodeName":"cape","adminName1":"Hawaii","lat":"20.70004","fcode":"CAPE"},{"adminCode1":"HI","lng":"-157.85684","geonameId":5849709,"toponymName":"Kuakini Medical Center","countryId":"6252001","fcl":"S","population":0,"countryCode":"US","name":"Kuakini Medical Center","fclName":"spot, building, farm","adminCodes1":{"ISO3166_2":"HI"},"countryName":"United States","fcodeName":"hospital","adminName1":"Hawaii","lat":"21.32209","fcode":"HSP"},{"adminCode1":"HI","lng":"-157.98694","geonameId":5850193,"toponymName":"Leeward Community College","countryId":"6252001","fcl":"S","population":0,"countryCode":"US","name":"Leeward Community College","fclName":"spot, building, farm","adminCodes1":{"ISO3166_2":"HI"},"countryName":"United States","fcodeName":"school","adminName1":"Hawaii","lat":"21.39611","fcode":"SCH"},{"adminCode1":"HI","lng":"-156.18786","geonameId":5856428,"toponymName":"\u2018Aiea","countryId":"6252001","fcl":"H","population":0,"countryCode":"US","name":"\u2018Aiea","fclName":"stream, lake, ...","adminCodes1":{"ISO3166_2":"HI"},"countryName":"United States","fcodeName":"bay","adminName1":"Hawaii","lat":"20.88556","fcode":"BAY"},{"adminCode1":"HI","lng":"-157.83247","geonameId":5852760,"toponymName":"Punahou School","countryId":"6252001","fcl":"S","population":0,"countryCode":"US","name":"Punahou School","fclName":"spot, building, farm","adminCodes1":{"ISO3166_2":"HI"},"countryName":"United States","fcodeName":"school","adminName1":"Hawaii","lat":"21.30325","fcode":"SCH"},{"adminCode1":"HI","lng":"-158.03279","geonameId":5854053,"toponymName":"Waiāhole Ditch","countryId":"6252001","fcl":"H","population":0,"countryCode":"US","name":"Waiāhole Ditch","fclName":"stream, lake, ...","adminCodes1":{"ISO3166_2":"HI"},"countryName":"United States","fcodeName":"canal","adminName1":"Hawaii","lat":"21.44859","fcode":"CNL"},{"adminCode1":"HI","lng":"-157.88694","geonameId":5851614,"toponymName":"O\u2018ahu Prison","countryId":"6252001","fcl":"S","population":0,"countryCode":"US","name":"O\u2018ahu Prison","fclName":"spot, building, farm","adminCodes1":{"ISO3166_2":"HI"},"countryName":"United States","fcodeName":"building(s)","adminName1":"Hawaii","lat":"21.33278","fcode":"BLDG"},{"adminCode1":"HI","lng":"-156.11403","geonameId":5852030,"toponymName":"Pali Spring","countryId":"6252001","fcl":"H","population":0,"countryCode":"US","name":"Pali Spring","fclName":"stream, lake, ...","adminCodes1":{"ISO3166_2":"HI"},"countryName":"United States","fcodeName":"spring(s)","adminName1":"Hawaii","lat":"20.81379","fcode":"SPNG"},{"adminCode1":"HI","lng":"-157.9025","geonameId":5851615,"toponymName":"Oahu Prison","countryId":"6252001","fcl":"S","population":0,"countryCode":"US","name":"Oahu Prison","fclName":"spot, building, farm","adminCodes1":{"ISO3166_2":"HI"},"countryName":"United States","fcodeName":"building(s)","adminName1":"Hawaii","lat":"21.3775","fcode":"BLDG"},{"adminCode1":"HI","lng":"-158.03","geonameId":5856302,"toponymName":"Central Oahu Christian Church","countryId":"6252001","fcl":"S","population":0,"countryCode":"US","name":"Central Oahu Christian Church","fclName":"spot, building, farm","adminCodes1":{"ISO3166_2":"HI"},"countryName":"United States","fcodeName":"church","adminName1":"Hawaii","lat":"21.50111","fcode":"CH"},{"adminCode1":"HI","lng":"-157.84417","geonameId":5851611,"toponymName":"Oahu Country Club","countryId":"6252001","fcl":"S","population":0,"countryCode":"US","name":"Oahu Country Club","fclName":"spot, building, farm","adminCodes1":{"ISO3166_2":"HI"},"countryName":"United States","fcodeName":"resort","adminName1":"Hawaii","lat":"21.34333","fcode":"RSRT"},{"adminCode1":"HI","lng":"-157.86722","geonameId":5851612,"toponymName":"Oahu Market","countryId":"6252001","fcl":"S","population":0,"countryCode":"US","name":"Oahu Market","fclName":"spot, building, farm","adminCodes1":{"ISO3166_2":"HI"},"countryName":"United States","fcodeName":"store","adminName1":"Hawaii","lat":"21.31583","fcode":"RET"},{"adminCode1":"HI","lng":"-158.02611","geonameId":5854841,"toponymName":"West Oahu YMCA","countryId":"6252001","fcl":"S","population":0,"countryCode":"US","name":"West Oahu YMCA","fclName":"spot, building, farm","adminCodes1":{"ISO3166_2":"HI"},"countryName":"United States","fcodeName":"building(s)","adminName1":"Hawaii","lat":"21.50417","fcode":"BLDG"},{"adminCode1":"HI","lng":"-157.77346","geonameId":10062586,"toponymName":"Dolphin Quest Oahu","countryId":"6252001","fcl":"S","population":0,"countryCode":"US","name":"Dolphin Quest Oahu","fclName":"spot, building, farm","adminCodes1":{"ISO3166_2":"HI"},"countryName":"United States","fcodeName":"museum","adminName1":"Hawaii","lat":"21.27209","fcode":"MUS"},{"adminCode1":"HI","lng":"-157.73316","geonameId":11611233,"toponymName":"Oahu Equine Veterinary Clinic","countryId":"6252001","fcl":"S","population":0,"countryCode":"US","name":"Oahu Equine Veterinary Clinic","fclName":"spot, building, farm","adminCodes1":{"ISO3166_2":"HI"},"countryName":"United States","fcodeName":"veterinary facility","adminName1":"Hawaii","lat":"21.36129","fcode":"VETF"}]}
