{"totalResultsCount":4079,"geonames":[{"adminCode1":"CA","lng":"-122.2708","geonameId":5378538,"toponymName":"Oakland","countryId":"6252001","fcl":"P","population":419267,"countryCode":"US","name":"Oakland","fclName":"city, village,...","adminCodes1":{"ISO3166_2":"CA"},"countryName":"United States","fcodeName":"seat of a second-order administrative division","adminName1":"California","lat":"37.80437","fcode":"PPLA2"},{"adminCode1":"MI","lng":"-83.14993","geonameId":5012639,"toponymName":"Troy","countryId":"6252001","fcl":"P","population":83280,"countryCode":"US","name":"Troy","fclName":"city, village,...","adminCodes1":{"ISO3166_2":"MI"},"countryName":"United States","fcodeName":"populated place","adminName1":"Michigan","lat":"42.60559","fcode":"PPL"},{"adminCode1":"MI","lng":"-83.29105","geonameId":5006166,"toponymName":"Pontiac","countryId":"6252001","fcl":"P","population":59917,"countryCode":"US","name":"Pontiac","fclName":"city, village,...","adminCodes1":{"ISO3166_2":"MI"},"countryName":"United States","fcodeName":"seat of a second-order administrative division","adminName1":"Michigan","lat":"42.63892","fcode":"PPLA2"},{"adminCode1":"MI","lng":"-83.22187","geonameId":5010636,"toponymName":"Southfield","countryId":"6252001","fcl":"P","population":73156,"countryCode":"US","name":"Southfield","fclName":"city, village,...","adminCodes1":{"ISO3166_2":"MI"},"countryName":"United States","fcodeName":"populated place","adminName1":"Michigan","lat":"42.47337","fcode":"PPL"},{"adminCode1":"MI","lng":"-83.47549","geonameId":5004062,"toponymName":"Novi","countryId":"6252001","fcl":"P","population":58723,"countryCode":"US","name":"Novi","fclName":"city, village,...","adminCodes1":{"ISO3166_2":"MI"},"countryName":"United States","fcodeName":"populated place","adminName1":"Michigan","lat":"42.48059","fcode":"PPL"},{"adminCode1":"MI","lng":"-83.37632","geonameId":4992519,"toponymName":"Farmington","countryId":"6252001","fcl":"P","population":10523,"countryCode":"US","name":"Farmington","fclName":"city, village,...","adminCodes1":{"ISO3166_2":"MI"},"countryName":"United States","fcodeName":"populated place","adminName1":"Michigan","lat":"42.46448","fcode":"PPL"},{"adminCode1":"MI","lng":"-83.13382","geonameId":5007400,"toponymName":"Rochester","countryId":"6252001","fcl":"P","population":12993,"countryCode":"US","name":"Rochester","fclName":"city, village,...","adminCodes1":{"ISO3166_2":"MI"},"countryName":"United States","fcodeName":"populated place","adminName1":"Michigan","lat":"42.68059","fcode":"PPL"},{"adminCode1":"MI","lng":"-83.14465","geonameId":5007804,"toponymName":"Royal Oak","countryId":"6252001","fcl":"P","population":59008,"countryCode":"US","name":"Royal Oak","fclName":"city, village,...","adminCodes1":{"ISO3166_2":"MI"},"countryName":"United States","fcodeName":"populated place","adminName1":"Michigan","lat":"42.48948","fcode":"PPL"},{"adminCode1":"MI","lng":"-83.41181","geonameId":5014130,"toponymName":"Waterford","countryId":"6252001","fcl":"P","population":75737,"countryCode":"US","name":"Waterford","fclName":"city, village,...","adminCodes1":{"ISO3166_2":"MI"},"countryName":"United States","fcodeName":"populated place","adminName1":"Michigan","lat":"42.69303","fcode":"PPL"},{"adminCode1":"MI","lng":"-83.2341","geonameId":4984565,"toponymName":"Auburn Hills","countryId":"6252001","fcl":"P","population":22672,"countryCode":"US","name":"Auburn Hills","fclName":"city, village,...","adminCodes1":{"ISO3166_2":"MI"},"countryName":"United States","fcodeName":"populated place","adminName1":"Michigan","lat":"42.68753","fcode":"PPL"},{"adminCode1":"MI","lng":"-83.24549","geonameId":4986429,"toponymName":"Bloomfield Hills","countryId":"6252001","fcl":"P","population":4004,"countryCode":"US","name":"Bloomfield Hills","fclName":"city, village,...","adminCodes1":{"ISO3166_2":"MI"},"countryName":"United States","fcodeName":"populated place","adminName1":"Michigan","lat":"42.58364","fcode":"PPL"},{"adminCode1":"MI","lng":"-83.37716","geonameId":4992523,"toponymName":"Farmington Hills","countryId":"6252001","fcl":"P","population":81330,"countryCode":"US","name":"Farmington Hills","fclName":"city, village,...","adminCodes1":{"ISO3166_2":"MI"},"countryName":"United States","fcodeName":"populated place","adminName1":"Michigan","lat":"42.48531","fcode":"PPL"},{"adminCode1":"MI","lng":"-83.23966","geonameId":4998587,"toponymName":"Lake Orion","countryId":"6252001","fcl":"P","population":3051,"countryCode":"US","name":"Lake Orion","fclName":"city, village,...","adminCodes1":{"ISO3166_2":"MI"},"countryName":"United States","fcodeName":"populated place","adminName1":"Michigan","lat":"42.78448","fcode":"PPL"},{"adminCode1":"MI","lng":"-83.21132","geonameId":4986172,"toponymName":"Birmingham","countryId":"6252001","fcl":"P","population":20857,"countryCode":"US","name":"Birmingham","fclName":"city, village,...","adminCodes1":{"ISO3166_2":"MI"},"countryName":"United States","fcodeName":"populated place","adminName1":"Michigan","lat":"42.5467","fcode":"PPL"},{"adminCode1":"MI","lng":"-83.18271","geonameId":5004188,"toponymName":"Oak Park","countryId":"6252001","fcl":"P","population":29752,"countryCode":"US","name":"Oak Park","fclName":"city, village,...","adminCodes1":{"ISO3166_2":"MI"},"countryName":"United States","fcodeName":"populated place","adminName1":"Michigan","lat":"42.45948","fcode":"PPL"},{"adminCode1":"MI","lng":"-83.1052","geonameId":5000500,"toponymName":"Madison Heights","countryId":"6252001","fcl":"P","population":30198,"countryCode":"US","name":"Madison Heights","fclName":"city, village,...","adminCodes1":{"ISO3166_2":"MI"},"countryName":"United States","fcodeName":"populated place","adminName1":"Michigan","lat":"42.48587","fcode":"PPL"},{"adminCode1":"MI","lng":"-83.38356","geonameId":7259621,"toponymName":"West Bloomfield Township","countryId":"6252001","fcl":"P","population":64690,"countryCode":"US","name":"West Bloomfield","fclName":"city, village,...","adminCodes1":{"ISO3166_2":"MI"},"countryName":"United States","fcodeName":"populated place","adminName1":"Michigan","lat":"42.56891","fcode":"PPL"},{"adminCode1":"MI","lng":"-83.14993","geonameId":5007402,"toponymName":"Rochester Hills","countryId":"6252001","fcl":"P","population":73424,"countryCode":"US","name":"Rochester Hills","fclName":"city, village,...","adminCodes1":{"ISO3166_2":"MI"},"countryName":"United States","fcodeName":"populated place","adminName1":"Michigan","lat":"42.65837","fcode":"PPL"},{"adminCode1":"MI","lng":"-83.26466","geonameId":5004817,"toponymName":"Oxford","countryId":"6252001","fcl":"P","population":3534,"countryCode":"US","name":"Oxford","fclName":"city, village,...","adminCodes1":{"ISO3166_2":"MI"},"countryName":"United States","fcodeName":"populated place","adminName1":"Michigan","lat":"42.82475","fcode":"PPL"},{"adminCode1":"MI","lng":"-83.41883","geonameId":4988997,"toponymName":"Clarkston","countryId":"6252001","fcl":"P","population":1035,"countryCode":"US","name":"Clarkston","fclName":"city, village,...","adminCodes1":{"ISO3166_2":"MI"},"countryName":"United States","fcodeName":"populated place","adminName1":"Michigan","lat":"42.73586","fcode":"PPL"},{"adminCode1":"MI","lng":"-83.13465","geonameId":4992635,"toponymName":"Ferndale","countryId":"6252001","fcl":"P","population":20177,"countryCode":"US","name":"Ferndale","fclName":"city, village,...","adminCodes1":{"ISO3166_2":"MI"},"countryName":"United States","fcodeName":"populated place","adminName1":"Michigan","lat":"42.46059","fcode":"PPL"},{"adminCode1":"CA","lng":"-122.42031","geonameId":6955114,"toponymName":"San Francisco-Oakland-Fremont","countryId":"6252001","fcl":"L","population":4274531,"countryCode":"US","name":"San Francisco-Oakland-Fremont","fclName":"parks,area, ...","adminCodes1":{"ISO3166_2":"CA"},"countryName":"United States","fcodeName":"economic region","adminName1":"California","lat":"37.77668","fcode":"RGNE"},{"adminCode1":"MI","lng":"-83.3858","geonameId":5004223,"toponymName":"Oakland County","countryId":"6252001","fcl":"A","population":1202362,"countryCode":"US","name":"Oakland","fclName":"country, state, region,...","adminCodes1":{"ISO3166_2":"MI"},"countryName":"United States","fcodeName":"second-order administrative division","adminName1":"Michigan","lat":"42.66041","fcode":"ADM2"},{"adminCode1":"MI","lng":"-83.41711","geonameId":5004233,"toponymName":"Oakland County International Airport","countryId":"6252001","fcl":"S","population":0,"countryCode":"US","name":"Oakland County International Airport","fclName":"spot, building, farm","adminCodes1":{"ISO3166_2":"MI"},"countryName":"United States","fcodeName":"airport","adminName1":"Michigan","lat":"42.66331","fcode":"AIRP"},{"adminCode1":"CA","lng":"-122.21955","geonameId":5372555,"toponymName":"Oakland International Airport","countryId":"6252001","fcl":"S","population":0,"countryCode":"US","name":"Oakland International Airport","fclName":"spot, building, farm","adminCodes1":{"ISO3166_2":"CA"},"countryName":"United States","fcodeName":"airport","adminName1":"California","lat":"37.73071","fcode":"AIRP"},{"adminCode1":"MI","lng":"-83.17826","geonameId":5004234,"toponymName":"Oakland-Troy Airport","countryId":"6252001","fcl":"S","population":0,"countryCode":"US","name":"Oakland-Troy Airport","fclName":"spot, building, farm","adminCodes1":{"ISO3166_2":"MI"},"countryName":"United States","fcodeName":"airport","adminName1":"Michigan","lat":"42.54281","fcode":"AIRP"},{"adminCode1":"MI","lng":"-83.36162","geonameId":5004232,"toponymName":"Lake Oakland","countryId":"6252001","fcl":"H","population":0,"countryCode":"US","name":"Lake Oakland","fclName":"stream, lake, ...","adminCodes1":{"ISO3166_2":"MI"},"countryName":"United States","fcodeName":"lake","adminName1":"Michigan","lat":"42.70104","fcode":"LK"},{"adminCode1":"MI","lng":"-83.0863","geonameId":7144048,"toponymName":"Hazel Park Harness Raceway","countryId":"6252001","fcl":"L","population":0,"countryCode":"US","name":"Hazel Park Harness Raceway","fclName":"parks,area, ...","adminCodes1":{"ISO3166_2":"MI"},"countryName":"United States","fcodeName":"park","adminName1":"Michigan","lat":"42.4736","fcode":"PRK"},{"adminCode1":"MI","lng":"-83.14215","geonameId":5006011,"toponymName":"Pleasant Ridge","countryId":"6252001","fcl":"P","population":2556,"countryCode":"US","name":"Pleasant Ridge","fclName":"city, village,...","adminCodes1":{"ISO3166_2":"MI"},"countryName":"United States","fcodeName":"populated place","adminName1":"Michigan","lat":"42.47115","fcode":"PPL"},{"adminCode1":"MI","lng":"-83.46029","geonameId":5006172,"toponymName":"Pontiac Lake","countryId":"6252001","fcl":"H","population":0,"countryCode":"US","name":"Pontiac Lake","fclName":"stream, lake, ...","adminCodes1":{"ISO3166_2":"MI"},"countryName":"United States","fcodeName":"lake","adminName1":"Michigan","lat":"42.6683","fcode":"LK"},{"adminCode1":"MI","lng":"-83.4705","geonameId":5006174,"toponymName":"Pontiac Lake State Recreation Area","countryId":"6252001","fcl":"L","population":0,"countryCode":"US","name":"Pontiac Lake State Recreation Area","fclName":"parks,area, ...","adminCodes1":{"ISO3166_2":"MI"},"countryName":"United States","fcodeName":"park","adminName1":"Michigan","lat":"42.67559","fcode":"PRK"},{"adminCode1":"MI","lng":"-83.54661","geonameId":5006561,"toponymName":"Proud Lake State Recreation Area","countryId":"6252001","fcl":"L","population":0,"countryCode":"US","name":"Proud Lake State Recreation Area","fclName":"parks,area, ...","adminCodes1":{"ISO3166_2":"MI"},"countryName":"United States","fcodeName":"park","adminName1":"Michigan","lat":"42.56753","fcode":"PRK"},{"adminCode1":"MI","lng":"-83.34852","geonameId":5009197,"toponymName":"Schoolhouse Lake","countryId":"6252001","fcl":"H","population":0,"countryCode":"US","name":"Schoolhouse Lake","fclName":"stream, lake, ...","adminCodes1":{"ISO3166_2":"MI"},"countryName":"United States","fcodeName":"lake","adminName1":"Michigan","lat":"42.68555","fcode":"LK"},{"adminCode1":"MI","lng":"-83.65161","geonameId":5010548,"toponymName":"South Lyon","countryId":"6252001","fcl":"P","population":11722,"countryCode":"US","name":"South Lyon","fclName":"city, village,...","adminCodes1":{"ISO3166_2":"MI"},"countryName":"United States","fcodeName":"populated place","adminName1":"Michigan","lat":"42.46059","fcode":"PPL"},{"adminCode1":"MI","lng":"-83.33688","geonameId":5011760,"toponymName":"Sylvan Lake","countryId":"6252001","fcl":"H","population":0,"countryCode":"US","name":"Sylvan Lake","fclName":"stream, lake, ...","adminCodes1":{"ISO3166_2":"MI"},"countryName":"United States","fcodeName":"lake","adminName1":"Michigan","lat":"42.62364","fcode":"LK"},{"adminCode1":"MI","lng":"-83.27382","geonameId":5012360,"toponymName":"Tommys Lake","countryId":"6252001","fcl":"H","population":0,"countryCode":"US","name":"Tommys Lake","fclName":"stream, lake, ...","adminCodes1":{"ISO3166_2":"MI"},"countryName":"United States","fcodeName":"lake","adminName1":"Michigan","lat":"42.76182","fcode":"LK"},{"adminCode1":"MI","lng":"-83.41188","geonameId":5013128,"toponymName":"Van Norman Lake","countryId":"6252001","fcl":"H","population":0,"countryCode":"US","name":"Van Norman Lake","fclName":"stream, lake, ...","adminCodes1":{"ISO3166_2":"MI"},"countryName":"United States","fcodeName":"lake","adminName1":"Michigan","lat":"42.70476","fcode":"LK"},{"adminCode1":"MI","lng":"-83.48105","geonameId":5013961,"toponymName":"Walled Lake","countryId":"6252001","fcl":"P","population":7110,"countryCode":"US","name":"Walled Lake","fclName":"city, village,...","adminCodes1":{"ISO3166_2":"MI"},"countryName":"United States","fcodeName":"populated place","adminName1":"Michigan","lat":"42.53781","fcode":"PPL"},{"adminCode1":"MI","lng":"-83.30604","geonameId":4993335,"toponymName":"Franklin","countryId":"6252001","fcl":"P","population":3237,"countryCode":"US","name":"Franklin","fclName":"city, village,...","adminCodes1":{"ISO3166_2":"MI"},"countryName":"United States","fcodeName":"populated place","adminName1":"Michigan","lat":"42.52226","fcode":"PPL"},{"adminCode1":"MI","lng":"-83.42513","geonameId":4994728,"toponymName":"Greens Lake","countryId":"6252001","fcl":"H","population":0,"countryCode":"US","name":"Greens Lake","fclName":"stream, lake, ...","adminCodes1":{"ISO3166_2":"MI"},"countryName":"United States","fcodeName":"lake","adminName1":"Michigan","lat":"42.71337","fcode":"LK"},{"adminCode1":"MI","lng":"-83.10409","geonameId":4995664,"toponymName":"Hazel Park","countryId":"6252001","fcl":"P","population":16597,"countryCode":"US","name":"Hazel Park","fclName":"city, village,...","adminCodes1":{"ISO3166_2":"MI"},"countryName":"United States","fcodeName":"populated place","adminName1":"Michigan","lat":"42.46254","fcode":"PPL"},{"adminCode1":"MI","lng":"-83.62773","geonameId":4996274,"toponymName":"Holly","countryId":"6252001","fcl":"P","population":6169,"countryCode":"US","name":"Holly","fclName":"city, village,...","adminCodes1":{"ISO3166_2":"MI"},"countryName":"United States","fcodeName":"populated place","adminName1":"Michigan","lat":"42.79197","fcode":"PPL"},{"adminCode1":"MI","lng":"-83.16687","geonameId":4996832,"toponymName":"Huntington Woods","countryId":"6252001","fcl":"P","population":6340,"countryCode":"US","name":"Huntington Woods","fclName":"city, village,...","adminCodes1":{"ISO3166_2":"MI"},"countryName":"United States","fcodeName":"populated place","adminName1":"Michigan","lat":"42.48059","fcode":"PPL"},{"adminCode1":"MI","lng":"-83.32397","geonameId":4984240,"toponymName":"Lake Angelus","countryId":"6252001","fcl":"H","population":0,"countryCode":"US","name":"Lake Angelus","fclName":"stream, lake, ...","adminCodes1":{"ISO3166_2":"MI"},"countryName":"United States","fcodeName":"lake","adminName1":"Michigan","lat":"42.69146","fcode":"LK"},{"adminCode1":"MI","lng":"-83.21133","geonameId":4984798,"toponymName":"Bald Mountain State Recreation Area","countryId":"6252001","fcl":"L","population":0,"countryCode":"US","name":"Bald Mountain State Recreation Area","fclName":"parks,area, ...","adminCodes1":{"ISO3166_2":"MI"},"countryName":"United States","fcodeName":"park","adminName1":"Michigan","lat":"42.77725","fcode":"PRK"},{"adminCode1":"MI","lng":"-83.18354","geonameId":4985744,"toponymName":"Berkley","countryId":"6252001","fcl":"P","population":15268,"countryCode":"US","name":"Berkley","fclName":"city, village,...","adminCodes1":{"ISO3166_2":"MI"},"countryName":"United States","fcodeName":"populated place","adminName1":"Michigan","lat":"42.50309","fcode":"PPL"},{"adminCode1":"MI","lng":"-83.22326","geonameId":4985891,"toponymName":"Beverly Hills","countryId":"6252001","fcl":"P","population":10267,"countryCode":"US","name":"Beverly Hills","fclName":"city, village,...","adminCodes1":{"ISO3166_2":"MI"},"countryName":"United States","fcodeName":"populated place","adminName1":"Michigan","lat":"42.52392","fcode":"PPL"},{"adminCode1":"MI","lng":"-83.36778","geonameId":4988221,"toponymName":"Cass Lake","countryId":"6252001","fcl":"H","population":0,"countryCode":"US","name":"Cass Lake","fclName":"stream, lake, ...","adminCodes1":{"ISO3166_2":"MI"},"countryName":"United States","fcodeName":"lake","adminName1":"Michigan","lat":"42.60824","fcode":"LK"},{"adminCode1":"MI","lng":"-83.59939","geonameId":5001972,"toponymName":"Milford","countryId":"6252001","fcl":"P","population":6472,"countryCode":"US","name":"Milford","fclName":"city, village,...","adminCodes1":{"ISO3166_2":"MI"},"countryName":"United States","fcodeName":"populated place","adminName1":"Michigan","lat":"42.59364","fcode":"PPL"},{"adminCode1":"MI","lng":"-83.37052","geonameId":5004550,"toponymName":"Orchard Lake","countryId":"6252001","fcl":"H","population":0,"countryCode":"US","name":"Orchard Lake","fclName":"stream, lake, ...","adminCodes1":{"ISO3166_2":"MI"},"countryName":"United States","fcodeName":"lake","adminName1":"Michigan","lat":"42.58774","fcode":"LK"},{"adminCode1":"MI","lng":"-83.2571","geonameId":5004573,"toponymName":"Lake Orion","countryId":"6252001","fcl":"H","population":0,"countryCode":"US","name":"Lake Orion","fclName":"stream, lake, ...","adminCodes1":{"ISO3166_2":"MI"},"countryName":"United States","fcodeName":"lake","adminName1":"Michigan","lat":"42.77669","fcode":"LK"},{"adminCode1":"MI","lng":"-83.443","geonameId":5004593,"toponymName":"Ortonville","countryId":"6252001","fcl":"P","population":1463,"countryCode":"US","name":"Ortonville","fclName":"city, village,...","adminCodes1":{"ISO3166_2":"MI"},"countryName":"United States","fcodeName":"populated place","adminName1":"Michigan","lat":"42.85225","fcode":"PPL"},{"adminCode1":"MI","lng":"-83.14632","geonameId":4989005,"toponymName":"Clawson","countryId":"6252001","fcl":"P","population":12015,"countryCode":"US","name":"Clawson","fclName":"city, village,...","adminCodes1":{"ISO3166_2":"MI"},"countryName":"United States","fcodeName":"populated place","adminName1":"Michigan","lat":"42.53337","fcode":"PPL"},{"adminCode1":"MI","lng":"-83.38064","geonameId":4991949,"toponymName":"Elizabeth Lake","countryId":"6252001","fcl":"H","population":0,"countryCode":"US","name":"Elizabeth Lake","fclName":"stream, lake, ...","adminCodes1":{"ISO3166_2":"MI"},"countryName":"United States","fcodeName":"lake","adminName1":"Michigan","lat":"42.63049","fcode":"LK"},{"adminCode1":"MI","lng":"-83.34382","geonameId":4997868,"toponymName":"Keego Harbor","countryId":"6252001","fcl":"P","population":3029,"countryCode":"US","name":"Keego Harbor","fclName":"city, village,...","adminCodes1":{"ISO3166_2":"MI"},"countryName":"United States","fcodeName":"populated place","adminName1":"Michigan","lat":"42.60809","fcode":"PPL"},{"adminCode1":"MI","lng":"-83.15136","geonameId":4998734,"toponymName":"Lakeville Lake","countryId":"6252001","fcl":"H","population":0,"countryCode":"US","name":"Lakeville Lake","fclName":"stream, lake, ...","adminCodes1":{"ISO3166_2":"MI"},"countryName":"United States","fcodeName":"lake","adminName1":"Michigan","lat":"42.8304","fcode":"LK"},{"adminCode1":"MI","lng":"-83.30508","geonameId":4998839,"toponymName":"Lantern Lake","countryId":"6252001","fcl":"H","population":0,"countryCode":"US","name":"Lantern Lake","fclName":"stream, lake, ...","adminCodes1":{"ISO3166_2":"MI"},"countryName":"United States","fcodeName":"lake","adminName1":"Michigan","lat":"42.69492","fcode":"LK"},{"adminCode1":"MI","lng":"-83.42661","geonameId":5000196,"toponymName":"Lotus Lake","countryId":"6252001","fcl":"H","population":0,"countryCode":"US","name":"Lotus Lake","fclName":"stream, lake, ...","adminCodes1":{"ISO3166_2":"MI"},"countryName":"United States","fcodeName":"lake","adminName1":"Michigan","lat":"42.69642","fcode":"LK"},{"adminCode1":"MI","lng":"-83.42293","geonameId":5000431,"toponymName":"Maceday Lake","countryId":"6252001","fcl":"H","population":0,"countryCode":"US","name":"Maceday Lake","fclName":"stream, lake, ...","adminCodes1":{"ISO3166_2":"MI"},"countryName":"United States","fcodeName":"lake","adminName1":"Michigan","lat":"42.69426","fcode":"LK"},{"adminCode1":"MI","lng":"-83.47059","geonameId":5000603,"toponymName":"Mandon Lake","countryId":"6252001","fcl":"H","population":0,"countryCode":"US","name":"Mandon Lake","fclName":"stream, lake, ...","adminCodes1":{"ISO3166_2":"MI"},"countryName":"United States","fcodeName":"lake","adminName1":"Michigan","lat":"42.62403","fcode":"LK"},{"adminCode1":"MI","lng":"-83.42333","geonameId":5015119,"toponymName":"Williams Lake","countryId":"6252001","fcl":"H","population":0,"countryCode":"US","name":"Williams Lake","fclName":"stream, lake, ...","adminCodes1":{"ISO3166_2":"MI"},"countryName":"United States","fcodeName":"lake","adminName1":"Michigan","lat":"42.6757","fcode":"LK"},{"adminCode1":"MI","lng":"-83.53633","geonameId":5015351,"toponymName":"Wixom","countryId":"6252001","fcl":"P","population":13746,"countryCode":"US","name":"Wixom","fclName":"city, village,...","adminCodes1":{"ISO3166_2":"MI"},"countryName":"United States","fcodeName":"populated place","adminName1":"Michigan","lat":"42.52476","fcode":"PPL"},{"adminCode1":"MI","lng":"-83.38063","geonameId":5015459,"toponymName":"Woodhull Lake","countryId":"6252001","fcl":"H","population":0,"countryCode":"US","name":"Woodhull Lake","fclName":"stream, lake, ...","adminCodes1":{"ISO3166_2":"MI"},"countryName":"United States","fcodeName":"lake","adminName1":"Michigan","lat":"42.70298","fcode":"LK"},{"adminCode1":"MI","lng":"-83.66389","geonameId":8095115,"toponymName":"Seven Lakes State Park","countryId":"6252001","fcl":"L","population":0,"countryCode":"US","name":"Seven Lakes State Park","fclName":"parks,area, ...","adminCodes1":{"ISO3166_2":"MI"},"countryName":"United States","fcodeName":"park","adminName1":"Michigan","lat":"42.8125","fcode":"PRK"},{"adminCode1":"MI","lng":"-83.62307","geonameId":5003396,"toponymName":"Oakland Southwest Airport","countryId":"6252001","fcl":"S","population":0,"countryCode":"US","name":"Oakland Southwest Airport","fclName":"spot, building, farm","adminCodes1":{"ISO3166_2":"MI"},"countryName":"United States","fcodeName":"airport","adminName1":"Michigan","lat":"42.50404","fcode":"AIRP"},{"adminCode1":"MI","lng":"-83.4468","geonameId":5008961,"toponymName":"Sans Souci Lake","countryId":"6252001","fcl":"H","population":0,"countryCode":"US","name":"Sans Souci Lake","fclName":"stream, lake, ...","adminCodes1":{"ISO3166_2":"MI"},"countryName":"United States","fcodeName":"lake","adminName1":"Michigan","lat":"42.71938","fcode":"LK"},{"adminCode1":"MI","lng":"-83.32855","geonameId":5011761,"toponymName":"Sylvan Lake","countryId":"6252001","fcl":"P","population":1785,"countryCode":"US","name":"Sylvan Lake","fclName":"city, village,...","adminCodes1":{"ISO3166_2":"MI"},"countryName":"United States","fcodeName":"populated place","adminName1":"Michigan","lat":"42.61142","fcode":"PPL"},{"adminCode1":"MI","lng":"-83.61135","geonameId":5012379,"toponymName":"Tooley Lake","countryId":"6252001","fcl":"H","population":0,"countryCode":"US","name":"Tooley Lake","fclName":"stream, lake, ...","adminCodes1":{"ISO3166_2":"MI"},"countryName":"United States","fcodeName":"lake","adminName1":"Michigan","lat":"42.80937","fcode":"LK"},{"adminCode1":"MI","lng":"-83.46667","geonameId":5012685,"toponymName":"Tull Lake","countryId":"6252001","fcl":"H","population":0,"countryCode":"US","name":"Tull Lake","fclName":"stream, lake, ...","adminCodes1":{"ISO3166_2":"MI"},"countryName":"United States","fcodeName":"lake","adminName1":"Michigan","lat":"42.6508","fcode":"LK"},{"adminCode1":"MI","lng":"-83.44688","geonameId":5012937,"toponymName":"Union Lake","countryId":"6252001","fcl":"P","population":0,"countryCode":"US","name":"Union Lake","fclName":"city, village,...","adminCodes1":{"ISO3166_2":"MI"},"countryName":"United States","fcodeName":"populated place","adminName1":"Michigan","lat":"42.61475","fcode":"PPL"},{"adminCode1":"MI","lng":"-83.19896","geonameId":4995693,"toponymName":"Heart Lake","countryId":"6252001","fcl":"H","population":0,"countryCode":"US","name":"Heart Lake","fclName":"stream, lake, ...","adminCodes1":{"ISO3166_2":"MI"},"countryName":"United States","fcodeName":"lake","adminName1":"Michigan","lat":"42.78269","fcode":"LK"},{"adminCode1":"MI","lng":"-83.61717","geonameId":4996005,"toponymName":"Highland","countryId":"6252001","fcl":"P","population":0,"countryCode":"US","name":"Highland","fclName":"city, village,...","adminCodes1":{"ISO3166_2":"MI"},"countryName":"United States","fcodeName":"populated place","adminName1":"Michigan","lat":"42.63809","fcode":"PPL"},{"adminCode1":"MI","lng":"-83.42316","geonameId":4996740,"toponymName":"Huff Lake","countryId":"6252001","fcl":"H","population":0,"countryCode":"US","name":"Huff Lake","fclName":"stream, lake, ...","adminCodes1":{"ISO3166_2":"MI"},"countryName":"United States","fcodeName":"lake","adminName1":"Michigan","lat":"42.81641","fcode":"LK"},{"adminCode1":"MI","lng":"-83.27326","geonameId":4986099,"toponymName":"Bingham Farms","countryId":"6252001","fcl":"P","population":1133,"countryCode":"US","name":"Bingham Farms","fclName":"city, village,...","adminCodes1":{"ISO3166_2":"MI"},"countryName":"United States","fcodeName":"populated place","adminName1":"Michigan","lat":"42.51587","fcode":"PPL"},{"adminCode1":"MI","lng":"-83.31356","geonameId":5001575,"toponymName":"Meadow Lake","countryId":"6252001","fcl":"H","population":0,"countryCode":"US","name":"Meadow Lake","fclName":"stream, lake, ...","adminCodes1":{"ISO3166_2":"MI"},"countryName":"United States","fcodeName":"lake","adminName1":"Michigan","lat":"42.54029","fcode":"LK"},{"adminCode1":"MI","lng":"-83.35938","geonameId":5004551,"toponymName":"Orchard Lake","countryId":"6252001","fcl":"P","population":2245,"countryCode":"US","name":"Orchard Lake","fclName":"city, village,...","adminCodes1":{"ISO3166_2":"MI"},"countryName":"United States","fcodeName":"populated place","adminName1":"Michigan","lat":"42.58309","fcode":"PPL"},{"adminCode1":"MI","lng":"-83.24423","geonameId":5004822,"toponymName":"Oxford Lake","countryId":"6252001","fcl":"H","population":0,"countryCode":"US","name":"Oxford Lake","fclName":"stream, lake, ...","adminCodes1":{"ISO3166_2":"MI"},"countryName":"United States","fcodeName":"lake","adminName1":"Michigan","lat":"42.81926","fcode":"LK"},{"adminCode1":"MI","lng":"-83.60811","geonameId":4991133,"toponymName":"Downey Lake","countryId":"6252001","fcl":"H","population":0,"countryCode":"US","name":"Downey Lake","fclName":"stream, lake, ...","adminCodes1":{"ISO3166_2":"MI"},"countryName":"United States","fcodeName":"lake","adminName1":"Michigan","lat":"42.64421","fcode":"LK"},{"adminCode1":"MI","lng":"-83.37716","geonameId":4991167,"toponymName":"Drayton Plains","countryId":"6252001","fcl":"P","population":0,"countryCode":"US","name":"Drayton Plains","fclName":"city, village,...","adminCodes1":{"ISO3166_2":"MI"},"countryName":"United States","fcodeName":"populated place","adminName1":"Michigan","lat":"42.6842","fcode":"PPL"},{"adminCode1":"MI","lng":"-83.23979","geonameId":4992219,"toponymName":"Lake Erin","countryId":"6252001","fcl":"H","population":0,"countryCode":"US","name":"Lake Erin","fclName":"stream, lake, ...","adminCodes1":{"ISO3166_2":"MI"},"countryName":"United States","fcodeName":"lake","adminName1":"Michigan","lat":"42.81269","fcode":"LK"},{"adminCode1":"MI","lng":"-83.22271","geonameId":4998900,"toponymName":"Lathrup Village","countryId":"6252001","fcl":"P","population":4135,"countryCode":"US","name":"Lathrup Village","fclName":"city, village,...","adminCodes1":{"ISO3166_2":"MI"},"countryName":"United States","fcodeName":"populated place","adminName1":"Michigan","lat":"42.49642","fcode":"PPL"},{"adminCode1":"MI","lng":"-83.14271","geonameId":4999097,"toponymName":"Leonard","countryId":"6252001","fcl":"P","population":410,"countryCode":"US","name":"Leonard","fclName":"city, village,...","adminCodes1":{"ISO3166_2":"MI"},"countryName":"United States","fcodeName":"populated place","adminName1":"Michigan","lat":"42.86531","fcode":"PPL"},{"adminCode1":"MI","lng":"-83.55411","geonameId":5014843,"toponymName":"White Lake","countryId":"6252001","fcl":"P","population":0,"countryCode":"US","name":"White Lake","fclName":"city, village,...","adminCodes1":{"ISO3166_2":"MI"},"countryName":"United States","fcodeName":"populated place","adminName1":"Michigan","lat":"42.6917","fcode":"PPL"},{"adminCode1":"MI","lng":"-83.47383","geonameId":5015416,"toponymName":"Wolverine Lake","countryId":"6252001","fcl":"P","population":4312,"countryCode":"US","name":"Wolverine Lake","fclName":"city, village,...","adminCodes1":{"ISO3166_2":"MI"},"countryName":"United States","fcodeName":"populated place","adminName1":"Michigan","lat":"42.5567","fcode":"PPL"},{"adminCode1":"NJ","lng":"-74.26431","geonameId":5102118,"toponymName":"Oakland","countryId":"6252001","fcl":"P","population":13165,"countryCode":"US","name":"Oakland","fclName":"city, village,...","adminCodes1":{"ISO3166_2":"NJ"},"countryName":"United States","fcodeName":"populated place","adminName1":"New Jersey","lat":"41.01315","fcode":"PPL"},{"adminCode1":"FL","lng":"-80.13199","geonameId":4166638,"toponymName":"Oakland Park","countryId":"6252001","fcl":"P","population":44319,"countryCode":"US","name":"Oakland Park","fclName":"city, village,...","adminCodes1":{"ISO3166_2":"FL"},"countryName":"United States","fcodeName":"populated place","adminName1":"Florida","lat":"26.17231","fcode":"PPL"},{"adminCode1":"ME","lng":"-69.72199","geonameId":4974071,"toponymName":"Oakland","countryId":"6252001","fcl":"P","population":2602,"countryCode":"US","name":"Oakland","fclName":"city, village,...","adminCodes1":{"ISO3166_2":"ME"},"countryName":"United States","fcodeName":"populated place","adminName1":"Maine","lat":"44.54034","fcode":"PPL"},{"adminCode1":"MI","lng":"-83.36716","geonameId":5005779,"toponymName":"Pine Knob","countryId":"6252001","fcl":"T","population":0,"countryCode":"US","name":"Pine Knob","fclName":"mountain,hill,rock,... ","adminCodes1":{"ISO3166_2":"MI"},"countryName":"United States","fcodeName":"mountain","adminName1":"Michigan","lat":"42.74225","fcode":"MT"},{"adminCode1":"MI","lng":"-83.27311","geonameId":5006398,"toponymName":"Powell Lake","countryId":"6252001","fcl":"H","population":0,"countryCode":"US","name":"Powell Lake","fclName":"stream, lake, ...","adminCodes1":{"ISO3166_2":"MI"},"countryName":"United States","fcodeName":"lake","adminName1":"Michigan","lat":"42.81287","fcode":"LK"},{"adminCode1":"MI","lng":"-83.58425","geonameId":5006807,"toponymName":"Rattalee Lake","countryId":"6252001","fcl":"H","population":0,"countryCode":"US","name":"Rattalee Lake","fclName":"stream, lake, ...","adminCodes1":{"ISO3166_2":"MI"},"countryName":"United States","fcodeName":"lake","adminName1":"Michigan","lat":"42.77763","fcode":"LK"},{"adminCode1":"MI","lng":"-83.61079","geonameId":5007069,"toponymName":"Rice Lake","countryId":"6252001","fcl":"H","population":0,"countryCode":"US","name":"Rice Lake","fclName":"stream, lake, ...","adminCodes1":{"ISO3166_2":"MI"},"countryName":"United States","fcodeName":"lake","adminName1":"Michigan","lat":"42.79884","fcode":"LK"},{"adminCode1":"MI","lng":"-83.64123","geonameId":5007100,"toponymName":"Richardson Lake","countryId":"6252001","fcl":"H","population":0,"countryCode":"US","name":"Richardson Lake","fclName":"stream, lake, ...","adminCodes1":{"ISO3166_2":"MI"},"countryName":"United States","fcodeName":"lake","adminName1":"Michigan","lat":"42.75516","fcode":"LK"},{"adminCode1":"MI","lng":"-83.15048","geonameId":5007549,"toponymName":"Donald Red Geary Park","countryId":"6252001","fcl":"L","population":0,"countryCode":"US","name":"Donald Red Geary Park","fclName":"parks,area, ...","adminCodes1":{"ISO3166_2":"MI"},"countryName":"United States","fcodeName":"park","adminName1":"Michigan","lat":"42.46254","fcode":"PRK"},{"adminCode1":"MI","lng":"-83.28068","geonameId":5007757,"toponymName":"Round Lake","countryId":"6252001","fcl":"H","population":0,"countryCode":"US","name":"Round Lake","fclName":"stream, lake, ...","adminCodes1":{"ISO3166_2":"MI"},"countryName":"United States","fcodeName":"lake","adminName1":"Michigan","lat":"42.75758","fcode":"LK"},{"adminCode1":"MI","lng":"-83.11662","geonameId":5009346,"toponymName":"Secord Lake","countryId":"6252001","fcl":"H","population":0,"countryCode":"US","name":"Secord Lake","fclName":"stream, lake, ...","adminCodes1":{"ISO3166_2":"MI"},"countryName":"United States","fcodeName":"lake","adminName1":"Michigan","lat":"42.87689","fcode":"LK"},{"adminCode1":"MI","lng":"-83.49911","geonameId":5010478,"toponymName":"South Commerce Lake","countryId":"6252001","fcl":"H","population":0,"countryCode":"US","name":"South Commerce Lake","fclName":"stream, lake, ...","adminCodes1":{"ISO3166_2":"MI"},"countryName":"United States","fcodeName":"lake","adminName1":"Michigan","lat":"42.57391","fcode":"LK"},{"adminCode1":"MI","lng":"-83.20651","geonameId":5010640,"toponymName":"Catalpa Oaks County Park","countryId":"6252001","fcl":"L","population":0,"countryCode":"US","name":"Catalpa Oaks County Park","fclName":"parks,area, ...","adminCodes1":{"ISO3166_2":"MI"},"countryName":"United States","fcodeName":"park","adminName1":"Michigan","lat":"42.49431","fcode":"PRK"},{"adminCode1":"MI","lng":"-83.23076","geonameId":5010641,"toponymName":"Southfield Park","countryId":"6252001","fcl":"L","population":0,"countryCode":"US","name":"Southfield Park","fclName":"parks,area, ...","adminCodes1":{"ISO3166_2":"MI"},"countryName":"United States","fcodeName":"park","adminName1":"Michigan","lat":"42.52198","fcode":"PRK"},{"adminCode1":"MI","lng":"-83.54476","geonameId":5011198,"toponymName":"Stewart Lake","countryId":"6252001","fcl":"H","population":0,"countryCode":"US","name":"Stewart Lake","fclName":"stream, lake, ...","adminCodes1":{"ISO3166_2":"MI"},"countryName":"United States","fcodeName":"lake","adminName1":"Michigan","lat":"42.81886","fcode":"LK"},{"adminCode1":"MI","lng":"-83.19966","geonameId":5011845,"toponymName":"Tamarack Lake","countryId":"6252001","fcl":"H","population":0,"countryCode":"US","name":"Tamarack Lake","fclName":"stream, lake, ...","adminCodes1":{"ISO3166_2":"MI"},"countryName":"United States","fcodeName":"lake","adminName1":"Michigan","lat":"42.77975","fcode":"LK"}]}
