{"totalResultsCount":104,"geonames":[{"adminCode1":"PA","lng":"-79.70644","geonameId":5204278,"toponymName":"Oil City","countryId":"6252001","fcl":"P","population":10137,"countryCode":"US","name":"Oil City","fclName":"city, village,...","adminCodes1":{"ISO3166_2":"PA"},"countryName":"United States","fcodeName":"populated place","adminName1":"Pennsylvania","lat":"41.43395","fcode":"PPL"},{"adminCode1":"LA","lng":"-93.97157","geonameId":4335921,"toponymName":"Oil City","countryId":"6252001","fcl":"P","population":997,"countryCode":"US","name":"Oil City","fclName":"city, village,...","adminCodes1":{"ISO3166_2":"LA"},"countryName":"United States","fcodeName":"populated place","adminName1":"Louisiana","lat":"32.74403","fcode":"PPL"},{"adminCode1":"MD","lng":"-75.81466","geonameId":4364395,"toponymName":"Oil City","countryId":"6252001","fcl":"P","population":0,"countryCode":"US","name":"Oil City","fclName":"city, village,...","adminCodes1":{"ISO3166_2":"MD"},"countryName":"United States","fcodeName":"populated place","adminName1":"Maryland","lat":"38.90511","fcode":"PPL"},{"adminCode1":"MS","lng":"-90.43398","geonameId":4439541,"toponymName":"Oil City","countryId":"6252001","fcl":"P","population":0,"countryCode":"US","name":"Oil City","fclName":"city, village,...","adminCodes1":{"ISO3166_2":"MS"},"countryName":"United States","fcodeName":"populated place","adminName1":"Mississippi","lat":"32.69125","fcode":"PPL"},{"adminCode1":"OK","lng":"-97.41836","geonameId":4544245,"toponymName":"Oil City","countryId":"6252001","fcl":"P","population":0,"countryCode":"US","name":"Oil City","fclName":"city, village,...","adminCodes1":{"ISO3166_2":"OK"},"countryName":"United States","fcodeName":"populated place","adminName1":"Oklahoma","lat":"34.27454","fcode":"PPL"},{"adminCode1":"MO","lng":"-92.84936","geonameId":4401702,"toponymName":"Oil City","countryId":"6252001","fcl":"P","population":0,"countryCode":"US","name":"Oil City","fclName":"city, village,...","adminCodes1":{"ISO3166_2":"MO"},"countryName":"United States","fcodeName":"populated place","adminName1":"Missouri","lat":"39.34447","fcode":"PPL"},{"adminCode1":"KY","lng":"-85.98303","geonameId":4302988,"toponymName":"Oil City","countryId":"6252001","fcl":"P","population":0,"countryCode":"US","name":"Oil City","fclName":"city, village,...","adminCodes1":{"ISO3166_2":"KY"},"countryName":"United States","fcodeName":"populated place","adminName1":"Kentucky","lat":"37.03338","fcode":"PPL"},{"adminCode1":"WI","lng":"-90.5868","geonameId":5265576,"toponymName":"Oil City","countryId":"6252001","fcl":"P","population":0,"countryCode":"US","name":"Oil City","fclName":"city, village,...","adminCodes1":{"ISO3166_2":"WI"},"countryName":"United States","fcodeName":"populated place","adminName1":"Wisconsin","lat":"43.75053","fcode":"PPL"},{"adminCode1":"TX","lng":"-101.5135","geonameId":5527575,"toponymName":"Oil City","countryId":"6252001","fcl":"P","population":0,"countryCode":"US","name":"Oil City","fclName":"city, village,...","adminCodes1":{"ISO3166_2":"TX"},"countryName":"United States","fcodeName":"populated place","adminName1":"Texas","lat":"35.74699","fcode":"PPL"},{"adminCode1":"PA","lng":"-79.70359","geonameId":5204279,"toponymName":"City of Oil City","countryId":"6252001","fcl":"A","population":10557,"countryCode":"US","name":"City of Oil City","fclName":"country, state, region,...","adminCodes1":{"ISO3166_2":"PA"},"countryName":"United States","fcodeName":"third-order administrative division","adminName1":"Pennsylvania","lat":"41.42813","fcode":"ADM3"},{"adminCode1":"TX","lng":"-94.04379","geonameId":4723825,"toponymName":"Rose City Oil Field","countryId":"6252001","fcl":"L","population":0,"countryCode":"US","name":"Rose City Oil Field","fclName":"parks,area, ...","adminCodes1":{"ISO3166_2":"TX"},"countryName":"United States","fcodeName":"oilfield","adminName1":"Texas","lat":"30.0866","fcode":"OILF"},{"adminCode1":"MI","lng":"-82.52158","geonameId":5000878,"toponymName":"Marine City South Oil and Gas Field","countryId":"6252001","fcl":"L","population":0,"countryCode":"US","name":"Marine City South Oil and Gas Field","fclName":"parks,area, ...","adminCodes1":{"ISO3166_2":"MI"},"countryName":"United States","fcodeName":"oilfield","adminName1":"Michigan","lat":"42.67753","fcode":"OILF"},{"adminCode1":"MI","lng":"-82.53019","geonameId":5000881,"toponymName":"Marine City Oil Field","countryId":"6252001","fcl":"L","population":0,"countryCode":"US","name":"Marine City Oil Field","fclName":"parks,area, ...","adminCodes1":{"ISO3166_2":"MI"},"countryName":"United States","fcodeName":"oilfield","adminName1":"Michigan","lat":"42.71059","fcode":"OILF"},{"adminCode1":"WA","lng":"-124.42548","geonameId":5805548,"toponymName":"Oil City","countryId":"6252001","fcl":"P","population":0,"countryCode":"US","name":"Oil City","fclName":"city, village,...","adminCodes1":{"ISO3166_2":"WA"},"countryName":"United States","fcodeName":"populated place","adminName1":"Washington","lat":"47.75036","fcode":"PPL"},{"adminCode1":"CA","lng":"-118.96038","geonameId":5378858,"toponymName":"Oil City","countryId":"6252001","fcl":"P","population":0,"countryCode":"US","name":"Oil City","fclName":"city, village,...","adminCodes1":{"ISO3166_2":"CA"},"countryName":"United States","fcodeName":"populated place","adminName1":"California","lat":"35.42635","fcode":"PPL"},{"adminCode1":"PA","lng":"-78.64002","geonameId":5204277,"toponymName":"Oil City","countryId":"6252001","fcl":"P","population":0,"countryCode":"US","name":"Oil City","fclName":"city, village,...","adminCodes1":{"ISO3166_2":"PA"},"countryName":"United States","fcodeName":"populated place","adminName1":"Pennsylvania","lat":"40.4023","fcode":"PPL"},{"adminCode1":"IN","lng":"-86.5047","geonameId":4262615,"toponymName":"Oriole","countryId":"6252001","fcl":"P","population":0,"countryCode":"US","name":"Oriole","fclName":"city, village,...","adminCodes1":{"ISO3166_2":"IN"},"countryName":"United States","fcodeName":"populated place","adminName1":"Indiana","lat":"38.16895","fcode":"PPL"},{"adminCode1":"MT","lng":"-104.73802","geonameId":5653854,"toponymName":"Gas City Oil Field","countryId":"6252001","fcl":"L","population":0,"countryCode":"US","name":"Gas City Oil Field","fclName":"parks,area, ...","adminCodes1":{"ISO3166_2":"MT"},"countryName":"United States","fcodeName":"oilfield","adminName1":"Montana","lat":"46.92112","fcode":"OILF"},{"adminCode1":"LA","lng":"-93.97576","geonameId":7172257,"toponymName":"Town of Oil City","countryId":"6252001","fcl":"A","population":1008,"countryCode":"US","name":"Town of Oil City","fclName":"country, state, region,...","adminCodes1":{"ISO3166_2":"LA"},"countryName":"United States","fcodeName":"administrative division","adminName1":"Louisiana","lat":"32.74529","fcode":"ADMD"},{"adminCode1":"OK","lng":"-96.40363","geonameId":4547303,"toponymName":"Osage City Oil Field","countryId":"6252001","fcl":"L","population":0,"countryCode":"US","name":"Osage City Oil Field","fclName":"parks,area, ...","adminCodes1":{"ISO3166_2":"OK"},"countryName":"United States","fcodeName":"oilfield","adminName1":"Oklahoma","lat":"36.31146","fcode":"OILF"},{"adminCode1":"MS","lng":"-91.13066","geonameId":4427470,"toponymName":"Garden City Oil Field","countryId":"6252001","fcl":"L","population":0,"countryCode":"US","name":"Garden City Oil Field","fclName":"parks,area, ...","adminCodes1":{"ISO3166_2":"MS"},"countryName":"United States","fcodeName":"oilfield","adminName1":"Mississippi","lat":"31.33489","fcode":"OILF"},{"adminCode1":"LA","lng":"-91.48956","geonameId":4325468,"toponymName":"Garden City Gas and Oil Field","countryId":"6252001","fcl":"L","population":0,"countryCode":"US","name":"Garden City Gas and Oil Field","fclName":"parks,area, ...","adminCodes1":{"ISO3166_2":"LA"},"countryName":"United States","fcodeName":"oilfield","adminName1":"Louisiana","lat":"29.72132","fcode":"OILF"},{"adminCode1":"MS","lng":"-88.59782","geonameId":4432127,"toponymName":"Junction City Oil Field","countryId":"6252001","fcl":"L","population":0,"countryCode":"US","name":"Junction City Oil Field","fclName":"parks,area, ...","adminCodes1":{"ISO3166_2":"MS"},"countryName":"United States","fcodeName":"oilfield","adminName1":"Mississippi","lat":"31.98626","fcode":"OILF"},{"adminCode1":"TX","lng":"-98.01417","geonameId":4690101,"toponymName":"Falls City Oil Field","countryId":"6252001","fcl":"L","population":0,"countryCode":"US","name":"Falls City Oil Field","fclName":"parks,area, ...","adminCodes1":{"ISO3166_2":"TX"},"countryName":"United States","fcodeName":"oilfield","adminName1":"Texas","lat":"29.00303","fcode":"OILF"},{"adminCode1":"TX","lng":"-95.9469","geonameId":4672666,"toponymName":"Bay City Oil Field","countryId":"6252001","fcl":"L","population":0,"countryCode":"US","name":"Bay City Oil Field","fclName":"parks,area, ...","adminCodes1":{"ISO3166_2":"TX"},"countryName":"United States","fcodeName":"oilfield","adminName1":"Texas","lat":"29.04664","fcode":"OILF"},{"adminCode1":"TX","lng":"-95.4519","geonameId":4737009,"toponymName":"Todd City Oil Field","countryId":"6252001","fcl":"L","population":0,"countryCode":"US","name":"Todd City Oil Field","fclName":"parks,area, ...","adminCodes1":{"ISO3166_2":"TX"},"countryName":"United States","fcodeName":"oilfield","adminName1":"Texas","lat":"31.93628","fcode":"OILF"},{"adminCode1":"OK","lng":"-97.16587","geonameId":4551856,"toponymName":"Southwest Ponca City Oil Field","countryId":"6252001","fcl":"L","population":0,"countryCode":"US","name":"Southwest Ponca City Oil Field","fclName":"parks,area, ...","adminCodes1":{"ISO3166_2":"OK"},"countryName":"United States","fcodeName":"oilfield","adminName1":"Oklahoma","lat":"36.65198","fcode":"OILF"},{"adminCode1":"OK","lng":"-96.31112","geonameId":4535594,"toponymName":"East Osage City Oil Field","countryId":"6252001","fcl":"L","population":0,"countryCode":"US","name":"East Osage City Oil Field","fclName":"parks,area, ...","adminCodes1":{"ISO3166_2":"OK"},"countryName":"United States","fcodeName":"oilfield","adminName1":"Oklahoma","lat":"36.3173","fcode":"OILF"},{"adminCode1":"OK","lng":"-99.41759","geonameId":4535817,"toponymName":"Elk City Oil Field","countryId":"6252001","fcl":"L","population":0,"countryCode":"US","name":"Elk City Oil Field","fclName":"parks,area, ...","adminCodes1":{"ISO3166_2":"OK"},"countryName":"United States","fcodeName":"oilfield","adminName1":"Oklahoma","lat":"35.34394","fcode":"OILF"},{"adminCode1":"OK","lng":"-99.53398","geonameId":4535818,"toponymName":"Elk City Oil Field","countryId":"6252001","fcl":"L","population":0,"countryCode":"US","name":"Elk City Oil Field","fclName":"parks,area, ...","adminCodes1":{"ISO3166_2":"OK"},"countryName":"United States","fcodeName":"oilfield","adminName1":"Oklahoma","lat":"35.26922","fcode":"OILF"},{"adminCode1":"TX","lng":"-98.99308","geonameId":4711714,"toponymName":"Mirando City Oil Field","countryId":"6252001","fcl":"L","population":0,"countryCode":"US","name":"Mirando City Oil Field","fclName":"parks,area, ...","adminCodes1":{"ISO3166_2":"TX"},"countryName":"United States","fcodeName":"oilfield","adminName1":"Texas","lat":"27.42336","fcode":"OILF"},{"adminCode1":"TX","lng":"-98.61728","geonameId":4715001,"toponymName":"North Archer City Oil Field","countryId":"6252001","fcl":"L","population":0,"countryCode":"US","name":"North Archer City Oil Field","fclName":"parks,area, ...","adminCodes1":{"ISO3166_2":"TX"},"countryName":"United States","fcodeName":"oilfield","adminName1":"Texas","lat":"33.59871","fcode":"OILF"},{"adminCode1":"TX","lng":"-96.00579","geonameId":4715007,"toponymName":"North Bay City Oil Field","countryId":"6252001","fcl":"L","population":0,"countryCode":"US","name":"North Bay City Oil Field","fclName":"parks,area, ...","adminCodes1":{"ISO3166_2":"TX"},"countryName":"United States","fcodeName":"oilfield","adminName1":"Texas","lat":"29.03942","fcode":"OILF"},{"adminCode1":"TX","lng":"-95.11104","geonameId":4705696,"toponymName":"League City Oil Field","countryId":"6252001","fcl":"L","population":0,"countryCode":"US","name":"League City Oil Field","fclName":"parks,area, ...","adminCodes1":{"ISO3166_2":"TX"},"countryName":"United States","fcodeName":"oilfield","adminName1":"Texas","lat":"29.46468","fcode":"OILF"},{"adminCode1":"AL","lng":"-87.42526","geonameId":4063476,"toponymName":"Frisco City Oil Field","countryId":"6252001","fcl":"L","population":0,"countryCode":"US","name":"Frisco City Oil Field","fclName":"parks,area, ...","adminCodes1":{"ISO3166_2":"AL"},"countryName":"United States","fcodeName":"oilfield","adminName1":"Alabama","lat":"31.42294","fcode":"OILF"},{"adminCode1":"AR","lng":"-92.91127","geonameId":4125237,"toponymName":"Pace City Oil and Gas Field","countryId":"6252001","fcl":"L","population":0,"countryCode":"US","name":"Pace City Oil and Gas Field","fclName":"parks,area, ...","adminCodes1":{"ISO3166_2":"AR"},"countryName":"United States","fcodeName":"oilfield","adminName1":"Arkansas","lat":"33.39373","fcode":"OILF"},{"adminCode1":"AR","lng":"-92.87933","geonameId":4125238,"toponymName":"Pace City Oil and Gas Field","countryId":"6252001","fcl":"L","population":0,"countryCode":"US","name":"Pace City Oil and Gas Field","fclName":"parks,area, ...","adminCodes1":{"ISO3166_2":"AR"},"countryName":"United States","fcodeName":"oilfield","adminName1":"Arkansas","lat":"33.36235","fcode":"OILF"},{"adminCode1":"AR","lng":"-92.8635","geonameId":4109540,"toponymName":"East Pace City Oil and Gas Field","countryId":"6252001","fcl":"L","population":0,"countryCode":"US","name":"East Pace City Oil and Gas Field","fclName":"parks,area, ...","adminCodes1":{"ISO3166_2":"AR"},"countryName":"United States","fcodeName":"oilfield","adminName1":"Arkansas","lat":"33.3954","fcode":"OILF"},{"adminCode1":"AR","lng":"-93.78351","geonameId":4112044,"toponymName":"Garland City Oil and Gas Field","countryId":"6252001","fcl":"L","population":0,"countryCode":"US","name":"Garland City Oil and Gas Field","fclName":"parks,area, ...","adminCodes1":{"ISO3166_2":"AR"},"countryName":"United States","fcodeName":"oilfield","adminName1":"Arkansas","lat":"33.39957","fcode":"OILF"},{"adminCode1":"IL","lng":"-88.71228","geonameId":4243936,"toponymName":"Markham City Oil Field","countryId":"6252001","fcl":"L","population":0,"countryCode":"US","name":"Markham City Oil Field","fclName":"parks,area, ...","adminCodes1":{"ISO3166_2":"IL"},"countryName":"United States","fcodeName":"oilfield","adminName1":"Illinois","lat":"38.29894","fcode":"OILF"},{"adminCode1":"IL","lng":"-88.70506","geonameId":4243937,"toponymName":"Markham City Oil Field","countryId":"6252001","fcl":"L","population":0,"countryCode":"US","name":"Markham City Oil Field","fclName":"parks,area, ...","adminCodes1":{"ISO3166_2":"IL"},"countryName":"United States","fcodeName":"oilfield","adminName1":"Illinois","lat":"38.34366","fcode":"OILF"},{"adminCode1":"IL","lng":"-88.34421","geonameId":4235987,"toponymName":"Clay City Oil Field","countryId":"6252001","fcl":"L","population":0,"countryCode":"US","name":"Clay City Oil Field","fclName":"parks,area, ...","adminCodes1":{"ISO3166_2":"IL"},"countryName":"United States","fcodeName":"oilfield","adminName1":"Illinois","lat":"38.34088","fcode":"OILF"},{"adminCode1":"IL","lng":"-88.30949","geonameId":4235988,"toponymName":"Clay City Oil Field","countryId":"6252001","fcl":"L","population":0,"countryCode":"US","name":"Clay City Oil Field","fclName":"parks,area, ...","adminCodes1":{"ISO3166_2":"IL"},"countryName":"United States","fcodeName":"oilfield","adminName1":"Illinois","lat":"38.5706","fcode":"OILF"},{"adminCode1":"IL","lng":"-88.42227","geonameId":4235990,"toponymName":"Clay City West Oil Field","countryId":"6252001","fcl":"L","population":0,"countryCode":"US","name":"Clay City West Oil Field","fclName":"parks,area, ...","adminCodes1":{"ISO3166_2":"IL"},"countryName":"United States","fcodeName":"oilfield","adminName1":"Illinois","lat":"38.6281","fcode":"OILF"},{"adminCode1":"KS","lng":"-95.80304","geonameId":4279378,"toponymName":"Silver City Oil Field","countryId":"6252001","fcl":"L","population":0,"countryCode":"US","name":"Silver City Oil Field","fclName":"parks,area, ...","adminCodes1":{"ISO3166_2":"KS"},"countryName":"United States","fcodeName":"oilfield","adminName1":"Kansas","lat":"37.76893","fcode":"OILF"},{"adminCode1":"KS","lng":"-98.93927","geonameId":4280153,"toponymName":"Sun City Oil Field","countryId":"6252001","fcl":"L","population":0,"countryCode":"US","name":"Sun City Oil Field","fclName":"parks,area, ...","adminCodes1":{"ISO3166_2":"KS"},"countryName":"United States","fcodeName":"oilfield","adminName1":"Kansas","lat":"37.40836","fcode":"OILF"},{"adminCode1":"NE","lng":"-95.64943","geonameId":5068063,"toponymName":"Falls City Oil Field","countryId":"6252001","fcl":"L","population":0,"countryCode":"US","name":"Falls City Oil Field","fclName":"parks,area, ...","adminCodes1":{"ISO3166_2":"NE"},"countryName":"United States","fcodeName":"oilfield","adminName1":"Nebraska","lat":"40.04417","fcode":"OILF"},{"adminCode1":"MI","lng":"-84.28501","geonameId":5007598,"toponymName":"Rose City Oil Field","countryId":"6252001","fcl":"L","population":0,"countryCode":"US","name":"Rose City Oil Field","fclName":"parks,area, ...","adminCodes1":{"ISO3166_2":"MI"},"countryName":"United States","fcodeName":"oilfield","adminName1":"Michigan","lat":"44.45252","fcode":"OILF"},{"adminCode1":"TX","lng":"-98.0125","geonameId":4708770,"toponymName":"Magnolia City Oil Field","countryId":"6252001","fcl":"L","population":0,"countryCode":"US","name":"Magnolia City Oil Field","fclName":"parks,area, ...","adminCodes1":{"ISO3166_2":"TX"},"countryName":"United States","fcodeName":"oilfield","adminName1":"Texas","lat":"27.65059","fcode":"OILF"},{"adminCode1":"CA","lng":"-120.08376","geonameId":5385727,"toponymName":"Raisin City Oil Field","countryId":"6252001","fcl":"L","population":0,"countryCode":"US","name":"Raisin City Oil Field","fclName":"parks,area, ...","adminCodes1":{"ISO3166_2":"CA"},"countryName":"United States","fcodeName":"oilfield","adminName1":"California","lat":"36.62773","fcode":"OILF"},{"adminCode1":"LA","lng":"-93.97081","geonameId":4335903,"toponymName":"Oil City Elementary Magnet School","countryId":"6252001","fcl":"S","population":0,"countryCode":"US","name":"Oil City Elementary Middle Magnet School","fclName":"spot, building, farm","adminCodes1":{"ISO3166_2":"LA"},"countryName":"United States","fcodeName":"school","adminName1":"Louisiana","lat":"32.7484","fcode":"SCH"},{"adminCode1":"TX","lng":"-95.92691","geonameId":4737464,"toponymName":"Tri-Cities Gas Field","countryId":"6252001","fcl":"L","population":0,"countryCode":"US","name":"Tri-Cities Gas Field","fclName":"parks,area, ...","adminCodes1":{"ISO3166_2":"TX"},"countryName":"United States","fcodeName":"oilfield","adminName1":"Texas","lat":"32.13432","fcode":"OILF"},{"adminCode1":"OK","lng":"-98.07309","geonameId":4544242,"toponymName":"Oil City","countryId":"6252001","fcl":"P","population":0,"countryCode":"US","name":"Oil City","fclName":"city, village,...","adminCodes1":{"ISO3166_2":"OK"},"countryName":"United States","fcodeName":"populated place","adminName1":"Oklahoma","lat":"34.52313","fcode":"PPL"},{"adminCode1":"MI","lng":"-84.58834","geonameId":5004352,"toponymName":"Oil City","countryId":"6252001","fcl":"P","population":0,"countryCode":"US","name":"Oil City","fclName":"city, village,...","adminCodes1":{"ISO3166_2":"MI"},"countryName":"United States","fcodeName":"populated place","adminName1":"Michigan","lat":"43.61086","fcode":"PPL"},{"adminCode1":"KS","lng":"-96.88559","geonameId":4276606,"toponymName":"Oil Hill","countryId":"6252001","fcl":"T","population":0,"countryCode":"US","name":"Oil Hill","fclName":"mountain,hill,rock,... ","adminCodes1":{"ISO3166_2":"KS"},"countryName":"United States","fcodeName":"mountain","adminName1":"Kansas","lat":"37.83613","fcode":"MT"},{"adminCode1":"PA","lng":"-79.67866","geonameId":5204451,"toponymName":"Oliver Manor","countryId":"6252001","fcl":"P","population":0,"countryCode":"US","name":"Oliver Manor","fclName":"city, village,...","adminCodes1":{"ISO3166_2":"PA"},"countryName":"United States","fcodeName":"populated place","adminName1":"Pennsylvania","lat":"41.43506","fcode":"PPL"},{"adminCode1":"PA","lng":"-79.69339","geonameId":5212365,"toponymName":"Siverly","countryId":"6252001","fcl":"P","population":0,"countryCode":"US","name":"Siverly","fclName":"city, village,...","adminCodes1":{"ISO3166_2":"PA"},"countryName":"United States","fcodeName":"populated place","adminName1":"Pennsylvania","lat":"41.42062","fcode":"PPL"},{"adminCode1":"NM","lng":"-104.21301","geonameId":5472531,"toponymName":"Illinois Camp","countryId":"6252001","fcl":"P","population":0,"countryCode":"US","name":"Illinois Camp","fclName":"city, village,...","adminCodes1":{"ISO3166_2":"NM"},"countryName":"United States","fcodeName":"populated place","adminName1":"New Mexico","lat":"32.70956","fcode":"PPL"},{"adminCode1":"PA","lng":"-79.70851","geonameId":8299163,"toponymName":"Oil City Seaplane Base","countryId":"6252001","fcl":"H","population":0,"countryCode":"US","name":"Oil City Seaplane Base","fclName":"stream, lake, ...","adminCodes1":{"ISO3166_2":"PA"},"countryName":"United States","fcodeName":"seaplane landing area","adminName1":"Pennsylvania","lat":"41.44139","fcode":"AIRS"},{"adminCode1":"KS","lng":"-96.89278","geonameId":4276607,"toponymName":"Circle Oil Hill Elementary School","countryId":"6252001","fcl":"S","population":0,"countryCode":"US","name":"Circle Oil Hill Elementary School","fclName":"spot, building, farm","adminCodes1":{"ISO3166_2":"KS"},"countryName":"United States","fcodeName":"school","adminName1":"Kansas","lat":"37.82399","fcode":"SCH"},{"adminCode1":"PA","lng":"-79.712","geonameId":5211497,"toponymName":"Seventh Street Elementary School","countryId":"6252001","fcl":"S","population":0,"countryCode":"US","name":"Seventh Street Elementary School","fclName":"spot, building, farm","adminCodes1":{"ISO3166_2":"PA"},"countryName":"United States","fcodeName":"school","adminName1":"Pennsylvania","lat":"41.42228","fcode":"SCH"},{"adminCode1":"PA","lng":"-79.72839","geonameId":5217140,"toponymName":"Venango Campus","countryId":"6252001","fcl":"S","population":0,"countryCode":"US","name":"Venango Campus","fclName":"spot, building, farm","adminCodes1":{"ISO3166_2":"PA"},"countryName":"United States","fcodeName":"school","adminName1":"Pennsylvania","lat":"41.41006","fcode":"SCH"},{"adminCode1":"PA","lng":"-79.72477","geonameId":5217143,"toponymName":"Venango High School","countryId":"6252001","fcl":"S","population":0,"countryCode":"US","name":"Venango High School","fclName":"spot, building, farm","adminCodes1":{"ISO3166_2":"PA"},"countryName":"United States","fcodeName":"school","adminName1":"Pennsylvania","lat":"41.41367","fcode":"SCH"},{"adminCode1":"WA","lng":"-122.34279","geonameId":5806728,"toponymName":"Pier 34","countryId":"6252001","fcl":"S","population":0,"countryCode":"US","name":"Pier 34","fclName":"spot, building, farm","adminCodes1":{"ISO3166_2":"WA"},"countryName":"United States","fcodeName":"pier","adminName1":"Washington","lat":"47.58683","fcode":"PIER"},{"adminCode1":"PA","lng":"-79.68727","geonameId":5204280,"toponymName":"Oil City Junior High School","countryId":"6252001","fcl":"S","population":0,"countryCode":"US","name":"Oil City Junior High School","fclName":"spot, building, farm","adminCodes1":{"ISO3166_2":"PA"},"countryName":"United States","fcodeName":"school","adminName1":"Pennsylvania","lat":"41.42673","fcode":"SCH"},{"adminCode1":"PA","lng":"-79.68311","geonameId":5204281,"toponymName":"Oil City Senior High School","countryId":"6252001","fcl":"S","population":0,"countryCode":"US","name":"Oil City Senior High School","fclName":"spot, building, farm","adminCodes1":{"ISO3166_2":"PA"},"countryName":"United States","fcodeName":"school","adminName1":"Pennsylvania","lat":"41.43034","fcode":"SCH"},{"adminCode1":"PA","lng":"-79.71047","geonameId":8092387,"toponymName":"Oil City Fire Department Station 1 Headquarters","countryId":"6252001","fcl":"S","population":0,"countryCode":"US","name":"Oil City Fire Department Station 1 Headquarters","fclName":"spot, building, farm","adminCodes1":{"ISO3166_2":"PA"},"countryName":"United States","fcodeName":"building(s)","adminName1":"Pennsylvania","lat":"41.42478","fcode":"BLDG"},{"adminCode1":"PA","lng":"-79.70188","geonameId":8092849,"toponymName":"Oil City Fire Department Station 3","countryId":"6252001","fcl":"S","population":0,"countryCode":"US","name":"Oil City Fire Department Station 3","fclName":"spot, building, farm","adminCodes1":{"ISO3166_2":"PA"},"countryName":"United States","fcodeName":"building(s)","adminName1":"Pennsylvania","lat":"41.4363","fcode":"BLDG"},{"adminCode1":"PA","lng":"-79.7064","geonameId":11393593,"toponymName":"Oil City Post Office","countryId":"6252001","fcl":"S","population":0,"countryCode":"US","name":"Oil City Post Office","fclName":"spot, building, farm","adminCodes1":{"ISO3166_2":"PA"},"countryName":"United States","fcodeName":"post office","adminName1":"Pennsylvania","lat":"41.42814","fcode":"PO"},{"adminCode1":"PA","lng":"-79.708","geonameId":11394034,"toponymName":"Oil City Police Department","countryId":"6252001","fcl":"S","population":0,"countryCode":"US","name":"Oil City Police Department","fclName":"spot, building, farm","adminCodes1":{"ISO3166_2":"PA"},"countryName":"United States","fcodeName":"building(s)","adminName1":"Pennsylvania","lat":"41.4331","fcode":"BLDG"},{"adminCode1":"MD","lng":"-76.5716","geonameId":12129578,"toponymName":"Standard Oil Dock","countryId":"6252001","fcl":"S","population":0,"countryCode":"US","name":"Standard Oil Dock","fclName":"spot, building, farm","adminCodes1":{"ISO3166_2":"MD"},"countryName":"United States","fcodeName":"wharf(-ves)","adminName1":"Maryland","lat":"39.27323","fcode":"WHRF"},{"adminCode1":"KS","lng":"-99.85203","geonameId":8123517,"toponymName":"Hill City Oil Museum","countryId":"6252001","fcl":"S","population":0,"countryCode":"US","name":"Hill City Oil Museum","fclName":"spot, building, farm","adminCodes1":{"ISO3166_2":"KS"},"countryName":"United States","fcodeName":"museum","adminName1":"Kansas","lat":"39.36411","fcode":"MUS"},{"adminCode1":"WY","lng":"-107.14506","geonameId":5834117,"toponymName":"Oil City Ranch","countryId":"6252001","fcl":"S","population":0,"countryCode":"US","name":"Oil City Ranch","fclName":"spot, building, farm","adminCodes1":{"ISO3166_2":"WY"},"countryName":"United States","fcodeName":"","adminName1":"Wyoming","lat":"42.77163"},{"adminCode1":"MI","lng":"-84.58444","geonameId":7234664,"toponymName":"Oil City Assembly of God Church","countryId":"6252001","fcl":"S","population":0,"countryCode":"US","name":"Oil City Assembly of God Church","fclName":"spot, building, farm","adminCodes1":{"ISO3166_2":"MI"},"countryName":"United States","fcodeName":"church","adminName1":"Michigan","lat":"43.61083","fcode":"CH"},{"adminCode1":"AL","lng":"-88.2714","geonameId":4081208,"toponymName":"Oil City Speedway","countryId":"6252001","fcl":"S","population":0,"countryCode":"US","name":"Oil City Speedway","fclName":"spot, building, farm","adminCodes1":{"ISO3166_2":"AL"},"countryName":"United States","fcodeName":"","adminName1":"Alabama","lat":"31.08462"},{"adminCode1":"MI","lng":"-84.47087","geonameId":5011015,"toponymName":"Standard Oil Company","countryId":"6252001","fcl":"S","population":0,"countryCode":"US","name":"Standard Oil Company","fclName":"spot, building, farm","adminCodes1":{"ISO3166_2":"MI"},"countryName":"United States","fcodeName":"","adminName1":"Michigan","lat":"45.64751"},{"adminCode1":"MI","lng":"-85.25396","geonameId":4993936,"toponymName":"Gillespie Oil and Transit","countryId":"6252001","fcl":"S","population":0,"countryCode":"US","name":"Gillespie Oil and Transit","fclName":"spot, building, farm","adminCodes1":{"ISO3166_2":"MI"},"countryName":"United States","fcodeName":"","adminName1":"Michigan","lat":"45.32056"},{"adminCode1":"MI","lng":"-84.72616","geonameId":5001393,"toponymName":"McGregor Oil Company","countryId":"6252001","fcl":"S","population":0,"countryCode":"US","name":"McGregor Oil Company","fclName":"spot, building, farm","adminCodes1":{"ISO3166_2":"MI"},"countryName":"United States","fcodeName":"","adminName1":"Michigan","lat":"45.86835"},{"adminCode1":"MI","lng":"-87.40069","geonameId":5003105,"toponymName":"Murphy Oil Corporation","countryId":"6252001","fcl":"S","population":0,"countryCode":"US","name":"Murphy Oil Corporation","fclName":"spot, building, farm","adminCodes1":{"ISO3166_2":"MI"},"countryName":"United States","fcodeName":"","adminName1":"Michigan","lat":"46.5841"},{"adminCode1":"MI","lng":"-84.72755","geonameId":5003986,"toponymName":"Northwestern Oil and Terminal Company","countryId":"6252001","fcl":"S","population":0,"countryCode":"US","name":"Northwestern Oil and Terminal Company","fclName":"spot, building, farm","adminCodes1":{"ISO3166_2":"MI"},"countryName":"United States","fcodeName":"","adminName1":"Michigan","lat":"45.87473"},{"adminCode1":"MI","lng":"-84.47337","geonameId":5003993,"toponymName":"Northwood Oil Company","countryId":"6252001","fcl":"S","population":0,"countryCode":"US","name":"Northwood Oil Company","fclName":"spot, building, farm","adminCodes1":{"ISO3166_2":"MI"},"countryName":"United States","fcodeName":"","adminName1":"Michigan","lat":"45.6489"},{"adminCode1":"MI","lng":"-84.96339","geonameId":4989158,"toponymName":"Clites Service Oil Company","countryId":"6252001","fcl":"S","population":0,"countryCode":"US","name":"Clites Service Oil Company","fclName":"spot, building, farm","adminCodes1":{"ISO3166_2":"MI"},"countryName":"United States","fcodeName":"","adminName1":"Michigan","lat":"45.37584"},{"adminCode1":"MI","lng":"-87.39347","geonameId":4989491,"toponymName":"Contract Oil Company","countryId":"6252001","fcl":"S","population":0,"countryCode":"US","name":"Contract Oil Company","fclName":"spot, building, farm","adminCodes1":{"ISO3166_2":"MI"},"countryName":"United States","fcodeName":"","adminName1":"Michigan","lat":"46.53882"},{"adminCode1":"MI","lng":"-83.85525","geonameId":4992185,"toponymName":"Enterprise Oil and Gas Company","countryId":"6252001","fcl":"S","population":0,"countryCode":"US","name":"Enterprise Oil and Gas Company","fclName":"spot, building, farm","adminCodes1":{"ISO3166_2":"MI"},"countryName":"United States","fcodeName":"","adminName1":"Michigan","lat":"43.6103"},{"adminCode1":"KS","lng":"-96.84455","geonameId":8123522,"toponymName":"Butler County History Center and Kansas Oil Museum","countryId":"6252001","fcl":"S","population":0,"countryCode":"US","name":"Butler County History Center and Kansas Oil Museum","fclName":"spot, building, farm","adminCodes1":{"ISO3166_2":"KS"},"countryName":"United States","fcodeName":"museum","adminName1":"Kansas","lat":"37.81691","fcode":"MUS"},{"adminCode1":"MI","lng":"-83.81555","geonameId":4998210,"toponymName":"Kingsbury Oil Company","countryId":"6252001","fcl":"S","population":0,"countryCode":"US","name":"Kingsbury Oil Company","fclName":"spot, building, farm","adminCodes1":{"ISO3166_2":"MI"},"countryName":"United States","fcodeName":"","adminName1":"Michigan","lat":"45.42446"},{"adminCode1":"PA","lng":"-79.7145","geonameId":5217560,"toponymName":"WOYL-AM (Oil City)","countryId":"6252001","fcl":"S","population":0,"countryCode":"US","name":"WOYL-AM (Oil City)","fclName":"spot, building, farm","adminCodes1":{"ISO3166_2":"PA"},"countryName":"United States","fcodeName":"tower","adminName1":"Pennsylvania","lat":"41.41784","fcode":"TOWR"},{"adminCode1":"PA","lng":"-79.7145","geonameId":5217614,"toponymName":"WRJS-FM (Oil City)","countryId":"6252001","fcl":"S","population":0,"countryCode":"US","name":"WRJS-FM (Oil City)","fclName":"spot, building, farm","adminCodes1":{"ISO3166_2":"PA"},"countryName":"United States","fcodeName":"tower","adminName1":"Pennsylvania","lat":"41.41784","fcode":"TOWR"},{"adminCode1":"PA","lng":"-79.71363","geonameId":9862349,"toponymName":"Holiday Inn Express Hotel & Suites Franklin - Oil City","countryId":"6252001","fcl":"S","population":0,"countryCode":"US","name":"Holiday Inn Express Hotel & Suites Franklin - Oil City","fclName":"spot, building, farm","adminCodes1":{"ISO3166_2":"PA"},"countryName":"United States","fcodeName":"hotel","adminName1":"Pennsylvania","lat":"41.35465","fcode":"HTL"},{"adminCode1":"PA","lng":"-79.69589","geonameId":5209977,"toponymName":"Saint Josephs Cemetery","countryId":"6252001","fcl":"S","population":0,"countryCode":"US","name":"Saint Josephs Cemetery","fclName":"spot, building, farm","adminCodes1":{"ISO3166_2":"PA"},"countryName":"United States","fcodeName":"cemetery","adminName1":"Pennsylvania","lat":"41.42978","fcode":"CMTY"},{"adminCode1":"PA","lng":"-79.70311","geonameId":5210016,"toponymName":"Saint Josephs School","countryId":"6252001","fcl":"S","population":0,"countryCode":"US","name":"Saint Josephs School","fclName":"spot, building, farm","adminCodes1":{"ISO3166_2":"PA"},"countryName":"United States","fcodeName":"school","adminName1":"Pennsylvania","lat":"41.43506","fcode":"SCH"},{"adminCode1":"PA","lng":"-79.70894","geonameId":5210523,"toponymName":"Saint Stephen Church","countryId":"6252001","fcl":"S","population":0,"countryCode":"US","name":"Saint Stephen Church","fclName":"spot, building, farm","adminCodes1":{"ISO3166_2":"PA"},"countryName":"United States","fcodeName":"church","adminName1":"Pennsylvania","lat":"41.42867","fcode":"CH"},{"adminCode1":"PA","lng":"-79.71394","geonameId":5210524,"toponymName":"Saint Stephen School","countryId":"6252001","fcl":"S","population":0,"countryCode":"US","name":"Saint Stephen School","fclName":"spot, building, farm","adminCodes1":{"ISO3166_2":"PA"},"countryName":"United States","fcodeName":"school","adminName1":"Pennsylvania","lat":"41.42589","fcode":"SCH"},{"adminCode1":"PA","lng":"-79.70172","geonameId":5178644,"toponymName":"Assumption School","countryId":"6252001","fcl":"S","population":0,"countryCode":"US","name":"Assumption School","fclName":"spot, building, farm","adminCodes1":{"ISO3166_2":"PA"},"countryName":"United States","fcodeName":"school","adminName1":"Pennsylvania","lat":"41.44256","fcode":"SCH"},{"adminCode1":"PA","lng":"-79.6995","geonameId":5190896,"toponymName":"Gay Street School","countryId":"6252001","fcl":"S","population":0,"countryCode":"US","name":"Gay Street School","fclName":"spot, building, farm","adminCodes1":{"ISO3166_2":"PA"},"countryName":"United States","fcodeName":"school","adminName1":"Pennsylvania","lat":"41.43978","fcode":"SCH"},{"adminCode1":"PA","lng":"-79.70283","geonameId":5191674,"toponymName":"Grant Street School","countryId":"6252001","fcl":"S","population":0,"countryCode":"US","name":"Grant Street School","fclName":"spot, building, farm","adminCodes1":{"ISO3166_2":"PA"},"countryName":"United States","fcodeName":"school","adminName1":"Pennsylvania","lat":"41.42395","fcode":"SCH"},{"adminCode1":"PA","lng":"-79.69505","geonameId":5192197,"toponymName":"Grove Hill Cemetery","countryId":"6252001","fcl":"S","population":0,"countryCode":"US","name":"Grove Hill Cemetery","fclName":"spot, building, farm","adminCodes1":{"ISO3166_2":"PA"},"countryName":"United States","fcodeName":"cemetery","adminName1":"Pennsylvania","lat":"41.43145","fcode":"CMTY"},{"adminCode1":"PA","lng":"-79.67894","geonameId":5182786,"toponymName":"Calvary Cemetery","countryId":"6252001","fcl":"S","population":0,"countryCode":"US","name":"Calvary Cemetery","fclName":"spot, building, farm","adminCodes1":{"ISO3166_2":"PA"},"countryName":"United States","fcodeName":"cemetery","adminName1":"Pennsylvania","lat":"41.42867","fcode":"CMTY"},{"adminCode1":"PA","lng":"-79.71839","geonameId":5194919,"toponymName":"Innis Street School","countryId":"6252001","fcl":"S","population":0,"countryCode":"US","name":"Innis Street School","fclName":"spot, building, farm","adminCodes1":{"ISO3166_2":"PA"},"countryName":"United States","fcodeName":"school","adminName1":"Pennsylvania","lat":"41.42506","fcode":"SCH"},{"adminCode1":"PA","lng":"-79.70227","geonameId":5198086,"toponymName":"Lincoln Junior High School","countryId":"6252001","fcl":"S","population":0,"countryCode":"US","name":"Lincoln Junior High School","fclName":"spot, building, farm","adminCodes1":{"ISO3166_2":"PA"},"countryName":"United States","fcodeName":"school","adminName1":"Pennsylvania","lat":"41.43284","fcode":"SCH"}]}
