{"totalResultsCount":69,"geonames":[{"adminCode1":"FL","lng":"-81.7123","geonameId":4166943,"toponymName":"Olga","countryId":"6252001","fcl":"P","population":1952,"countryCode":"US","name":"Olga","fclName":"city, village,...","adminCodes1":{"ISO3166_2":"FL"},"countryName":"United States","fcodeName":"populated place","adminName1":"Florida","lat":"26.71896","fcode":"PPL"},{"adminCode1":"MN","lng":"-90.12127","geonameId":5040184,"toponymName":"Olga Lake","countryId":"6252001","fcl":"H","population":0,"countryCode":"US","name":"Olga Lake","fclName":"stream, lake, ...","adminCodes1":{"ISO3166_2":"MN"},"countryName":"United States","fcodeName":"lake","adminName1":"Minnesota","lat":"47.97576","fcode":"LK"},{"adminCode1":"WA","lng":"-122.83546","geonameId":5805646,"toponymName":"Olga","countryId":"6252001","fcl":"P","population":0,"countryCode":"US","name":"Olga","fclName":"city, village,...","adminCodes1":{"ISO3166_2":"WA"},"countryName":"United States","fcodeName":"populated place","adminName1":"Washington","lat":"48.61955","fcode":"PPL"},{"adminCode1":"MO","lng":"-92.90684","geonameId":4401901,"toponymName":"Olga","countryId":"6252001","fcl":"P","population":0,"countryCode":"US","name":"Olga","fclName":"city, village,...","adminCodes1":{"ISO3166_2":"MO"},"countryName":"United States","fcodeName":"populated place","adminName1":"Missouri","lat":"37.08866","fcode":"PPL"},{"adminCode1":"KY","lng":"-85.16857","geonameId":4303103,"toponymName":"Old Olga","countryId":"6252001","fcl":"P","population":0,"countryCode":"US","name":"Old Olga","fclName":"city, village,...","adminCodes1":{"ISO3166_2":"KY"},"countryName":"United States","fcodeName":"populated place","adminName1":"Kentucky","lat":"36.92562","fcode":"PPL"},{"adminCode1":"KY","lng":"-85.16024","geonameId":4303188,"toponymName":"Olga","countryId":"6252001","fcl":"P","population":0,"countryCode":"US","name":"Olga","fclName":"city, village,...","adminCodes1":{"ISO3166_2":"KY"},"countryName":"United States","fcodeName":"populated place","adminName1":"Kentucky","lat":"36.9509","fcode":"PPL"},{"adminCode1":"AZ","lng":"-109.35923","geonameId":5307382,"toponymName":"Olga","countryId":"6252001","fcl":"P","population":0,"countryCode":"US","name":"Olga","fclName":"city, village,...","adminCodes1":{"ISO3166_2":"AZ"},"countryName":"United States","fcodeName":"populated place","adminName1":"Arizona","lat":"32.2998","fcode":"PPL"},{"adminCode1":"UT","lng":"-110.78069","geonameId":5779263,"toponymName":"Olga Lake","countryId":"6252001","fcl":"H","population":0,"countryCode":"US","name":"Olga Lake","fclName":"stream, lake, ...","adminCodes1":{"ISO3166_2":"UT"},"countryName":"United States","fcodeName":"lake","adminName1":"Utah","lat":"40.67957","fcode":"LK"},{"adminCode1":"AK","lng":"-154.22639","geonameId":5874833,"toponymName":"South Olga Lakes","countryId":"6252001","fcl":"H","population":0,"countryCode":"US","name":"South Olga Lakes","fclName":"stream, lake, ...","adminCodes1":{"ISO3166_2":"AK"},"countryName":"United States","fcodeName":"lake","adminName1":"Alaska","lat":"57.05167","fcode":"LK"},{"adminCode1":"CO","lng":"-107.98396","geonameId":5433456,"toponymName":"Olga Little Mountain","countryId":"6252001","fcl":"T","population":0,"countryCode":"US","name":"Olga Little Mountain","fclName":"mountain,hill,rock,... ","adminCodes1":{"ISO3166_2":"CO"},"countryName":"United States","fcodeName":"mountain","adminName1":"Colorado","lat":"37.45555","fcode":"MT"},{"adminCode1":"MI","lng":"-85.57077","geonameId":5004435,"toponymName":"Lake Olga","countryId":"6252001","fcl":"H","population":0,"countryCode":"US","name":"Lake Olga","fclName":"stream, lake, ...","adminCodes1":{"ISO3166_2":"MI"},"countryName":"United States","fcodeName":"lake","adminName1":"Michigan","lat":"44.15944","fcode":"LK"},{"adminCode1":"ND","lng":"-98.01527","geonameId":5061972,"toponymName":"Township of South Olga","countryId":"6252001","fcl":"A","population":0,"countryCode":"US","name":"South Olga Township","fclName":"country, state, region,...","adminCodes1":{"ISO3166_2":"ND"},"countryName":"United States","fcodeName":"third-order administrative division","adminName1":"North Dakota","lat":"48.76118","fcode":"ADM3"},{"adminCode1":"ND","lng":"-98.02103","geonameId":5060695,"toponymName":"Township of North Olga","countryId":"6252001","fcl":"A","population":0,"countryCode":"US","name":"North Olga Township","fclName":"country, state, region,...","adminCodes1":{"ISO3166_2":"ND"},"countryName":"United States","fcodeName":"third-order administrative division","adminName1":"North Dakota","lat":"48.85306","fcode":"ADM3"},{"adminCode1":"AK","lng":"-135.90528","geonameId":5554608,"toponymName":"Klokachef Point","countryId":"6252001","fcl":"T","population":0,"countryCode":"US","name":"Klokachef Point","fclName":"mountain,hill,rock,... ","adminCodes1":{"ISO3166_2":"AK"},"countryName":"United States","fcodeName":"cape","adminName1":"Alaska","lat":"57.40361","fcode":"CAPE"},{"adminCode1":"AK","lng":"-135.53601","geonameId":5556183,"toponymName":"Olga Point","countryId":"6252001","fcl":"T","population":0,"countryCode":"US","name":"Olga Point","fclName":"mountain,hill,rock,... ","adminCodes1":{"ISO3166_2":"AK"},"countryName":"United States","fcodeName":"cape","adminName1":"Alaska","lat":"57.22867","fcode":"CAPE"},{"adminCode1":"LA","lng":"-89.40283","geonameId":4336068,"toponymName":"Olga","countryId":"6252001","fcl":"P","population":0,"countryCode":"US","name":"Olga","fclName":"city, village,...","adminCodes1":{"ISO3166_2":"LA"},"countryName":"United States","fcodeName":"populated place","adminName1":"Louisiana","lat":"29.34661","fcode":"PPL"},{"adminCode1":"AK","lng":"-135.48366","geonameId":5556185,"toponymName":"Olga Strait","countryId":"6252001","fcl":"H","population":0,"countryCode":"US","name":"Olga Strait","fclName":"stream, lake, ...","adminCodes1":{"ISO3166_2":"AK"},"countryName":"United States","fcodeName":"channel","adminName1":"Alaska","lat":"57.2016","fcode":"CHN"},{"adminCode1":"WA","lng":"-122.83573","geonameId":5805647,"toponymName":"Olga Marine State Park","countryId":"6252001","fcl":"L","population":0,"countryCode":"US","name":"Olga Marine State Park","fclName":"parks,area, ...","adminCodes1":{"ISO3166_2":"WA"},"countryName":"United States","fcodeName":"park","adminName1":"Washington","lat":"48.61874","fcode":"PRK"},{"adminCode1":"AK","lng":"-135.86238","geonameId":5846597,"toponymName":"Cape Georgiana","countryId":"6252001","fcl":"T","population":0,"countryCode":"US","name":"Cape Georgiana","fclName":"mountain,hill,rock,... ","adminCodes1":{"ISO3166_2":"AK"},"countryName":"United States","fcodeName":"cape","adminName1":"Alaska","lat":"57.3303","fcode":"CAPE"},{"adminCode1":"AK","lng":"-154.23032","geonameId":5870802,"toponymName":"Olga Bay Seaplane Base","countryId":"6252001","fcl":"H","population":0,"countryCode":"US","name":"Olga Bay SPB","fclName":"stream, lake, ...","adminCodes1":{"ISO3166_2":"AK"},"countryName":"United States","fcodeName":"seaplane landing area","adminName1":"Alaska","lat":"57.15996","fcode":"AIRS"},{"adminCode1":"AK","lng":"-154.22377","geonameId":5878977,"toponymName":"Akalura Lake","countryId":"6252001","fcl":"H","population":0,"countryCode":"US","name":"Akalura Lake","fclName":"stream, lake, ...","adminCodes1":{"ISO3166_2":"AK"},"countryName":"United States","fcodeName":"lake","adminName1":"Alaska","lat":"57.18798","fcode":"LK"},{"adminCode1":"ND","lng":"-98.03788","geonameId":5060791,"toponymName":"Olga","countryId":"6252001","fcl":"P","population":0,"countryCode":"US","name":"Olga","fclName":"city, village,...","adminCodes1":{"ISO3166_2":"ND"},"countryName":"United States","fcodeName":"populated place","adminName1":"North Dakota","lat":"48.79833","fcode":"PPL"},{"adminCode1":"AK","lng":"-154.26361","geonameId":5870801,"toponymName":"Olga Bay","countryId":"6252001","fcl":"H","population":0,"countryCode":"US","name":"Olga Bay","fclName":"stream, lake, ...","adminCodes1":{"ISO3166_2":"AK"},"countryName":"United States","fcodeName":"bay","adminName1":"Alaska","lat":"57.13278","fcode":"BAY"},{"adminCode1":"AK","lng":"-154.35806","geonameId":5870803,"toponymName":"Olga Creek","countryId":"6252001","fcl":"H","population":0,"countryCode":"US","name":"Olga Creek","fclName":"stream, lake, ...","adminCodes1":{"ISO3166_2":"AK"},"countryName":"United States","fcodeName":"stream","adminName1":"Alaska","lat":"57.05722","fcode":"STM"},{"adminCode1":"AK","lng":"-135.94361","geonameId":5556184,"toponymName":"Olga Rock","countryId":"6252001","fcl":"T","population":0,"countryCode":"US","name":"Olga Rock","fclName":"mountain,hill,rock,... ","adminCodes1":{"ISO3166_2":"AK"},"countryName":"United States","fcodeName":"bar","adminName1":"Alaska","lat":"57.41139","fcode":"BAR"},{"adminCode1":"CA","lng":"-120.27923","geonameId":5379196,"toponymName":"Olga Reed Elementary School","countryId":"6252001","fcl":"S","population":0,"countryCode":"US","name":"Olga Reed Elementary School","fclName":"spot, building, farm","adminCodes1":{"ISO3166_2":"CA"},"countryName":"United States","fcodeName":"school","adminName1":"California","lat":"34.73939","fcode":"SCH"},{"adminCode1":"TN","lng":"-85.33997","geonameId":4646877,"toponymName":"Okalona","countryId":"6252001","fcl":"P","population":0,"countryCode":"US","name":"Okalona","fclName":"city, village,...","adminCodes1":{"ISO3166_2":"TN"},"countryName":"United States","fcodeName":"populated place","adminName1":"Tennessee","lat":"36.32645","fcode":"PPL"},{"adminCode1":"AK","lng":"-161.51167","geonameId":5870805,"toponymName":"Olga Rock","countryId":"6252001","fcl":"T","population":0,"countryCode":"US","name":"Olga Rock","fclName":"mountain,hill,rock,... ","adminCodes1":{"ISO3166_2":"AK"},"countryName":"United States","fcodeName":"island","adminName1":"Alaska","lat":"54.98639","fcode":"ISL"},{"adminCode1":"AK","lng":"-161.79333","geonameId":5878690,"toponymName":"Olga Islands","countryId":"6252001","fcl":"T","population":0,"countryCode":"US","name":"Olga Islands","fclName":"mountain,hill,rock,... ","adminCodes1":{"ISO3166_2":"AK"},"countryName":"United States","fcodeName":"island","adminName1":"Alaska","lat":"55.11","fcode":"ISL"},{"adminCode1":"TX","lng":"-98.41529","geonameId":4709159,"toponymName":"Mario Olga Colonia","countryId":"6252001","fcl":"P","population":0,"countryCode":"US","name":"Mario Olga Colonia","fclName":"city, village,...","adminCodes1":{"ISO3166_2":"TX"},"countryName":"United States","fcodeName":"populated place","adminName1":"Texas","lat":"27.60725","fcode":"PPL"},{"adminCode1":"IL","lng":"-88.577","geonameId":4246341,"toponymName":"Olga","countryId":"6252001","fcl":"P","population":0,"countryCode":"US","name":"Olga","fclName":"city, village,...","adminCodes1":{"ISO3166_2":"IL"},"countryName":"United States","fcodeName":"populated place","adminName1":"Illinois","lat":"37.99144","fcode":"PPL"},{"adminCode1":"VT","lng":"-72.80343","geonameId":5239486,"toponymName":"Mount Olga","countryId":"6252001","fcl":"T","population":0,"countryCode":"US","name":"Mount Olga","fclName":"mountain,hill,rock,... ","adminCodes1":{"ISO3166_2":"VT"},"countryName":"United States","fcodeName":"mountain","adminName1":"Vermont","lat":"42.85064","fcode":"MT"},{"adminCode1":"MN","lng":"-95.66363","geonameId":4832728,"toponymName":"Olga","countryId":"6252001","fcl":"P","population":0,"countryCode":"US","name":"Olga","fclName":"city, village,...","adminCodes1":{"ISO3166_2":"MN"},"countryName":"United States","fcodeName":"populated place","adminName1":"Minnesota","lat":"47.68718","fcode":"PPL"},{"adminCode1":"CA","lng":"-118.16563","geonameId":5379195,"toponymName":"Olga","countryId":"6252001","fcl":"P","population":0,"countryCode":"US","name":"Olga","fclName":"city, village,...","adminCodes1":{"ISO3166_2":"CA"},"countryName":"United States","fcodeName":"populated place","adminName1":"California","lat":"34.11251","fcode":"PPL"},{"adminCode1":"AK","lng":"-154.11","geonameId":5870807,"toponymName":"Olga Narrows","countryId":"6252001","fcl":"H","population":0,"countryCode":"US","name":"Olga Narrows","fclName":"stream, lake, ...","adminCodes1":{"ISO3166_2":"AK"},"countryName":"United States","fcodeName":"channel","adminName1":"Alaska","lat":"57.05528","fcode":"CHN"},{"adminCode1":"AK","lng":"-135.61278","geonameId":5555985,"toponymName":"Neva Strait","countryId":"6252001","fcl":"H","population":0,"countryCode":"US","name":"Neva Strait","fclName":"stream, lake, ...","adminCodes1":{"ISO3166_2":"AK"},"countryName":"United States","fcodeName":"channel","adminName1":"Alaska","lat":"57.29556","fcode":"CHN"},{"adminCode1":"AZ","lng":"-109.35284","geonameId":5307384,"toponymName":"Olga Overpass","countryId":"6252001","fcl":"R","population":0,"countryCode":"US","name":"Olga Overpass","fclName":"road, railroad ","adminCodes1":{"ISO3166_2":"AZ"},"countryName":"United States","fcodeName":"road junction","adminName1":"Arizona","lat":"32.29702","fcode":"RDJCT"},{"adminCode1":"VT","lng":"-72.80732","geonameId":5238840,"toponymName":"Mount Olga Trail","countryId":"6252001","fcl":"R","population":0,"countryCode":"US","name":"Mount Olga Trail","fclName":"road, railroad ","adminCodes1":{"ISO3166_2":"VT"},"countryName":"United States","fcodeName":"trail","adminName1":"Vermont","lat":"42.85036","fcode":"TRL"},{"adminCode1":"AK","lng":"-154.22639","geonameId":5878976,"toponymName":"Akalura Creek","countryId":"6252001","fcl":"H","population":0,"countryCode":"US","name":"Akalura Creek","fclName":"stream, lake, ...","adminCodes1":{"ISO3166_2":"AK"},"countryName":"United States","fcodeName":"stream","adminName1":"Alaska","lat":"57.16167","fcode":"STM"},{"adminCode1":"SC","lng":"-82.55846","geonameId":4590121,"toponymName":"Olga (historical)","countryId":"6252001","fcl":"P","population":0,"countryCode":"US","name":"Olga (historical)","fclName":"city, village,...","adminCodes1":{"ISO3166_2":"SC"},"countryName":"United States","fcodeName":"abandoned populated place","adminName1":"South Carolina","lat":"35.0029","fcode":"PPLQ"},{"adminCode1":"KY","lng":"-82.71432","geonameId":4306809,"toponymName":"Rough Branch","countryId":"6252001","fcl":"H","population":0,"countryCode":"US","name":"Rough Branch","fclName":"stream, lake, ...","adminCodes1":{"ISO3166_2":"KY"},"countryName":"United States","fcodeName":"stream","adminName1":"Kentucky","lat":"37.44899","fcode":"STM"},{"adminCode1":"AK","lng":"-154.23174","geonameId":9178287,"toponymName":"Olga Bay Cannery (historical)","countryId":"6252001","fcl":"S","population":0,"countryCode":"US","name":"Olga Bay Cannery (historical)","fclName":"spot, building, farm","adminCodes1":{"ISO3166_2":"AK"},"countryName":"United States","fcodeName":"cannery","adminName1":"Alaska","lat":"57.16072","fcode":"MFGC"},{"adminCode1":"MN","lng":"-95.66333","geonameId":6349698,"toponymName":"Olga Post Office (historical)","countryId":"6252001","fcl":"S","population":0,"countryCode":"US","name":"Olga Post Office (historical)","fclName":"spot, building, farm","adminCodes1":{"ISO3166_2":"MN"},"countryName":"United States","fcodeName":"post office","adminName1":"Minnesota","lat":"47.68722","fcode":"PO"},{"adminCode1":"FL","lng":"-81.7266","geonameId":7189823,"toponymName":"Olga and Fort Myers Shores United Methodist Church","countryId":"6252001","fcl":"S","population":0,"countryCode":"US","name":"Olga and Fort Myers Shores United Methodist Church","fclName":"spot, building, farm","adminCodes1":{"ISO3166_2":"FL"},"countryName":"United States","fcodeName":"church","adminName1":"Florida","lat":"26.7098","fcode":"CH"},{"adminCode1":"FL","lng":"-81.7118","geonameId":7189824,"toponymName":"Olga Baptist Church","countryId":"6252001","fcl":"S","population":0,"countryCode":"US","name":"Olga Baptist Church","fclName":"spot, building, farm","adminCodes1":{"ISO3166_2":"FL"},"countryName":"United States","fcodeName":"church","adminName1":"Florida","lat":"26.7144","fcode":"CH"},{"adminCode1":"FL","lng":"-81.71277","geonameId":7190510,"toponymName":"Olga Community Center","countryId":"6252001","fcl":"S","population":0,"countryCode":"US","name":"Olga Community Center","fclName":"spot, building, farm","adminCodes1":{"ISO3166_2":"FL"},"countryName":"United States","fcodeName":"building(s)","adminName1":"Florida","lat":"26.71779","fcode":"BLDG"},{"adminCode1":"LA","lng":"-90.84093","geonameId":4336069,"toponymName":"Olga Landing","countryId":"6252001","fcl":"S","population":0,"countryCode":"US","name":"Olga Landing","fclName":"spot, building, farm","adminCodes1":{"ISO3166_2":"LA"},"countryName":"United States","fcodeName":"","adminName1":"Louisiana","lat":"30.02992"},{"adminCode1":"LA","lng":"-90.83843","geonameId":4336070,"toponymName":"Olga Landing","countryId":"6252001","fcl":"S","population":0,"countryCode":"US","name":"Olga Landing","fclName":"spot, building, farm","adminCodes1":{"ISO3166_2":"LA"},"countryName":"United States","fcodeName":"","adminName1":"Louisiana","lat":"30.01798"},{"adminCode1":"LA","lng":"-89.40255","geonameId":4336071,"toponymName":"Olga Light","countryId":"6252001","fcl":"S","population":0,"countryCode":"US","name":"Olga Light","fclName":"spot, building, farm","adminCodes1":{"ISO3166_2":"LA"},"countryName":"United States","fcodeName":"","adminName1":"Louisiana","lat":"29.3455"},{"adminCode1":"TX","lng":"-98.58808","geonameId":4716590,"toponymName":"Olga","countryId":"6252001","fcl":"S","population":0,"countryCode":"US","name":"Olga","fclName":"spot, building, farm","adminCodes1":{"ISO3166_2":"TX"},"countryName":"United States","fcodeName":"","adminName1":"Texas","lat":"29.55606"},{"adminCode1":"AZ","lng":"-109.33617","geonameId":5307383,"toponymName":"Olga Detention Dam","countryId":"6252001","fcl":"S","population":0,"countryCode":"US","name":"Olga Detention Dam","fclName":"spot, building, farm","adminCodes1":{"ISO3166_2":"AZ"},"countryName":"United States","fcodeName":"dam","adminName1":"Arizona","lat":"32.36146","fcode":"DAM"},{"adminCode1":"AZ","lng":"-109.34645","geonameId":5307385,"toponymName":"Olga Railroad Station","countryId":"6252001","fcl":"S","population":0,"countryCode":"US","name":"Olga Railroad Station","fclName":"spot, building, farm","adminCodes1":{"ISO3166_2":"AZ"},"countryName":"United States","fcodeName":"building(s)","adminName1":"Arizona","lat":"32.29674","fcode":"BLDG"},{"adminCode1":"VT","lng":"-72.80371","geonameId":5238839,"toponymName":"Mount Olga Fire Lookout Tower","countryId":"6252001","fcl":"S","population":0,"countryCode":"US","name":"Mount Olga Fire Lookout Tower","fclName":"spot, building, farm","adminCodes1":{"ISO3166_2":"VT"},"countryName":"United States","fcodeName":"tower","adminName1":"Vermont","lat":"42.85064","fcode":"TOWR"},{"adminCode1":"MI","lng":"-85.5795","geonameId":4998585,"toponymName":"Lake Olga Auto Tour Point of Interest","countryId":"6252001","fcl":"S","population":0,"countryCode":"US","name":"Lake Olga Auto Tour Point of Interest","fclName":"spot, building, farm","adminCodes1":{"ISO3166_2":"MI"},"countryName":"United States","fcodeName":"","adminName1":"Michigan","lat":"44.22167"},{"adminCode1":"MI","lng":"-85.56672","geonameId":4998586,"toponymName":"Lake Olga Recreation Site","countryId":"6252001","fcl":"S","population":0,"countryCode":"US","name":"Lake Olga Recreation Site","fclName":"spot, building, farm","adminCodes1":{"ISO3166_2":"MI"},"countryName":"United States","fcodeName":"","adminName1":"Michigan","lat":"44.15834"},{"adminCode1":"WA","lng":"-122.82463","geonameId":5805648,"toponymName":"Olga-Doe Bay Cemetery","countryId":"6252001","fcl":"S","population":0,"countryCode":"US","name":"Olga-Doe Bay Cemetery","fclName":"spot, building, farm","adminCodes1":{"ISO3166_2":"WA"},"countryName":"United States","fcodeName":"cemetery","adminName1":"Washington","lat":"48.62677","fcode":"CMTY"},{"adminCode1":"FL","lng":"-80.36778","geonameId":6344799,"toponymName":"Olga Music and Day Care Center","countryId":"6252001","fcl":"S","population":0,"countryCode":"US","name":"Olga Music and Day Care Center","fclName":"spot, building, farm","adminCodes1":{"ISO3166_2":"FL"},"countryName":"United States","fcodeName":"building(s)","adminName1":"Florida","lat":"25.74139","fcode":"BLDG"},{"adminCode1":"WA","lng":"-122.83607","geonameId":7716942,"toponymName":"Olga Marina","countryId":"6252001","fcl":"S","population":0,"countryCode":"US","name":"Olga Marina","fclName":"spot, building, farm","adminCodes1":{"ISO3166_2":"WA"},"countryName":"United States","fcodeName":"marina","adminName1":"Washington","lat":"48.61869","fcode":"MAR"},{"adminCode1":"WA","lng":"-122.83534","geonameId":11386547,"toponymName":"Olga Post Office","countryId":"6252001","fcl":"S","population":0,"countryCode":"US","name":"Olga Post Office","fclName":"spot, building, farm","adminCodes1":{"ISO3166_2":"WA"},"countryName":"United States","fcodeName":"post office","adminName1":"Washington","lat":"48.61973","fcode":"PO"},{"adminCode1":"ND","lng":"-98.00038","geonameId":5060792,"toponymName":"Olga Dam","countryId":"6252001","fcl":"S","population":0,"countryCode":"US","name":"Olga Dam","fclName":"spot, building, farm","adminCodes1":{"ISO3166_2":"ND"},"countryName":"United States","fcodeName":"dam","adminName1":"North Dakota","lat":"48.78499","fcode":"DAM"},{"adminCode1":"WA","lng":"-122.8245","geonameId":8091412,"toponymName":"San Juan County Fire District 2 / Orcas Island Fire and Rescue Station 25 Olga / Obstruction Pass","countryId":"6252001","fcl":"S","population":0,"countryCode":"US","name":"San Juan County Fire District 2 / Orcas Island Fire and Rescue Station 25 Olga / Obstruction Pass","fclName":"spot, building, farm","adminCodes1":{"ISO3166_2":"WA"},"countryName":"United States","fcodeName":"building(s)","adminName1":"Washington","lat":"48.61998","fcode":"BLDG"},{"adminCode1":"WV","lng":"-81.68567","geonameId":4817224,"toponymName":"Olga Lookout Tower","countryId":"6252001","fcl":"S","population":0,"countryCode":"US","name":"Olga Lookout Tower","fclName":"spot, building, farm","adminCodes1":{"ISO3166_2":"WV"},"countryName":"United States","fcodeName":"tower","adminName1":"West Virginia","lat":"37.38178","fcode":"TOWR"},{"adminCode1":"WV","lng":"-81.64928","geonameId":4817225,"toponymName":"Olga Number 2 Lookout Tower","countryId":"6252001","fcl":"S","population":0,"countryCode":"US","name":"Olga Number 2 Lookout Tower","fclName":"spot, building, farm","adminCodes1":{"ISO3166_2":"WV"},"countryName":"United States","fcodeName":"","adminName1":"West Virginia","lat":"37.35039"},{"adminCode1":"WV","lng":"-81.72511","geonameId":4817226,"toponymName":"Olga Number 3 Lookout Tower","countryId":"6252001","fcl":"S","population":0,"countryCode":"US","name":"Olga Number 3 Lookout Tower","fclName":"spot, building, farm","adminCodes1":{"ISO3166_2":"WV"},"countryName":"United States","fcodeName":"tower","adminName1":"West Virginia","lat":"37.43317","fcode":"TOWR"},{"adminCode1":"ND","lng":"-98.016","geonameId":5062604,"toponymName":"Young Dam","countryId":"6252001","fcl":"S","population":0,"countryCode":"US","name":"Young Dam","fclName":"spot, building, farm","adminCodes1":{"ISO3166_2":"ND"},"countryName":"United States","fcodeName":"dam","adminName1":"North Dakota","lat":"48.75434","fcode":"DAM"},{"adminCode1":"ND","lng":"-97.95175","geonameId":5058218,"toponymName":"Beaulieu Cemetery","countryId":"6252001","fcl":"S","population":0,"countryCode":"US","name":"Beaulieu Cemetery","fclName":"spot, building, farm","adminCodes1":{"ISO3166_2":"ND"},"countryName":"United States","fcodeName":"cemetery","adminName1":"North Dakota","lat":"48.83304","fcode":"CMTY"},{"adminCode1":"ND","lng":"-97.97809","geonameId":5058384,"toponymName":"Bourbanis Dam","countryId":"6252001","fcl":"S","population":0,"countryCode":"US","name":"Bourbanis Dam","fclName":"spot, building, farm","adminCodes1":{"ISO3166_2":"ND"},"countryName":"United States","fcodeName":"dam","adminName1":"North Dakota","lat":"48.78367","fcode":"DAM"},{"adminCode1":"ND","lng":"-98.02566","geonameId":5059212,"toponymName":"Fjalla Church","countryId":"6252001","fcl":"S","population":0,"countryCode":"US","name":"Fjalla Church","fclName":"spot, building, farm","adminCodes1":{"ISO3166_2":"ND"},"countryName":"United States","fcodeName":"church","adminName1":"North Dakota","lat":"48.73361","fcode":"CH"},{"adminCode1":"ND","lng":"-97.95383","geonameId":5059545,"toponymName":"Hanks Corner Dam","countryId":"6252001","fcl":"S","population":0,"countryCode":"US","name":"Hanks Corner Dam","fclName":"spot, building, farm","adminCodes1":{"ISO3166_2":"ND"},"countryName":"United States","fcodeName":"dam","adminName1":"North Dakota","lat":"48.75758","fcode":"DAM"}]}
