{"totalResultsCount":13,"geonames":[{"adminCode1":"MN","lng":"-94.31523","geonameId":5040358,"toponymName":"Orth","countryId":"6252001","fcl":"P","population":0,"countryCode":"US","name":"Orth","fclName":"city, village,...","adminCodes1":{"ISO3166_2":"MN"},"countryName":"United States","fcodeName":"populated place","adminName1":"Minnesota","lat":"47.83912","fcode":"PPL"},{"adminCode1":"KS","lng":"-98.41701","geonameId":4276736,"toponymName":"Orth Oil Field","countryId":"6252001","fcl":"L","population":0,"countryCode":"US","name":"Orth Oil Field","fclName":"parks,area, ...","adminCodes1":{"ISO3166_2":"KS"},"countryName":"United States","fcodeName":"oilfield","adminName1":"Kansas","lat":"38.46362","fcode":"OILF"},{"adminCode1":"KS","lng":"-98.43674","geonameId":4276737,"toponymName":"Orth West Oil Field","countryId":"6252001","fcl":"L","population":0,"countryCode":"US","name":"Orth West Oil Field","fclName":"parks,area, ...","adminCodes1":{"ISO3166_2":"KS"},"countryName":"United States","fcodeName":"oilfield","adminName1":"Kansas","lat":"38.47223","fcode":"OILF"},{"adminCode1":"MN","lng":"-94.315","geonameId":6349198,"toponymName":"Orth Post Office (historical)","countryId":"6252001","fcl":"S","population":0,"countryCode":"US","name":"Orth Post Office (historical)","fclName":"spot, building, farm","adminCodes1":{"ISO3166_2":"MN"},"countryName":"United States","fcodeName":"post office","adminName1":"Minnesota","lat":"47.83917","fcode":"PO"},{"adminCode1":"OR","lng":"-123.46232","geonameId":5744407,"toponymName":"Orth (historical)","countryId":"6252001","fcl":"S","population":0,"countryCode":"US","name":"Orth (historical)","fclName":"spot, building, farm","adminCodes1":{"ISO3166_2":"OR"},"countryName":"United States","fcodeName":"","adminName1":"Oregon","lat":"44.02623"},{"adminCode1":"MN","lng":"-94.315","geonameId":6354317,"toponymName":"Orth (historical)","countryId":"6252001","fcl":"S","population":0,"countryCode":"US","name":"Orth (historical)","fclName":"spot, building, farm","adminCodes1":{"ISO3166_2":"MN"},"countryName":"United States","fcodeName":"","adminName1":"Minnesota","lat":"47.83917"},{"adminCode1":"TX","lng":"-98.76062","geonameId":4716854,"toponymName":"Orth Cemetery","countryId":"6252001","fcl":"S","population":0,"countryCode":"US","name":"Orth Cemetery","fclName":"spot, building, farm","adminCodes1":{"ISO3166_2":"TX"},"countryName":"United States","fcodeName":"cemetery","adminName1":"Texas","lat":"33.29511","fcode":"CMTY"},{"adminCode1":"IA","lng":"-95.86973","geonameId":4870167,"toponymName":"Orth Chiropractic Clinic","countryId":"6252001","fcl":"S","population":0,"countryCode":"US","name":"Orth Chiropractic Clinic","fclName":"spot, building, farm","adminCodes1":{"ISO3166_2":"IA"},"countryName":"United States","fcodeName":"hospital","adminName1":"Iowa","lat":"41.26222","fcode":"HSP"},{"adminCode1":"IL","lng":"-88.8826","geonameId":4904962,"toponymName":"Orth Cemetery","countryId":"6252001","fcl":"S","population":0,"countryCode":"US","name":"Orth Cemetery","fclName":"spot, building, farm","adminCodes1":{"ISO3166_2":"IL"},"countryName":"United States","fcodeName":"cemetery","adminName1":"Illinois","lat":"42.32696","fcode":"CMTY"},{"adminCode1":"IL","lng":"-88.88733","geonameId":4904963,"toponymName":"Orth School (historical)","countryId":"6252001","fcl":"S","population":0,"countryCode":"US","name":"Orth School (historical)","fclName":"spot, building, farm","adminCodes1":{"ISO3166_2":"IL"},"countryName":"United States","fcodeName":"school","adminName1":"Illinois","lat":"42.32724","fcode":"SCH"},{"adminCode1":"WI","lng":"-87.78278","geonameId":7729498,"toponymName":"Orth Farms","countryId":"6252001","fcl":"S","population":0,"countryCode":"US","name":"Orth Farms","fclName":"spot, building, farm","adminCodes1":{"ISO3166_2":"WI"},"countryName":"United States","fcodeName":"farm","adminName1":"Wisconsin","lat":"43.89889","fcode":"FRM"},{"adminCode1":"VA","lng":"-77.49605","geonameId":10175398,"toponymName":"Orth","countryId":"6252001","fcl":"S","population":0,"countryCode":"US","name":"Orth","fclName":"spot, building, farm","adminCodes1":{"ISO3166_2":"VA"},"countryName":"United States","fcodeName":"hotel","adminName1":"Virginia","lat":"38.34163","fcode":"HTL"},{"adminCode1":"CA","lng":"-122.65341","geonameId":5364628,"toponymName":"Lake Orth","countryId":"6252001","fcl":"H","population":0,"countryCode":"US","name":"Lake Orth","fclName":"stream, lake, ...","adminCodes1":{"ISO3166_2":"CA"},"countryName":"United States","fcodeName":"reservoir(s)","adminName1":"California","lat":"38.56911","fcode":"RSV"}]}
