{"totalResultsCount":5,"geonames":[{"adminCode1":"MI","lng":"-88.67235","geonameId":5004859,"toponymName":"Painesdale","countryId":"6252001","fcl":"P","population":0,"countryCode":"US","name":"Painesdale","fclName":"city, village,...","adminCodes1":{"ISO3166_2":"MI"},"countryName":"United States","fcodeName":"populated place","adminName1":"Michigan","lat":"47.04326","fcode":"PPL"},{"adminCode1":"MI","lng":"-88.67284","geonameId":7726903,"toponymName":"Adams Township Volunteer Fire Department Painesdale","countryId":"6252001","fcl":"S","population":0,"countryCode":"US","name":"Adams Township Volunteer Fire Department Painesdale","fclName":"spot, building, farm","adminCodes1":{"ISO3166_2":"MI"},"countryName":"United States","fcodeName":"building(s)","adminName1":"Michigan","lat":"47.04518","fcode":"BLDG"},{"adminCode1":"MI","lng":"-88.66893","geonameId":7132191,"toponymName":"Painesdale Post Office","countryId":"6252001","fcl":"S","population":0,"countryCode":"US","name":"Painesdale Post Office","fclName":"spot, building, farm","adminCodes1":{"ISO3166_2":"MI"},"countryName":"United States","fcodeName":"post office","adminName1":"Michigan","lat":"47.04036","fcode":"PO"},{"adminCode1":"MI","lng":"-88.67361","geonameId":7132192,"toponymName":"Painesdale Apostolic Lutheran Church","countryId":"6252001","fcl":"S","population":0,"countryCode":"US","name":"Painesdale Apostolic Lutheran Church","fclName":"spot, building, farm","adminCodes1":{"ISO3166_2":"MI"},"countryName":"United States","fcodeName":"church","adminName1":"Michigan","lat":"47.04722","fcode":"CH"},{"adminCode1":"MI","lng":"-88.66722","geonameId":7269755,"toponymName":"Painesdale Station (historical)","countryId":"6252001","fcl":"S","population":0,"countryCode":"US","name":"Painesdale Station (historical)","fclName":"spot, building, farm","adminCodes1":{"ISO3166_2":"MI"},"countryName":"United States","fcodeName":"","adminName1":"Michigan","lat":"47.04194"}]}
