{"totalResultsCount":1985,"geonames":[{"adminCode1":"AR","lng":"-90.57122","geonameId":4125487,"toponymName":"Parkin","countryId":"6252001","fcl":"P","population":1105,"countryCode":"US","name":"Parkin","fclName":"city, village,...","adminCodes1":{"ISO3166_2":"AR"},"countryName":"United States","fcodeName":"populated place","adminName1":"Arkansas","lat":"35.26342","fcode":"PPL"},{"adminCode1":"WY","lng":"-110.58846","geonameId":5843642,"toponymName":"Yellowstone National Park","countryId":"6252001","fcl":"L","population":0,"countryCode":"US","name":"Yellowstone National Park","fclName":"parks,area, ...","adminCodes1":{"ISO3166_2":"WY"},"countryName":"United States","fcodeName":"park","adminName1":"Wyoming","lat":"44.42796","fcode":"PRK"},{"adminCode1":"WY","lng":"-108.75735","geonameId":5835606,"toponymName":"Powell","countryId":"6252001","fcl":"P","population":6462,"countryCode":"US","name":"Powell","fclName":"city, village,...","adminCodes1":{"ISO3166_2":"WY"},"countryName":"United States","fcodeName":"populated place","adminName1":"Wyoming","lat":"44.75384","fcode":"PPL"},{"adminCode1":"WY","lng":"-109.02431","geonameId":5843646,"toponymName":"Yellowstone Regional Airport","countryId":"6252001","fcl":"S","population":0,"countryCode":"US","name":"Yellowstone Regional Airport","fclName":"spot, building, farm","adminCodes1":{"ISO3166_2":"WY"},"countryName":"United States","fcodeName":"airport","adminName1":"Wyoming","lat":"44.51995","fcode":"AIRP"},{"adminCode1":"AR","lng":"-90.59889","geonameId":7304641,"toponymName":"Parkin Mound Archeological State Park","countryId":"6252001","fcl":"L","population":0,"countryCode":"US","name":"Parkin Mound Archeological State Park","fclName":"parks,area, ...","adminCodes1":{"ISO3166_2":"AR"},"countryName":"United States","fcodeName":"park","adminName1":"Arkansas","lat":"35.27361","fcode":"PRK"},{"adminCode1":"WY","lng":"-109.58853","geonameId":5834587,"toponymName":"Park County","countryId":"6252001","fcl":"A","population":28205,"countryCode":"US","name":"Park","fclName":"country, state, region,...","adminCodes1":{"ISO3166_2":"WY"},"countryName":"United States","fcodeName":"second-order administrative division","adminName1":"Wyoming","lat":"44.52057","fcode":"ADM2"},{"adminCode1":"WY","lng":"-109.33917","geonameId":5636520,"toponymName":"Absaroka Range","countryId":"6252001","fcl":"T","population":0,"countryCode":"US","name":"Absaroka Range","fclName":"mountain,hill,rock,... ","adminCodes1":{"ISO3166_2":"WY"},"countryName":"United States","fcodeName":"mountains","adminName1":"Wyoming","lat":"43.96111","fcode":"MTS"},{"adminCode1":"WY","lng":"-110.12972","geonameId":5841424,"toponymName":"Trout Lake","countryId":"6252001","fcl":"H","population":0,"countryCode":"US","name":"Trout Lake","fclName":"stream, lake, ...","adminCodes1":{"ISO3166_2":"WY"},"countryName":"United States","fcodeName":"lake","adminName1":"Wyoming","lat":"44.90055","fcode":"LK"},{"adminCode1":"WY","lng":"-110.26017","geonameId":5841450,"toponymName":"Turbid Lake","countryId":"6252001","fcl":"H","population":0,"countryCode":"US","name":"Turbid Lake","fclName":"stream, lake, ...","adminCodes1":{"ISO3166_2":"WY"},"countryName":"United States","fcodeName":"lake","adminName1":"Wyoming","lat":"44.54938","fcode":"LK"},{"adminCode1":"WY","lng":"-109.60516","geonameId":5842274,"toponymName":"Washakie Wilderness","countryId":"6252001","fcl":"L","population":0,"countryCode":"US","name":"Washakie Wilderness","fclName":"parks,area, ...","adminCodes1":{"ISO3166_2":"WY"},"countryName":"United States","fcodeName":"reserve","adminName1":"Wyoming","lat":"44.0549","fcode":"RES"},{"adminCode1":"WY","lng":"-108.7878","geonameId":5835617,"toponymName":"Powell Municipal Airport","countryId":"6252001","fcl":"S","population":0,"countryCode":"US","name":"Powell Municipal Airport","fclName":"spot, building, farm","adminCodes1":{"ISO3166_2":"WY"},"countryName":"United States","fcodeName":"airport","adminName1":"Wyoming","lat":"44.86661","fcode":"AIRP"},{"adminCode1":"WY","lng":"-109.05653","geonameId":5821593,"toponymName":"Cody","countryId":"6252001","fcl":"P","population":9792,"countryCode":"US","name":"Cody","fclName":"city, village,...","adminCodes1":{"ISO3166_2":"WY"},"countryName":"United States","fcodeName":"seat of a second-order administrative division","adminName1":"Wyoming","lat":"44.52634","fcode":"PPLA2"},{"adminCode1":"WY","lng":"-110.55796","geonameId":5826509,"toponymName":"Grebe Lake","countryId":"6252001","fcl":"H","population":0,"countryCode":"US","name":"Grebe Lake","fclName":"stream, lake, ...","adminCodes1":{"ISO3166_2":"WY"},"countryName":"United States","fcodeName":"lake","adminName1":"Wyoming","lat":"44.75194","fcode":"LK"},{"adminCode1":"WY","lng":"-110.43551","geonameId":5843513,"toponymName":"Wrangler Lake","countryId":"6252001","fcl":"H","population":0,"countryCode":"US","name":"Wrangler Lake","fclName":"stream, lake, ...","adminCodes1":{"ISO3166_2":"WY"},"countryName":"United States","fcodeName":"lake","adminName1":"Wyoming","lat":"44.68336","fcode":"LK"},{"adminCode1":"AR","lng":"-90.55285","geonameId":7170039,"toponymName":"City of Parkin","countryId":"6252001","fcl":"A","population":1105,"countryCode":"US","name":"City of Parkin","fclName":"country, state, region,...","adminCodes1":{"ISO3166_2":"AR"},"countryName":"United States","fcodeName":"administrative division","adminName1":"Arkansas","lat":"35.26326","fcode":"ADMD"},{"adminCode1":"WY","lng":"-110.73578","geonameId":5840398,"toponymName":"Swan Lake","countryId":"6252001","fcl":"H","population":0,"countryCode":"US","name":"Swan Lake","fclName":"stream, lake, ...","adminCodes1":{"ISO3166_2":"WY"},"countryName":"United States","fcodeName":"lake","adminName1":"Wyoming","lat":"44.91957","fcode":"LK"},{"adminCode1":"WY","lng":"-109.43766","geonameId":5842179,"toponymName":"Wapiti","countryId":"6252001","fcl":"P","population":0,"countryCode":"US","name":"Wapiti","fclName":"city, village,...","adminCodes1":{"ISO3166_2":"WY"},"countryName":"United States","fcodeName":"populated place","adminName1":"Wyoming","lat":"44.46856","fcode":"PPL"},{"adminCode1":"WY","lng":"-108.86458","geonameId":5835908,"toponymName":"Ralston","countryId":"6252001","fcl":"P","population":280,"countryCode":"US","name":"Ralston","fclName":"city, village,...","adminCodes1":{"ISO3166_2":"WY"},"countryName":"United States","fcodeName":"populated place","adminName1":"Wyoming","lat":"44.71606","fcode":"PPL"},{"adminCode1":"WY","lng":"-110.48409","geonameId":5831049,"toponymName":"Lookout Point","countryId":"6252001","fcl":"T","population":0,"countryCode":"US","name":"Lookout Point","fclName":"mountain,hill,rock,... ","adminCodes1":{"ISO3166_2":"WY"},"countryName":"United States","fcodeName":"cape","adminName1":"Wyoming","lat":"44.72327","fcode":"CAPE"},{"adminCode1":"WY","lng":"-108.87152","geonameId":5832055,"toponymName":"Meeteetse","countryId":"6252001","fcl":"P","population":326,"countryCode":"US","name":"Meeteetse","fclName":"city, village,...","adminCodes1":{"ISO3166_2":"WY"},"countryName":"United States","fcodeName":"populated place","adminName1":"Wyoming","lat":"44.15718","fcode":"PPL"},{"adminCode1":"WY","lng":"-110.73632","geonameId":5838789,"toponymName":"Snow Pass","countryId":"6252001","fcl":"T","population":0,"countryCode":"US","name":"Snow Pass","fclName":"mountain,hill,rock,... ","adminCodes1":{"ISO3166_2":"WY"},"countryName":"United States","fcodeName":"gap","adminName1":"Wyoming","lat":"44.9591","fcode":"GAP"},{"adminCode1":"WY","lng":"-110.54576","geonameId":5838916,"toponymName":"Solfatara Plateau","countryId":"6252001","fcl":"L","population":0,"countryCode":"US","name":"Solfatara Plateau","fclName":"parks,area, ...","adminCodes1":{"ISO3166_2":"WY"},"countryName":"United States","fcodeName":"area","adminName1":"Wyoming","lat":"44.73133","fcode":"AREA"},{"adminCode1":"WY","lng":"-110.29658","geonameId":5839388,"toponymName":"Specimen Ridge","countryId":"6252001","fcl":"T","population":0,"countryCode":"US","name":"Specimen Ridge","fclName":"mountain,hill,rock,... ","adminCodes1":{"ISO3166_2":"WY"},"countryName":"United States","fcodeName":"ridge(s)","adminName1":"Wyoming","lat":"44.87022","fcode":"RDGE"},{"adminCode1":"WY","lng":"-110.15936","geonameId":5839967,"toponymName":"Mount Stevenson","countryId":"6252001","fcl":"T","population":0,"countryCode":"US","name":"Mount Stevenson","fclName":"mountain,hill,rock,... ","adminCodes1":{"ISO3166_2":"WY"},"countryName":"United States","fcodeName":"mountain","adminName1":"Wyoming","lat":"44.40161","fcode":"MT"},{"adminCode1":"WY","lng":"-109.76796","geonameId":5840308,"toponymName":"Sunlight Peak","countryId":"6252001","fcl":"T","population":0,"countryCode":"US","name":"Sunlight Peak","fclName":"mountain,hill,rock,... ","adminCodes1":{"ISO3166_2":"WY"},"countryName":"United States","fcodeName":"mountain","adminName1":"Wyoming","lat":"44.60911","fcode":"MT"},{"adminCode1":"WY","lng":"-108.99097","geonameId":5840339,"toponymName":"Sunshine","countryId":"6252001","fcl":"P","population":0,"countryCode":"US","name":"Sunshine","fclName":"city, village,...","adminCodes1":{"ISO3166_2":"WY"},"countryName":"United States","fcodeName":"populated place","adminName1":"Wyoming","lat":"44.02745","fcode":"PPL"},{"adminCode1":"WY","lng":"-110.13019","geonameId":5840474,"toponymName":"Sylvan Pass","countryId":"6252001","fcl":"T","population":0,"countryCode":"US","name":"Sylvan Pass","fclName":"mountain,hill,rock,... ","adminCodes1":{"ISO3166_2":"WY"},"countryName":"United States","fcodeName":"gap","adminName1":"Wyoming","lat":"44.4655","fcode":"GAP"},{"adminCode1":"WY","lng":"-110.73549","geonameId":5840765,"toponymName":"Terrace Mountain","countryId":"6252001","fcl":"T","population":0,"countryCode":"US","name":"Terrace Mountain","fclName":"mountain,hill,rock,... ","adminCodes1":{"ISO3166_2":"WY"},"countryName":"United States","fcodeName":"mountain","adminName1":"Wyoming","lat":"44.95549","fcode":"MT"},{"adminCode1":"WY","lng":"-110.88327","geonameId":5840982,"toponymName":"Three Rivers Peak","countryId":"6252001","fcl":"T","population":0,"countryCode":"US","name":"Three Rivers Peak","fclName":"mountain,hill,rock,... ","adminCodes1":{"ISO3166_2":"WY"},"countryName":"United States","fcodeName":"mountain","adminName1":"Wyoming","lat":"44.85021","fcode":"MT"},{"adminCode1":"WY","lng":"-110.05658","geonameId":5841020,"toponymName":"The Thunderer","countryId":"6252001","fcl":"T","population":0,"countryCode":"US","name":"The Thunderer","fclName":"mountain,hill,rock,... ","adminCodes1":{"ISO3166_2":"WY"},"countryName":"United States","fcodeName":"mountain","adminName1":"Wyoming","lat":"44.90327","fcode":"MT"},{"adminCode1":"WY","lng":"-110.84382","geonameId":5841379,"toponymName":"Trilobite Point","countryId":"6252001","fcl":"T","population":0,"countryCode":"US","name":"Trilobite Point","fclName":"mountain,hill,rock,... ","adminCodes1":{"ISO3166_2":"WY"},"countryName":"United States","fcodeName":"cliff(s)","adminName1":"Wyoming","lat":"44.81688","fcode":"CLF"},{"adminCode1":"WY","lng":"-110.43437","geonameId":5842281,"toponymName":"Mount Washburn","countryId":"6252001","fcl":"T","population":0,"countryCode":"US","name":"Mount Washburn","fclName":"mountain,hill,rock,... ","adminCodes1":{"ISO3166_2":"WY"},"countryName":"United States","fcodeName":"mountain","adminName1":"Wyoming","lat":"44.79772","fcode":"MT"},{"adminCode1":"WY","lng":"-110.87355","geonameId":5842857,"toponymName":"White Peaks","countryId":"6252001","fcl":"T","population":0,"countryCode":"US","name":"White Peaks","fclName":"mountain,hill,rock,... ","adminCodes1":{"ISO3166_2":"WY"},"countryName":"United States","fcodeName":"mountain","adminName1":"Wyoming","lat":"44.81438","fcode":"MT"},{"adminCode1":"WY","lng":"-110.09463","geonameId":5833505,"toponymName":"Mount Norris","countryId":"6252001","fcl":"T","population":0,"countryCode":"US","name":"Mount Norris","fclName":"mountain,hill,rock,... ","adminCodes1":{"ISO3166_2":"WY"},"countryName":"United States","fcodeName":"mountain","adminName1":"Wyoming","lat":"44.87438","fcode":"MT"},{"adminCode1":"WY","lng":"-110.72726","geonameId":5834035,"toponymName":"Nymph Lake","countryId":"6252001","fcl":"H","population":0,"countryCode":"US","name":"Nymph Lake","fclName":"stream, lake, ...","adminCodes1":{"ISO3166_2":"WY"},"countryName":"United States","fcodeName":"lake","adminName1":"Wyoming","lat":"44.75175","fcode":"LK"},{"adminCode1":"WY","lng":"-110.38937","geonameId":5834385,"toponymName":"Overhanging Cliff","countryId":"6252001","fcl":"T","population":0,"countryCode":"US","name":"Overhanging Cliff","fclName":"mountain,hill,rock,... ","adminCodes1":{"ISO3166_2":"WY"},"countryName":"United States","fcodeName":"cliff(s)","adminName1":"Wyoming","lat":"44.89549","fcode":"CLF"},{"adminCode1":"WY","lng":"-109.96296","geonameId":5834501,"toponymName":"Pahaska Tepee","countryId":"6252001","fcl":"P","population":0,"countryCode":"US","name":"Pahaska Tepee","fclName":"city, village,...","adminCodes1":{"ISO3166_2":"WY"},"countryName":"United States","fcodeName":"populated place","adminName1":"Wyoming","lat":"44.503","fcode":"PPL"},{"adminCode1":"WY","lng":"-109.88212","geonameId":5835061,"toponymName":"Pilot Peak","countryId":"6252001","fcl":"T","population":0,"countryCode":"US","name":"Pilot Peak","fclName":"mountain,hill,rock,... ","adminCodes1":{"ISO3166_2":"WY"},"countryName":"United States","fcodeName":"mountain","adminName1":"Wyoming","lat":"44.97661","fcode":"MT"},{"adminCode1":"WY","lng":"-110.5027","geonameId":5835706,"toponymName":"Prospect Peak","countryId":"6252001","fcl":"T","population":0,"countryCode":"US","name":"Prospect Peak","fclName":"mountain,hill,rock,... ","adminCodes1":{"ISO3166_2":"WY"},"countryName":"United States","fcodeName":"mountain","adminName1":"Wyoming","lat":"44.88799","fcode":"MT"},{"adminCode1":"WY","lng":"-110.83216","geonameId":5835779,"toponymName":"Quadrant Mountain","countryId":"6252001","fcl":"T","population":0,"countryCode":"US","name":"Quadrant Mountain","fclName":"mountain,hill,rock,... ","adminCodes1":{"ISO3166_2":"WY"},"countryName":"United States","fcodeName":"mountain","adminName1":"Wyoming","lat":"44.90382","fcode":"MT"},{"adminCode1":"WY","lng":"-110.40222","geonameId":5835903,"toponymName":"Rainy Lake","countryId":"6252001","fcl":"H","population":0,"countryCode":"US","name":"Rainy Lake","fclName":"stream, lake, ...","adminCodes1":{"ISO3166_2":"WY"},"countryName":"United States","fcodeName":"lake","adminName1":"Wyoming","lat":"44.90914","fcode":"LK"},{"adminCode1":"WY","lng":"-110.72743","geonameId":5836721,"toponymName":"Roaring Mountain","countryId":"6252001","fcl":"T","population":0,"countryCode":"US","name":"Roaring Mountain","fclName":"mountain,hill,rock,... ","adminCodes1":{"ISO3166_2":"WY"},"countryName":"United States","fcodeName":"mountain","adminName1":"Wyoming","lat":"44.77716","fcode":"MT"},{"adminCode1":"WY","lng":"-110.07185","geonameId":5837769,"toponymName":"Mount Schurz","countryId":"6252001","fcl":"T","population":0,"countryCode":"US","name":"Mount Schurz","fclName":"mountain,hill,rock,... ","adminCodes1":{"ISO3166_2":"WY"},"countryName":"United States","fcodeName":"mountain","adminName1":"Wyoming","lat":"44.34245","fcode":"MT"},{"adminCode1":"WY","lng":"-110.76688","geonameId":5837916,"toponymName":"Sepulcher Mountain","countryId":"6252001","fcl":"T","population":0,"countryCode":"US","name":"Sepulcher Mountain","fclName":"mountain,hill,rock,... ","adminCodes1":{"ISO3166_2":"WY"},"countryName":"United States","fcodeName":"mountain","adminName1":"Wyoming","lat":"44.99021","fcode":"MT"},{"adminCode1":"WY","lng":"-110.6766","geonameId":5838121,"toponymName":"Sheepeater Cliffs","countryId":"6252001","fcl":"T","population":0,"countryCode":"US","name":"Sheepeater Cliffs","fclName":"mountain,hill,rock,... ","adminCodes1":{"ISO3166_2":"WY"},"countryName":"United States","fcodeName":"cliff(s)","adminName1":"Wyoming","lat":"44.93299","fcode":"CLF"},{"adminCode1":"WY","lng":"-109.46788","geonameId":5818973,"toponymName":"Black Stone Lake","countryId":"6252001","fcl":"H","population":0,"countryCode":"US","name":"Black Stone Lake","fclName":"stream, lake, ...","adminCodes1":{"ISO3166_2":"WY"},"countryName":"United States","fcodeName":"lake","adminName1":"Wyoming","lat":"44.95967","fcode":"LK"},{"adminCode1":"WY","lng":"-110.70688","geonameId":5820056,"toponymName":"Bunsen Peak","countryId":"6252001","fcl":"T","population":0,"countryCode":"US","name":"Bunsen Peak","fclName":"mountain,hill,rock,... ","adminCodes1":{"ISO3166_2":"WY"},"countryName":"United States","fcodeName":"mountain","adminName1":"Wyoming","lat":"44.9316","fcode":"MT"},{"adminCode1":"WY","lng":"-109.41877","geonameId":5820673,"toponymName":"Carter Mountain","countryId":"6252001","fcl":"T","population":0,"countryCode":"US","name":"Carter Mountain","fclName":"mountain,hill,rock,... ","adminCodes1":{"ISO3166_2":"WY"},"countryName":"United States","fcodeName":"mountain","adminName1":"Wyoming","lat":"44.19467","fcode":"MT"},{"adminCode1":"WY","lng":"-110.17103","geonameId":5821191,"toponymName":"Mount Chittenden","countryId":"6252001","fcl":"T","population":0,"countryCode":"US","name":"Mount Chittenden","fclName":"mountain,hill,rock,... ","adminCodes1":{"ISO3166_2":"WY"},"countryName":"United States","fcodeName":"mountain","adminName1":"Wyoming","lat":"44.54661","fcode":"MT"},{"adminCode1":"WY","lng":"-109.15098","geonameId":5821313,"toponymName":"Clark","countryId":"6252001","fcl":"P","population":0,"countryCode":"US","name":"Clark","fclName":"city, village,...","adminCodes1":{"ISO3166_2":"WY"},"countryName":"United States","fcodeName":"populated place","adminName1":"Wyoming","lat":"44.89939","fcode":"PPL"},{"adminCode1":"WY","lng":"-110.73493","geonameId":5821317,"toponymName":"Clagett Butte","countryId":"6252001","fcl":"T","population":0,"countryCode":"US","name":"Clagett Butte","fclName":"mountain,hill,rock,... ","adminCodes1":{"ISO3166_2":"WY"},"countryName":"United States","fcodeName":"mountain","adminName1":"Wyoming","lat":"44.96438","fcode":"MT"},{"adminCode1":"WY","lng":"-109.72907","geonameId":5821379,"toponymName":"Clayton Mountain","countryId":"6252001","fcl":"T","population":0,"countryCode":"US","name":"Clayton Mountain","fclName":"mountain,hill,rock,... ","adminCodes1":{"ISO3166_2":"WY"},"countryName":"United States","fcodeName":"mountain","adminName1":"Wyoming","lat":"44.40884","fcode":"MT"},{"adminCode1":"WY","lng":"-110.10991","geonameId":5821714,"toponymName":"Colter Peak","countryId":"6252001","fcl":"T","population":0,"countryCode":"US","name":"Colter Peak","fclName":"mountain,hill,rock,... ","adminCodes1":{"ISO3166_2":"WY"},"countryName":"United States","fcodeName":"mountain","adminName1":"Wyoming","lat":"44.30161","fcode":"MT"},{"adminCode1":"WY","lng":"-110.57521","geonameId":5821811,"toponymName":"Cook Peak","countryId":"6252001","fcl":"T","population":0,"countryCode":"US","name":"Cook Peak","fclName":"mountain,hill,rock,... ","adminCodes1":{"ISO3166_2":"WY"},"countryName":"United States","fcodeName":"mountain","adminName1":"Wyoming","lat":"44.84271","fcode":"MT"},{"adminCode1":"WY","lng":"-109.38488","geonameId":5822800,"toponymName":"Dead Indian Pass","countryId":"6252001","fcl":"T","population":0,"countryCode":"US","name":"Dead Indian Pass","fclName":"mountain,hill,rock,... ","adminCodes1":{"ISO3166_2":"WY"},"countryName":"United States","fcodeName":"gap","adminName1":"Wyoming","lat":"44.74356","fcode":"GAP"},{"adminCode1":"WY","lng":"-110.14797","geonameId":5823368,"toponymName":"Mount Doane","countryId":"6252001","fcl":"T","population":0,"countryCode":"US","name":"Mount Doane","fclName":"mountain,hill,rock,... ","adminCodes1":{"ISO3166_2":"WY"},"countryName":"United States","fcodeName":"mountain","adminName1":"Wyoming","lat":"44.41356","fcode":"MT"},{"adminCode1":"WY","lng":"-109.88435","geonameId":5828291,"toponymName":"Index Peak","countryId":"6252001","fcl":"T","population":0,"countryCode":"US","name":"Index Peak","fclName":"mountain,hill,rock,... ","adminCodes1":{"ISO3166_2":"WY"},"countryName":"United States","fcodeName":"mountain","adminName1":"Wyoming","lat":"44.98605","fcode":"MT"},{"adminCode1":"WY","lng":"-110.32462","geonameId":5828358,"toponymName":"Indian Pond","countryId":"6252001","fcl":"H","population":0,"countryCode":"US","name":"Indian Pond","fclName":"stream, lake, ...","adminCodes1":{"ISO3166_2":"WY"},"countryName":"United States","fcodeName":"lake","adminName1":"Wyoming","lat":"44.55797","fcode":"LK"},{"adminCode1":"WY","lng":"-110.4702","geonameId":5828392,"toponymName":"Inspiration Point","countryId":"6252001","fcl":"T","population":0,"countryCode":"US","name":"Inspiration Point","fclName":"mountain,hill,rock,... ","adminCodes1":{"ISO3166_2":"WY"},"countryName":"United States","fcodeName":"cliff(s)","adminName1":"Wyoming","lat":"44.72522","fcode":"CLF"},{"adminCode1":"WY","lng":"-110.88466","geonameId":5829096,"toponymName":"Joseph Peak","countryId":"6252001","fcl":"T","population":0,"countryCode":"US","name":"Joseph Peak","fclName":"mountain,hill,rock,... ","adminCodes1":{"ISO3166_2":"WY"},"countryName":"United States","fcodeName":"mountain","adminName1":"Wyoming","lat":"44.95854","fcode":"MT"},{"adminCode1":"WY","lng":"-110.72194","geonameId":5829642,"toponymName":"Kingman Pass","countryId":"6252001","fcl":"T","population":0,"countryCode":"US","name":"Kingman Pass","fclName":"mountain,hill,rock,... ","adminCodes1":{"ISO3166_2":"WY"},"countryName":"United States","fcodeName":"gap","adminName1":"Wyoming","lat":"44.93541","fcode":"GAP"},{"adminCode1":"WY","lng":"-109.29792","geonameId":5829689,"toponymName":"Kirwin","countryId":"6252001","fcl":"P","population":0,"countryCode":"US","name":"Kirwin","fclName":"city, village,...","adminCodes1":{"ISO3166_2":"WY"},"countryName":"United States","fcodeName":"populated place","adminName1":"Wyoming","lat":"43.87634","fcode":"PPL"},{"adminCode1":"WY","lng":"-110.11019","geonameId":5830039,"toponymName":"Mount Langford","countryId":"6252001","fcl":"T","population":0,"countryCode":"US","name":"Mount Langford","fclName":"mountain,hill,rock,... ","adminCodes1":{"ISO3166_2":"WY"},"countryName":"United States","fcodeName":"mountain","adminName1":"Wyoming","lat":"44.40689","fcode":"MT"},{"adminCode1":"WY","lng":"-110.43007","geonameId":5831120,"toponymName":"Lost Lake","countryId":"6252001","fcl":"H","population":0,"countryCode":"US","name":"Lost Lake","fclName":"stream, lake, ...","adminCodes1":{"ISO3166_2":"WY"},"countryName":"United States","fcodeName":"lake","adminName1":"Wyoming","lat":"44.90947","fcode":"LK"},{"adminCode1":"WY","lng":"-110.7016","geonameId":5831487,"toponymName":"Mammoth","countryId":"6252001","fcl":"P","population":263,"countryCode":"US","name":"Mammoth","fclName":"city, village,...","adminCodes1":{"ISO3166_2":"WY"},"countryName":"United States","fcodeName":"populated place","adminName1":"Wyoming","lat":"44.9766","fcode":"PPL"},{"adminCode1":"WY","lng":"-110.63853","geonameId":5831631,"toponymName":"Mary Lake","countryId":"6252001","fcl":"H","population":0,"countryCode":"US","name":"Mary Lake","fclName":"stream, lake, ...","adminCodes1":{"ISO3166_2":"WY"},"countryName":"United States","fcodeName":"lake","adminName1":"Wyoming","lat":"44.60341","fcode":"LK"},{"adminCode1":"WY","lng":"-110.84077","geonameId":5823429,"toponymName":"Dome Mountain","countryId":"6252001","fcl":"T","population":0,"countryCode":"US","name":"Dome Mountain","fclName":"mountain,hill,rock,... ","adminCodes1":{"ISO3166_2":"WY"},"countryName":"United States","fcodeName":"mountain","adminName1":"Wyoming","lat":"44.83938","fcode":"MT"},{"adminCode1":"WY","lng":"-110.43505","geonameId":5823560,"toponymName":"Dragons Mouth Spring","countryId":"6252001","fcl":"H","population":0,"countryCode":"US","name":"Dragons Mouth Spring","fclName":"stream, lake, ...","adminCodes1":{"ISO3166_2":"WY"},"countryName":"United States","fcodeName":"hot spring(s)","adminName1":"Wyoming","lat":"44.62523","fcode":"SPNT"},{"adminCode1":"WY","lng":"-110.17908","geonameId":5823593,"toponymName":"Druid Peak","countryId":"6252001","fcl":"T","population":0,"countryCode":"US","name":"Druid Peak","fclName":"mountain,hill,rock,... ","adminCodes1":{"ISO3166_2":"WY"},"countryName":"United States","fcodeName":"mountain","adminName1":"Wyoming","lat":"44.90438","fcode":"MT"},{"adminCode1":"WY","lng":"-109.49044","geonameId":5823844,"toponymName":"Duck Lake","countryId":"6252001","fcl":"H","population":0,"countryCode":"US","name":"Duck Lake","fclName":"stream, lake, ...","adminCodes1":{"ISO3166_2":"WY"},"countryName":"United States","fcodeName":"lake","adminName1":"Wyoming","lat":"44.90964","fcode":"LK"},{"adminCode1":"WY","lng":"-110.45409","geonameId":5823928,"toponymName":"Dunraven Pass","countryId":"6252001","fcl":"T","population":0,"countryCode":"US","name":"Dunraven Pass","fclName":"mountain,hill,rock,... ","adminCodes1":{"ISO3166_2":"WY"},"countryName":"United States","fcodeName":"gap","adminName1":"Wyoming","lat":"44.78549","fcode":"GAP"},{"adminCode1":"WY","lng":"-110.46937","geonameId":5823929,"toponymName":"Dunraven Peak","countryId":"6252001","fcl":"T","population":0,"countryCode":"US","name":"Dunraven Peak","fclName":"mountain,hill,rock,... ","adminCodes1":{"ISO3166_2":"WY"},"countryName":"United States","fcodeName":"mountain","adminName1":"Wyoming","lat":"44.78272","fcode":"MT"},{"adminCode1":"WY","lng":"-110.02769","geonameId":5824044,"toponymName":"Eagle Peak","countryId":"6252001","fcl":"T","population":0,"countryCode":"US","name":"Eagle Peak","fclName":"mountain,hill,rock,... ","adminCodes1":{"ISO3166_2":"WY"},"countryName":"United States","fcodeName":"mountain","adminName1":"Wyoming","lat":"44.32078","fcode":"MT"},{"adminCode1":"WY","lng":"-110.88299","geonameId":5824363,"toponymName":"Echo Peak","countryId":"6252001","fcl":"T","population":0,"countryCode":"US","name":"Echo Peak","fclName":"mountain,hill,rock,... ","adminCodes1":{"ISO3166_2":"WY"},"countryName":"United States","fcodeName":"mountain","adminName1":"Wyoming","lat":"44.83993","fcode":"MT"},{"adminCode1":"WY","lng":"-110.1402","geonameId":5824456,"toponymName":"Eleanor Lake","countryId":"6252001","fcl":"H","population":0,"countryCode":"US","name":"Eleanor Lake","fclName":"stream, lake, ...","adminCodes1":{"ISO3166_2":"WY"},"countryName":"United States","fcodeName":"lake","adminName1":"Wyoming","lat":"44.46985","fcode":"LK"},{"adminCode1":"WY","lng":"-108.86875","geonameId":5824482,"toponymName":"Elk Basin","countryId":"6252001","fcl":"T","population":0,"countryCode":"US","name":"Elk Basin","fclName":"mountain,hill,rock,... ","adminCodes1":{"ISO3166_2":"WY"},"countryName":"United States","fcodeName":"depression(s)","adminName1":"Wyoming","lat":"44.99078","fcode":"DPR"},{"adminCode1":"WY","lng":"-110.66132","geonameId":5824826,"toponymName":"Mount Everts","countryId":"6252001","fcl":"T","population":0,"countryCode":"US","name":"Mount Everts","fclName":"mountain,hill,rock,... ","adminCodes1":{"ISO3166_2":"WY"},"countryName":"United States","fcodeName":"mountain","adminName1":"Wyoming","lat":"44.97494","fcode":"MT"},{"adminCode1":"WY","lng":"-108.57456","geonameId":5824970,"toponymName":"Fenton","countryId":"6252001","fcl":"P","population":0,"countryCode":"US","name":"Fenton","fclName":"city, village,...","adminCodes1":{"ISO3166_2":"WY"},"countryName":"United States","fcodeName":"populated place","adminName1":"Wyoming","lat":"44.39801","fcode":"PPL"},{"adminCode1":"WY","lng":"-110.54743","geonameId":5825344,"toponymName":"Folsom Peak","countryId":"6252001","fcl":"T","population":0,"countryCode":"US","name":"Folsom Peak","fclName":"mountain,hill,rock,... ","adminCodes1":{"ISO3166_2":"WY"},"countryName":"United States","fcodeName":"mountain","adminName1":"Wyoming","lat":"44.87271","fcode":"MT"},{"adminCode1":"WY","lng":"-109.3307","geonameId":5825573,"toponymName":"Francs Peak","countryId":"6252001","fcl":"T","population":0,"countryCode":"US","name":"Francs Peak","fclName":"mountain,hill,rock,... ","adminCodes1":{"ISO3166_2":"WY"},"countryName":"United States","fcodeName":"mountain","adminName1":"Wyoming","lat":"43.96134","fcode":"MT"},{"adminCode1":"WY","lng":"-110.8841","geonameId":5825770,"toponymName":"Gallatin Range","countryId":"6252001","fcl":"T","population":0,"countryCode":"US","name":"Gallatin Range","fclName":"mountain,hill,rock,... ","adminCodes1":{"ISO3166_2":"WY"},"countryName":"United States","fcodeName":"mountains","adminName1":"Wyoming","lat":"44.9166","fcode":"MTS"},{"adminCode1":"WY","lng":"-108.6604","geonameId":5825826,"toponymName":"Garland","countryId":"6252001","fcl":"P","population":115,"countryCode":"US","name":"Garland","fclName":"city, village,...","adminCodes1":{"ISO3166_2":"WY"},"countryName":"United States","fcodeName":"populated place","adminName1":"Wyoming","lat":"44.77967","fcode":"PPL"},{"adminCode1":"WY","lng":"-110.70049","geonameId":5826150,"toponymName":"Golden Gate Canyon","countryId":"6252001","fcl":"T","population":0,"countryCode":"US","name":"Golden Gate Canyon","fclName":"mountain,hill,rock,... ","adminCodes1":{"ISO3166_2":"WY"},"countryName":"United States","fcodeName":"valley","adminName1":"Wyoming","lat":"44.94744","fcode":"VAL"},{"adminCode1":"WY","lng":"-110.88022","geonameId":5826476,"toponymName":"Gray Peak","countryId":"6252001","fcl":"T","population":0,"countryCode":"US","name":"Gray Peak","fclName":"mountain,hill,rock,... ","adminCodes1":{"ISO3166_2":"WY"},"countryName":"United States","fcodeName":"mountain","adminName1":"Wyoming","lat":"44.94465","fcode":"MT"},{"adminCode1":"WY","lng":"-110.45548","geonameId":5827280,"toponymName":"Hayden Valley","countryId":"6252001","fcl":"T","population":0,"countryCode":"US","name":"Hayden Valley","fclName":"mountain,hill,rock,... ","adminCodes1":{"ISO3166_2":"WY"},"countryName":"United States","fcodeName":"valley","adminName1":"Wyoming","lat":"44.64383","fcode":"VAL"},{"adminCode1":"WY","lng":"-109.53831","geonameId":5827355,"toponymName":"Heart Lake","countryId":"6252001","fcl":"H","population":0,"countryCode":"US","name":"Heart Lake","fclName":"stream, lake, ...","adminCodes1":{"ISO3166_2":"WY"},"countryName":"United States","fcodeName":"lake","adminName1":"Wyoming","lat":"44.98289","fcode":"LK"},{"adminCode1":"WY","lng":"-109.1257","geonameId":5827366,"toponymName":"Heart Mountain","countryId":"6252001","fcl":"T","population":0,"countryCode":"US","name":"Heart Mountain","fclName":"mountain,hill,rock,... ","adminCodes1":{"ISO3166_2":"WY"},"countryName":"United States","fcodeName":"mountain","adminName1":"Wyoming","lat":"44.66662","fcode":"MT"},{"adminCode1":"WY","lng":"-110.47965","geonameId":5827382,"toponymName":"Hedges Peak","countryId":"6252001","fcl":"T","population":0,"countryCode":"US","name":"Hedges Peak","fclName":"mountain,hill,rock,... ","adminCodes1":{"ISO3166_2":"WY"},"countryName":"United States","fcodeName":"mountain","adminName1":"Wyoming","lat":"44.77744","fcode":"MT"},{"adminCode1":"WY","lng":"-110.85577","geonameId":5827805,"toponymName":"Mount Holmes","countryId":"6252001","fcl":"T","population":0,"countryCode":"US","name":"Mount Holmes","fclName":"mountain,hill,rock,... ","adminCodes1":{"ISO3166_2":"WY"},"countryName":"United States","fcodeName":"mountain","adminName1":"Wyoming","lat":"44.81882","fcode":"MT"},{"adminCode1":"WY","lng":"-110.14602","geonameId":5827902,"toponymName":"Mount Hornaday","countryId":"6252001","fcl":"T","population":0,"countryCode":"US","name":"Mount Hornaday","fclName":"mountain,hill,rock,... ","adminCodes1":{"ISO3166_2":"WY"},"countryName":"United States","fcodeName":"mountain","adminName1":"Wyoming","lat":"44.94494","fcode":"MT"},{"adminCode1":"WY","lng":"-110.12852","geonameId":5828115,"toponymName":"Hoyt Peak","countryId":"6252001","fcl":"T","population":0,"countryCode":"US","name":"Hoyt Peak","fclName":"mountain,hill,rock,... ","adminCodes1":{"ISO3166_2":"WY"},"countryName":"United States","fcodeName":"mountain","adminName1":"Wyoming","lat":"44.47717","fcode":"MT"},{"adminCode1":"WY","lng":"-110.03213","geonameId":5816791,"toponymName":"Abiathar Peak","countryId":"6252001","fcl":"T","population":0,"countryCode":"US","name":"Abiathar Peak","fclName":"mountain,hill,rock,... ","adminCodes1":{"ISO3166_2":"WY"},"countryName":"United States","fcodeName":"mountain","adminName1":"Wyoming","lat":"44.97522","fcode":"MT"},{"adminCode1":"WY","lng":"-110.25408","geonameId":5817128,"toponymName":"Amethyst Mountain","countryId":"6252001","fcl":"T","population":0,"countryCode":"US","name":"Amethyst Mountain","fclName":"mountain,hill,rock,... ","adminCodes1":{"ISO3166_2":"WY"},"countryName":"United States","fcodeName":"mountain","adminName1":"Wyoming","lat":"44.82855","fcode":"MT"},{"adminCode1":"WY","lng":"-110.83632","geonameId":5817310,"toponymName":"Antler Peak","countryId":"6252001","fcl":"T","population":0,"countryCode":"US","name":"Antler Peak","fclName":"mountain,hill,rock,... ","adminCodes1":{"ISO3166_2":"WY"},"countryName":"United States","fcodeName":"mountain","adminName1":"Wyoming","lat":"44.86854","fcode":"MT"},{"adminCode1":"WY","lng":"-110.47937","geonameId":5817433,"toponymName":"Artist Point","countryId":"6252001","fcl":"T","population":0,"countryCode":"US","name":"Artist Point","fclName":"mountain,hill,rock,... ","adminCodes1":{"ISO3166_2":"WY"},"countryName":"United States","fcodeName":"cape","adminName1":"Wyoming","lat":"44.72105","fcode":"CAPE"},{"adminCode1":"WY","lng":"-110.0688","geonameId":5817497,"toponymName":"Atkins Peak","countryId":"6252001","fcl":"T","population":0,"countryCode":"US","name":"Atkins Peak","fclName":"mountain,hill,rock,... ","adminCodes1":{"ISO3166_2":"WY"},"countryName":"United States","fcodeName":"mountain","adminName1":"Wyoming","lat":"44.37578","fcode":"MT"},{"adminCode1":"WY","lng":"-110.87244","geonameId":5817776,"toponymName":"Bannock Peak","countryId":"6252001","fcl":"T","population":0,"countryCode":"US","name":"Bannock Peak","fclName":"mountain,hill,rock,... ","adminCodes1":{"ISO3166_2":"WY"},"countryName":"United States","fcodeName":"mountain","adminName1":"Wyoming","lat":"44.8916","fcode":"MT"},{"adminCode1":"WY","lng":"-110.08852","geonameId":5817899,"toponymName":"Barronette Peak","countryId":"6252001","fcl":"T","population":0,"countryCode":"US","name":"Barronette Peak","fclName":"mountain,hill,rock,... ","adminCodes1":{"ISO3166_2":"WY"},"countryName":"United States","fcodeName":"mountain","adminName1":"Wyoming","lat":"44.97522","fcode":"MT"},{"adminCode1":"WY","lng":"-110.43631","geonameId":5843611,"toponymName":"Yanceys","countryId":"6252001","fcl":"P","population":0,"countryCode":"US","name":"Yanceys","fclName":"city, village,...","adminCodes1":{"ISO3166_2":"WY"},"countryName":"United States","fcodeName":"populated place","adminName1":"Wyoming","lat":"44.93077","fcode":"PPL"},{"adminCode1":"WY","lng":"-109.86657","geonameId":5843688,"toponymName":"Younts Peak","countryId":"6252001","fcl":"T","population":0,"countryCode":"US","name":"Younts Peak","fclName":"mountain,hill,rock,... ","adminCodes1":{"ISO3166_2":"WY"},"countryName":"United States","fcodeName":"mountain","adminName1":"Wyoming","lat":"43.98217","fcode":"MT"}]}
