{"totalResultsCount":21,"geonames":[{"adminCode1":"HI","lng":"-157.98211","geonameId":9611403,"toponymName":"Pearl Harbor National Wildlife Refuge","countryId":"6252001","fcl":"L","population":0,"countryCode":"US","name":"Pearl Harbor National Wildlife Refuge","fclName":"parks,area, ...","adminCodes1":{"ISO3166_2":"HI"},"countryName":"United States","fcodeName":"wildlife reserve","adminName1":"Hawaii","lat":"21.38685","fcode":"RESW"},{"adminCode1":"HI","lng":"-157.96962","geonameId":5852289,"toponymName":"Pearl Harbor","countryId":"6252001","fcl":"H","population":0,"countryCode":"US","name":"Pearl Harbor","fclName":"stream, lake, ...","adminCodes1":{"ISO3166_2":"HI"},"countryName":"United States","fcodeName":"bay","adminName1":"Hawaii","lat":"21.3527","fcode":"BAY"},{"adminCode1":"KS","lng":"-94.6499","geonameId":6346974,"toponymName":"Pearl Harbor Park","countryId":"6252001","fcl":"L","population":0,"countryCode":"US","name":"Pearl Harbor Park","fclName":"parks,area, ...","adminCodes1":{"ISO3166_2":"KS"},"countryName":"United States","fcodeName":"park","adminName1":"Kansas","lat":"39.0209","fcode":"PRK"},{"adminCode1":"HI","lng":"-158.08508","geonameId":5852294,"toponymName":"Pearl Harbor National Wildlife Refuge","countryId":"6252001","fcl":"L","population":0,"countryCode":"US","name":"Pearl Harbor National Wildlife Refuge","fclName":"parks,area, ...","adminCodes1":{"ISO3166_2":"HI"},"countryName":"United States","fcodeName":"park","adminName1":"Hawaii","lat":"21.29841","fcode":"PRK"},{"adminCode1":"HI","lng":"-157.95778","geonameId":5852295,"toponymName":"Pearl Harbor Park","countryId":"6252001","fcl":"L","population":0,"countryCode":"US","name":"Pearl Harbor Park","fclName":"parks,area, ...","adminCodes1":{"ISO3166_2":"HI"},"countryName":"United States","fcodeName":"park","adminName1":"Hawaii","lat":"21.38944","fcode":"PRK"},{"adminCode1":"HI","lng":"-157.93306","geonameId":5852290,"toponymName":"Pearl Harbor Elementary School","countryId":"6252001","fcl":"S","population":0,"countryCode":"US","name":"Pearl Harbor Elementary School","fclName":"spot, building, farm","adminCodes1":{"ISO3166_2":"HI"},"countryName":"United States","fcodeName":"school","adminName1":"Hawaii","lat":"21.34917","fcode":"SCH"},{"adminCode1":"HI","lng":"-157.94397","geonameId":8125539,"toponymName":"Joint Base Pearl Harbor-Hickam","countryId":"6252001","fcl":"S","population":0,"countryCode":"US","name":"Joint Base Pearl Harbor-Hickam","fclName":"spot, building, farm","adminCodes1":{"ISO3166_2":"HI"},"countryName":"United States","fcodeName":"military installation","adminName1":"Hawaii","lat":"21.34927","fcode":"INSM"},{"adminCode1":"HI","lng":"-157.99569","geonameId":7267222,"toponymName":"Naval Station Pearl Harbor","countryId":"6252001","fcl":"S","population":0,"countryCode":"US","name":"Naval Station Pearl Harbor","fclName":"spot, building, farm","adminCodes1":{"ISO3166_2":"HI"},"countryName":"United States","fcodeName":"military installation","adminName1":"Hawaii","lat":"21.35264","fcode":"INSM"},{"adminCode1":"NV","lng":"-119.47712","geonameId":5510047,"toponymName":"Pearl Harbor Mine","countryId":"6252001","fcl":"S","population":0,"countryCode":"US","name":"Pearl Harbor Mine","fclName":"spot, building, farm","adminCodes1":{"ISO3166_2":"NV"},"countryName":"United States","fcodeName":"mine(s)","adminName1":"Nevada","lat":"39.33603","fcode":"MN"},{"adminCode1":"HI","lng":"-157.9575","geonameId":5857237,"toponymName":"Blaisdell Park","countryId":"6252001","fcl":"L","population":0,"countryCode":"US","name":"Blaisdell Park","fclName":"parks,area, ...","adminCodes1":{"ISO3166_2":"HI"},"countryName":"United States","fcodeName":"park","adminName1":"Hawaii","lat":"21.38861","fcode":"PRK"},{"adminCode1":"HI","lng":"-157.94713","geonameId":10173805,"toponymName":"Joint Base Pearl Harbor Hickam","countryId":"6252001","fcl":"P","population":0,"countryCode":"US","name":"Joint Base Pearl Harbor Hickam","fclName":"city, village,...","adminCodes1":{"ISO3166_2":"HI"},"countryName":"United States","fcodeName":"populated place","adminName1":"Hawaii","lat":"21.34906","fcode":"PPL"},{"adminCode1":"HI","lng":"-157.97739","geonameId":10057006,"toponymName":"Pearl Harbor","countryId":"6252001","fcl":"P","population":0,"countryCode":"US","name":"Pearl Harbor","fclName":"city, village,...","adminCodes1":{"ISO3166_2":"HI"},"countryName":"United States","fcodeName":"populated place","adminName1":"Hawaii","lat":"21.34475","fcode":"PPL"},{"adminCode1":"AK","lng":"-134.78556","geonameId":5556294,"toponymName":"Pearl Harbor","countryId":"6252001","fcl":"H","population":0,"countryCode":"US","name":"Pearl Harbor","fclName":"stream, lake, ...","adminCodes1":{"ISO3166_2":"AK"},"countryName":"United States","fcodeName":"bay","adminName1":"Alaska","lat":"58.4775","fcode":"BAY"},{"adminCode1":"HI","lng":"-157.94083","geonameId":5852293,"toponymName":"Pearl Harbor Kai Elementary School","countryId":"6252001","fcl":"S","population":0,"countryCode":"US","name":"Pearl Harbor Kai Elementary School","fclName":"spot, building, farm","adminCodes1":{"ISO3166_2":"HI"},"countryName":"United States","fcodeName":"school","adminName1":"Hawaii","lat":"21.35167","fcode":"SCH"},{"adminCode1":"HI","lng":"-157.99778","geonameId":5852292,"toponymName":"Pearl Harbor Historic Trail","countryId":"6252001","fcl":"R","population":0,"countryCode":"US","name":"Pearl Harbor Historic Trail","fclName":"road, railroad ","adminCodes1":{"ISO3166_2":"HI"},"countryName":"United States","fcodeName":"trail","adminName1":"Hawaii","lat":"21.3925","fcode":"TRL"},{"adminCode1":"TN","lng":"-84.71411","geonameId":4648542,"toponymName":"Pearl Harbor","countryId":"6252001","fcl":"H","population":0,"countryCode":"US","name":"Pearl Harbor","fclName":"stream, lake, ...","adminCodes1":{"ISO3166_2":"TN"},"countryName":"United States","fcodeName":"bay","adminName1":"Tennessee","lat":"35.71479","fcode":"BAY"},{"adminCode1":"AZ","lng":"-111.87016","geonameId":5308379,"toponymName":"Pearl Harbor Storage Tank (historical)","countryId":"6252001","fcl":"H","population":0,"countryCode":"US","name":"Pearl Harbor Storage Tank (historical)","fclName":"stream, lake, ...","adminCodes1":{"ISO3166_2":"AZ"},"countryName":"United States","fcodeName":"water tank","adminName1":"Arizona","lat":"35.64805","fcode":"RSVT"},{"adminCode1":"AZ","lng":"-111.83937","geonameId":5308380,"toponymName":"Pearl Harbor Tank","countryId":"6252001","fcl":"H","population":0,"countryCode":"US","name":"Pearl Harbor Tank","fclName":"stream, lake, ...","adminCodes1":{"ISO3166_2":"AZ"},"countryName":"United States","fcodeName":"water tank","adminName1":"Arizona","lat":"35.64966","fcode":"RSVT"},{"adminCode1":"HI","lng":"-157.96756","geonameId":5852291,"toponymName":"Pearl Harbor Entrance","countryId":"6252001","fcl":"H","population":0,"countryCode":"US","name":"Pearl Harbor Entrance","fclName":"stream, lake, ...","adminCodes1":{"ISO3166_2":"HI"},"countryName":"United States","fcodeName":"channel","adminName1":"Hawaii","lat":"21.32332","fcode":"CHN"},{"adminCode1":"HI","lng":"-157.93722","geonameId":5852296,"toponymName":"Pearl Harbor Yacht Club","countryId":"6252001","fcl":"S","population":0,"countryCode":"US","name":"Pearl Harbor Yacht Club","fclName":"spot, building, farm","adminCodes1":{"ISO3166_2":"HI"},"countryName":"United States","fcodeName":"","adminName1":"Hawaii","lat":"21.37722"},{"adminCode1":"HI","lng":"-157.94417","geonameId":6334147,"toponymName":"Pearl Harbor Memorial Chapel","countryId":"6252001","fcl":"S","population":0,"countryCode":"US","name":"Pearl Harbor Memorial Chapel","fclName":"spot, building, farm","adminCodes1":{"ISO3166_2":"HI"},"countryName":"United States","fcodeName":"church","adminName1":"Hawaii","lat":"21.34944","fcode":"CH"}]}
