{"totalResultsCount":153,"geonames":[{"adminCode1":"GA","lng":"-83.17738","geonameId":4215266,"toponymName":"Penfield","countryId":"6252001","fcl":"P","population":0,"countryCode":"US","name":"Penfield","fclName":"city, village,...","adminCodes1":{"ISO3166_2":"GA"},"countryName":"United States","fcodeName":"populated place","adminName1":"Georgia","lat":"33.66735","fcode":"PPL"},{"adminCode1":"NY","lng":"-77.47555","geonameId":5130901,"toponymName":"Penfield","countryId":"6252001","fcl":"P","population":0,"countryCode":"US","name":"Penfield","fclName":"city, village,...","adminCodes1":{"ISO3166_2":"NY"},"countryName":"United States","fcodeName":"populated place","adminName1":"New York","lat":"43.13034","fcode":"PPL"},{"adminCode1":"CT","lng":"-73.23956","geonameId":4840514,"toponymName":"Penfield Reef","countryId":"6252001","fcl":"T","population":0,"countryCode":"US","name":"Penfield Reef","fclName":"mountain,hill,rock,... ","adminCodes1":{"ISO3166_2":"CT"},"countryName":"United States","fcodeName":"bar","adminName1":"Connecticut","lat":"41.12593","fcode":"BAR"},{"adminCode1":"OH","lng":"-82.12123","geonameId":5166387,"toponymName":"Township of Penfield","countryId":"6252001","fcl":"A","population":0,"countryCode":"US","name":"Penfield Township","fclName":"country, state, region,...","adminCodes1":{"ISO3166_2":"OH"},"countryName":"United States","fcodeName":"third-order administrative division","adminName1":"Ohio","lat":"41.16828","fcode":"ADM3"},{"adminCode1":"PA","lng":"-78.57558","geonameId":5205354,"toponymName":"Penfield","countryId":"6252001","fcl":"P","population":0,"countryCode":"US","name":"Penfield","fclName":"city, village,...","adminCodes1":{"ISO3166_2":"PA"},"countryName":"United States","fcodeName":"populated place","adminName1":"Pennsylvania","lat":"41.20839","fcode":"PPL"},{"adminCode1":"IL","lng":"-87.9467","geonameId":4905634,"toponymName":"Penfield","countryId":"6252001","fcl":"P","population":193,"countryCode":"US","name":"Penfield","fclName":"city, village,...","adminCodes1":{"ISO3166_2":"IL"},"countryName":"United States","fcodeName":"populated place","adminName1":"Illinois","lat":"40.30337","fcode":"PPL"},{"adminCode1":"GA","lng":"-83.17766","geonameId":4215270,"toponymName":"Penfield Historic District","countryId":"6252001","fcl":"L","population":0,"countryCode":"US","name":"Penfield Historic District","fclName":"parks,area, ...","adminCodes1":{"ISO3166_2":"GA"},"countryName":"United States","fcodeName":"park","adminName1":"Georgia","lat":"33.66735","fcode":"PRK"},{"adminCode1":"OH","lng":"-82.12321","geonameId":5166382,"toponymName":"Penfield Community Park","countryId":"6252001","fcl":"L","population":0,"countryCode":"US","name":"Penfield Community Park","fclName":"parks,area, ...","adminCodes1":{"ISO3166_2":"OH"},"countryName":"United States","fcodeName":"park","adminName1":"Ohio","lat":"41.16811","fcode":"PRK"},{"adminCode1":"NY","lng":"-77.44829","geonameId":5130906,"toponymName":"Town of Penfield","countryId":"6252001","fcl":"A","population":37502,"countryCode":"US","name":"Town of Penfield","fclName":"country, state, region,...","adminCodes1":{"ISO3166_2":"NY"},"countryName":"United States","fcodeName":"third-order administrative division","adminName1":"New York","lat":"43.16021","fcode":"ADM3"},{"adminCode1":"KS","lng":"-95.40803","geonameId":4277112,"toponymName":"Penfield","countryId":"6252001","fcl":"P","population":0,"countryCode":"US","name":"Penfield","fclName":"city, village,...","adminCodes1":{"ISO3166_2":"KS"},"countryName":"United States","fcodeName":"populated place","adminName1":"Kansas","lat":"37.16285","fcode":"PPL"},{"adminCode1":"CT","lng":"-73.22202","geonameId":12035841,"toponymName":"Penfield Reef Light","countryId":"6252001","fcl":"S","population":0,"countryCode":"US","name":"Penfield Reef Light","fclName":"spot, building, farm","adminCodes1":{"ISO3166_2":"CT"},"countryName":"United States","fcodeName":"lighthouse","adminName1":"Connecticut","lat":"41.11709","fcode":"LTHSE"},{"adminCode1":"NY","lng":"-73.53797","geonameId":5130905,"toponymName":"Penfield Pond","countryId":"6252001","fcl":"H","population":0,"countryCode":"US","name":"Penfield Pond","fclName":"stream, lake, ...","adminCodes1":{"ISO3166_2":"NY"},"countryName":"United States","fcodeName":"lake","adminName1":"New York","lat":"43.90976","fcode":"LK"},{"adminCode1":"OH","lng":"-82.12126","geonameId":5166379,"toponymName":"Penfield","countryId":"6252001","fcl":"P","population":0,"countryCode":"US","name":"Penfield","fclName":"city, village,...","adminCodes1":{"ISO3166_2":"OH"},"countryName":"United States","fcodeName":"populated place","adminName1":"Ohio","lat":"41.16866","fcode":"PPL"},{"adminCode1":"NY","lng":"-77.41221","geonameId":5116007,"toponymName":"East Penfield","countryId":"6252001","fcl":"P","population":0,"countryCode":"US","name":"East Penfield","fclName":"city, village,...","adminCodes1":{"ISO3166_2":"NY"},"countryName":"United States","fcodeName":"populated place","adminName1":"New York","lat":"43.12951","fcode":"PPL"},{"adminCode1":"MI","lng":"-85.12101","geonameId":5005291,"toponymName":"Charter Township of Pennfield","countryId":"6252001","fcl":"A","population":0,"countryCode":"US","name":"Charter Township of Pennfield","fclName":"country, state, region,...","adminCodes1":{"ISO3166_2":"MI"},"countryName":"United States","fcodeName":"third-order administrative division","adminName1":"Michigan","lat":"42.37855","fcode":"ADM3"},{"adminCode1":"CT","lng":"-73.24261","geonameId":4842990,"toponymName":"Shoal Point","countryId":"6252001","fcl":"T","population":0,"countryCode":"US","name":"Shoal Point","fclName":"mountain,hill,rock,... ","adminCodes1":{"ISO3166_2":"CT"},"countryName":"United States","fcodeName":"cape","adminName1":"Connecticut","lat":"41.12787","fcode":"CAPE"},{"adminCode1":"MI","lng":"-85.10249","geonameId":5005288,"toponymName":"Pennfield","countryId":"6252001","fcl":"P","population":0,"countryCode":"US","name":"Pennfield","fclName":"city, village,...","adminCodes1":{"ISO3166_2":"MI"},"countryName":"United States","fcodeName":"populated place","adminName1":"Michigan","lat":"42.37337","fcode":"PPL"},{"adminCode1":"AL","lng":"-86.72971","geonameId":4082620,"toponymName":"Penfield Heights","countryId":"6252001","fcl":"P","population":0,"countryCode":"US","name":"Penfield Heights","fclName":"city, village,...","adminCodes1":{"ISO3166_2":"AL"},"countryName":"United States","fcodeName":"populated place","adminName1":"Alabama","lat":"33.59427","fcode":"PPL"},{"adminCode1":"CT","lng":"-72.57398","geonameId":4840519,"toponymName":"Penfield Hill","countryId":"6252001","fcl":"T","population":0,"countryCode":"US","name":"Penfield Hill","fclName":"mountain,hill,rock,... ","adminCodes1":{"ISO3166_2":"CT"},"countryName":"United States","fcodeName":"mountain","adminName1":"Connecticut","lat":"41.58204","fcode":"MT"},{"adminCode1":"GA","lng":"-83.6499","geonameId":4208932,"toponymName":"Mercer University","countryId":"6252001","fcl":"S","population":0,"countryCode":"US","name":"Mercer University","fclName":"spot, building, farm","adminCodes1":{"ISO3166_2":"GA"},"countryName":"United States","fcodeName":"school","adminName1":"Georgia","lat":"32.83181","fcode":"SCH"},{"adminCode1":"OH","lng":"-82.10876","geonameId":5166380,"toponymName":"Penfield Cemetery","countryId":"6252001","fcl":"S","population":0,"countryCode":"US","name":"Penfield Cemetery","fclName":"spot, building, farm","adminCodes1":{"ISO3166_2":"OH"},"countryName":"United States","fcodeName":"cemetery","adminName1":"Ohio","lat":"41.16783","fcode":"CMTY"},{"adminCode1":"NY","lng":"-73.53568","geonameId":5122344,"toponymName":"Ironville","countryId":"6252001","fcl":"P","population":0,"countryCode":"US","name":"Ironville","fclName":"city, village,...","adminCodes1":{"ISO3166_2":"NY"},"countryName":"United States","fcodeName":"populated place","adminName1":"New York","lat":"43.92256","fcode":"PPL"},{"adminCode1":"PA","lng":"-75.2888","geonameId":4560275,"toponymName":"Penfield","countryId":"6252001","fcl":"P","population":0,"countryCode":"US","name":"Penfield","fclName":"city, village,...","adminCodes1":{"ISO3166_2":"PA"},"countryName":"United States","fcodeName":"populated place","adminName1":"Pennsylvania","lat":"39.98067","fcode":"PPL"},{"adminCode1":"NY","lng":"-77.4311","geonameId":5130902,"toponymName":"Penfield Center","countryId":"6252001","fcl":"P","population":0,"countryCode":"US","name":"Penfield Center","fclName":"city, village,...","adminCodes1":{"ISO3166_2":"NY"},"countryName":"United States","fcodeName":"populated place","adminName1":"New York","lat":"43.16729","fcode":"PPL"},{"adminCode1":"KS","lng":"-95.76832","geonameId":4278045,"toponymName":"Ridgeton","countryId":"6252001","fcl":"P","population":0,"countryCode":"US","name":"Ridgeton","fclName":"city, village,...","adminCodes1":{"ISO3166_2":"KS"},"countryName":"United States","fcodeName":"populated place","adminName1":"Kansas","lat":"38.46751","fcode":"PPL"},{"adminCode1":"MT","lng":"-112.46557","geonameId":5671012,"toponymName":"Penfield (historical)","countryId":"6252001","fcl":"S","population":0,"countryCode":"US","name":"Penfield (historical)","fclName":"spot, building, farm","adminCodes1":{"ISO3166_2":"MT"},"countryName":"United States","fcodeName":"","adminName1":"Montana","lat":"45.8777"},{"adminCode1":"MI","lng":"-85.13721","geonameId":4994705,"toponymName":"Greenfield Park","countryId":"6252001","fcl":"P","population":0,"countryCode":"US","name":"Greenfield Park","fclName":"city, village,...","adminCodes1":{"ISO3166_2":"MI"},"countryName":"United States","fcodeName":"populated place","adminName1":"Michigan","lat":"42.33504","fcode":"PPL"},{"adminCode1":"MI","lng":"-85.15416","geonameId":5000805,"toponymName":"Maplehurst","countryId":"6252001","fcl":"P","population":0,"countryCode":"US","name":"Maplehurst","fclName":"city, village,...","adminCodes1":{"ISO3166_2":"MI"},"countryName":"United States","fcodeName":"populated place","adminName1":"Michigan","lat":"42.34782","fcode":"PPL"},{"adminCode1":"NY","lng":"-77.51222","geonameId":7220710,"toponymName":"Harper Park Rochester","countryId":"6252001","fcl":"P","population":0,"countryCode":"US","name":"Harper Park Rochester","fclName":"city, village,...","adminCodes1":{"ISO3166_2":"NY"},"countryName":"United States","fcodeName":"populated place","adminName1":"New York","lat":"43.12611","fcode":"PPL"},{"adminCode1":"NY","lng":"-77.51306","geonameId":7220713,"toponymName":"Sebastian Mobile Home Park","countryId":"6252001","fcl":"P","population":0,"countryCode":"US","name":"Sebastian Mobile Home Park","fclName":"city, village,...","adminCodes1":{"ISO3166_2":"NY"},"countryName":"United States","fcodeName":"populated place","adminName1":"New York","lat":"43.12694","fcode":"PPL"},{"adminCode1":"NY","lng":"-77.38638","geonameId":5134399,"toponymName":"Roseland","countryId":"6252001","fcl":"P","population":0,"countryCode":"US","name":"Roseland","fclName":"city, village,...","adminCodes1":{"ISO3166_2":"NY"},"countryName":"United States","fcodeName":"populated place","adminName1":"New York","lat":"43.18145","fcode":"PPL"},{"adminCode1":"NC","lng":"-80.05921","geonameId":4484543,"toponymName":"Pennfield (historical)","countryId":"6252001","fcl":"P","population":0,"countryCode":"US","name":"Pennfield (historical)","fclName":"city, village,...","adminCodes1":{"ISO3166_2":"NC"},"countryName":"United States","fcodeName":"abandoned populated place","adminName1":"North Carolina","lat":"35.92597","fcode":"PPLQ"},{"adminCode1":"AL","lng":"-86.73749","geonameId":4083401,"toponymName":"Pine Knoll Vista","countryId":"6252001","fcl":"P","population":0,"countryCode":"US","name":"Pine Knoll Vista","fclName":"city, village,...","adminCodes1":{"ISO3166_2":"AL"},"countryName":"United States","fcodeName":"section of populated place","adminName1":"Alabama","lat":"33.59844","fcode":"PPLX"},{"adminCode1":"MI","lng":"-85.12333","geonameId":4987404,"toponymName":"Burleigh Corners","countryId":"6252001","fcl":"S","population":0,"countryCode":"US","name":"Burleigh Corners","fclName":"spot, building, farm","adminCodes1":{"ISO3166_2":"MI"},"countryName":"United States","fcodeName":"","adminName1":"Michigan","lat":"42.40643"},{"adminCode1":"OH","lng":"-82.12071","geonameId":5166381,"toponymName":"Penfield Community Church","countryId":"6252001","fcl":"S","population":0,"countryCode":"US","name":"Penfield Community Church","fclName":"spot, building, farm","adminCodes1":{"ISO3166_2":"OH"},"countryName":"United States","fcodeName":"church","adminName1":"Ohio","lat":"41.16894","fcode":"CH"},{"adminCode1":"OH","lng":"-82.1196","geonameId":5166383,"toponymName":"Penfield Elementary School","countryId":"6252001","fcl":"S","population":0,"countryCode":"US","name":"Penfield Elementary School","fclName":"spot, building, farm","adminCodes1":{"ISO3166_2":"OH"},"countryName":"United States","fcodeName":"school","adminName1":"Ohio","lat":"41.16811","fcode":"SCH"},{"adminCode1":"OH","lng":"-82.12071","geonameId":5166385,"toponymName":"Penfield Post Office (historical)","countryId":"6252001","fcl":"S","population":0,"countryCode":"US","name":"Penfield Post Office (historical)","fclName":"spot, building, farm","adminCodes1":{"ISO3166_2":"OH"},"countryName":"United States","fcodeName":"post office","adminName1":"Ohio","lat":"41.16811","fcode":"PO"},{"adminCode1":"OH","lng":"-82.12321","geonameId":5166386,"toponymName":"Penfield Township Hall","countryId":"6252001","fcl":"S","population":0,"countryCode":"US","name":"Penfield Township Hall","fclName":"spot, building, farm","adminCodes1":{"ISO3166_2":"OH"},"countryName":"United States","fcodeName":"building(s)","adminName1":"Ohio","lat":"41.16866","fcode":"BLDG"},{"adminCode1":"NY","lng":"-77.48344","geonameId":5131650,"toponymName":"Plank Road North Elementary School","countryId":"6252001","fcl":"S","population":0,"countryCode":"US","name":"Plank Road North Elementary School","fclName":"spot, building, farm","adminCodes1":{"ISO3166_2":"NY"},"countryName":"United States","fcodeName":"school","adminName1":"New York","lat":"43.1812","fcode":"SCH"},{"adminCode1":"NY","lng":"-77.48343","geonameId":5108175,"toponymName":"Bay Trail Middle School","countryId":"6252001","fcl":"S","population":0,"countryCode":"US","name":"Bay Trail Middle School","fclName":"spot, building, farm","adminCodes1":{"ISO3166_2":"NY"},"countryName":"United States","fcodeName":"school","adminName1":"New York","lat":"43.15577","fcode":"SCH"},{"adminCode1":"NY","lng":"-77.48302","geonameId":5113083,"toponymName":"Cobbles Elementary School","countryId":"6252001","fcl":"S","population":0,"countryCode":"US","name":"Cobbles Elementary School","fclName":"spot, building, farm","adminCodes1":{"ISO3166_2":"NY"},"countryName":"United States","fcodeName":"school","adminName1":"New York","lat":"43.13417","fcode":"SCH"},{"adminCode1":"NY","lng":"-77.44849","geonameId":5120083,"toponymName":"Harris Hill Elementary School","countryId":"6252001","fcl":"S","population":0,"countryCode":"US","name":"Harris Hill Elementary School","fclName":"spot, building, farm","adminCodes1":{"ISO3166_2":"NY"},"countryName":"United States","fcodeName":"school","adminName1":"New York","lat":"43.13238","fcode":"SCH"},{"adminCode1":"GA","lng":"-83.17516","geonameId":4215267,"toponymName":"Penfield Baptist Church","countryId":"6252001","fcl":"S","population":0,"countryCode":"US","name":"Penfield Baptist Church","fclName":"spot, building, farm","adminCodes1":{"ISO3166_2":"GA"},"countryName":"United States","fcodeName":"church","adminName1":"Georgia","lat":"33.66874","fcode":"CH"},{"adminCode1":"GA","lng":"-83.1771","geonameId":4215268,"toponymName":"Penfield Female Seminary (historical)","countryId":"6252001","fcl":"S","population":0,"countryCode":"US","name":"Penfield Female Seminary (historical)","fclName":"spot, building, farm","adminCodes1":{"ISO3166_2":"GA"},"countryName":"United States","fcodeName":"school","adminName1":"Georgia","lat":"33.66762","fcode":"SCH"},{"adminCode1":"GA","lng":"-83.64907","geonameId":4215269,"toponymName":"Penfield Hall","countryId":"6252001","fcl":"S","population":0,"countryCode":"US","name":"Penfield Hall","fclName":"spot, building, farm","adminCodes1":{"ISO3166_2":"GA"},"countryName":"United States","fcodeName":"building(s)","adminName1":"Georgia","lat":"32.82986","fcode":"BLDG"},{"adminCode1":"GA","lng":"-83.17377","geonameId":4215271,"toponymName":"Penfield Hunt Camp","countryId":"6252001","fcl":"S","population":0,"countryCode":"US","name":"Penfield Hunt Camp","fclName":"spot, building, farm","adminCodes1":{"ISO3166_2":"GA"},"countryName":"United States","fcodeName":"camp(s)","adminName1":"Georgia","lat":"33.65346","fcode":"CMP"},{"adminCode1":"GA","lng":"-83.1771","geonameId":4215272,"toponymName":"Penfield School (historical)","countryId":"6252001","fcl":"S","population":0,"countryCode":"US","name":"Penfield School (historical)","fclName":"spot, building, farm","adminCodes1":{"ISO3166_2":"GA"},"countryName":"United States","fcodeName":"school","adminName1":"Georgia","lat":"33.66762","fcode":"SCH"},{"adminCode1":"GA","lng":"-83.17293","geonameId":4048062,"toponymName":"Penfield Cemetery","countryId":"6252001","fcl":"S","population":0,"countryCode":"US","name":"Penfield Cemetery","fclName":"spot, building, farm","adminCodes1":{"ISO3166_2":"GA"},"countryName":"United States","fcodeName":"cemetery","adminName1":"Georgia","lat":"33.67318","fcode":"CMTY"},{"adminCode1":"FL","lng":"-81.94821","geonameId":7191473,"toponymName":"Charlotte and Paul Penfield Library","countryId":"6252001","fcl":"S","population":0,"countryCode":"US","name":"Charlotte and Paul Penfield Library","fclName":"spot, building, farm","adminCodes1":{"ISO3166_2":"FL"},"countryName":"United States","fcodeName":"library","adminName1":"Florida","lat":"28.03748","fcode":"LIBR"},{"adminCode1":"KS","lng":"-95.41218","geonameId":4277113,"toponymName":"Penfield Cemetery","countryId":"6252001","fcl":"S","population":0,"countryCode":"US","name":"Penfield Cemetery","fclName":"spot, building, farm","adminCodes1":{"ISO3166_2":"KS"},"countryName":"United States","fcodeName":"cemetery","adminName1":"Kansas","lat":"37.14568","fcode":"CMTY"},{"adminCode1":"CT","lng":"-73.27817","geonameId":4840515,"toponymName":"Penfield Shopping Center","countryId":"6252001","fcl":"S","population":0,"countryCode":"US","name":"Penfield Shopping Center","fclName":"spot, building, farm","adminCodes1":{"ISO3166_2":"CT"},"countryName":"United States","fcodeName":"mall","adminName1":"Connecticut","lat":"41.14121","fcode":"MALL"},{"adminCode1":"PA","lng":"-75.2846","geonameId":7270243,"toponymName":"Penfield Station","countryId":"6252001","fcl":"S","population":0,"countryCode":"US","name":"Penfield Station","fclName":"spot, building, farm","adminCodes1":{"ISO3166_2":"PA"},"countryName":"United States","fcodeName":"","adminName1":"Pennsylvania","lat":"39.9809"},{"adminCode1":"PA","lng":"-78.58912","geonameId":5205355,"toponymName":"Penfield Reservoir","countryId":"6252001","fcl":"H","population":0,"countryCode":"US","name":"Penfield Reservoir","fclName":"stream, lake, ...","adminCodes1":{"ISO3166_2":"PA"},"countryName":"United States","fcodeName":"reservoir(s)","adminName1":"Pennsylvania","lat":"41.2389","fcode":"RSV"},{"adminCode1":"IL","lng":"-87.94837","geonameId":4905635,"toponymName":"Penfield Post Office","countryId":"6252001","fcl":"S","population":0,"countryCode":"US","name":"Penfield Post Office","fclName":"spot, building, farm","adminCodes1":{"ISO3166_2":"IL"},"countryName":"United States","fcodeName":"post office","adminName1":"Illinois","lat":"40.30559","fcode":"PO"},{"adminCode1":"IL","lng":"-87.94503","geonameId":4905636,"toponymName":"Penfield United Methodist Church","countryId":"6252001","fcl":"S","population":0,"countryCode":"US","name":"Penfield United Methodist Church","fclName":"spot, building, farm","adminCodes1":{"ISO3166_2":"IL"},"countryName":"United States","fcodeName":"church","adminName1":"Illinois","lat":"40.30476","fcode":"CH"},{"adminCode1":"PA","lng":"-78.57445","geonameId":8093161,"toponymName":"Penfield Volunteer Fire Department Station 41","countryId":"6252001","fcl":"S","population":0,"countryCode":"US","name":"Penfield Volunteer Fire Department Station 41","fclName":"spot, building, farm","adminCodes1":{"ISO3166_2":"PA"},"countryName":"United States","fcodeName":"building(s)","adminName1":"Pennsylvania","lat":"41.20931","fcode":"BLDG"},{"adminCode1":"PA","lng":"-78.57219","geonameId":11388281,"toponymName":"Penfield Post Office","countryId":"6252001","fcl":"S","population":0,"countryCode":"US","name":"Penfield Post Office","fclName":"spot, building, farm","adminCodes1":{"ISO3166_2":"PA"},"countryName":"United States","fcodeName":"post office","adminName1":"Pennsylvania","lat":"41.21006","fcode":"PO"},{"adminCode1":"OH","lng":"-82.10139","geonameId":8125136,"toponymName":"Conrad Farms","countryId":"6252001","fcl":"S","population":0,"countryCode":"US","name":"Conrad Farms","fclName":"spot, building, farm","adminCodes1":{"ISO3166_2":"OH"},"countryName":"United States","fcodeName":"farm","adminName1":"Ohio","lat":"41.19056","fcode":"FRM"},{"adminCode1":"NY","lng":"-77.47416","geonameId":5130903,"toponymName":"Penfield Church","countryId":"6252001","fcl":"S","population":0,"countryCode":"US","name":"Penfield Church","fclName":"spot, building, farm","adminCodes1":{"ISO3166_2":"NY"},"countryName":"United States","fcodeName":"church","adminName1":"New York","lat":"43.16728","fcode":"CH"},{"adminCode1":"NY","lng":"-77.44666","geonameId":5130904,"toponymName":"Penfield Country Club","countryId":"6252001","fcl":"S","population":0,"countryCode":"US","name":"Penfield Country Club","fclName":"spot, building, farm","adminCodes1":{"ISO3166_2":"NY"},"countryName":"United States","fcodeName":"resort","adminName1":"New York","lat":"43.1534","fcode":"RSRT"},{"adminCode1":"NY","lng":"-77.39832","geonameId":5116008,"toponymName":"East Penfield Church","countryId":"6252001","fcl":"S","population":0,"countryCode":"US","name":"East Penfield Church","fclName":"spot, building, farm","adminCodes1":{"ISO3166_2":"NY"},"countryName":"United States","fcodeName":"church","adminName1":"New York","lat":"43.13034","fcode":"CH"},{"adminCode1":"NY","lng":"-77.45535","geonameId":8108517,"toponymName":"Penfield Presbyterian Church Daycare Center","countryId":"6252001","fcl":"S","population":0,"countryCode":"US","name":"Penfield Presbyterian Church Daycare Center","fclName":"spot, building, farm","adminCodes1":{"ISO3166_2":"NY"},"countryName":"United States","fcodeName":"school","adminName1":"New York","lat":"43.14772","fcode":"SCH"},{"adminCode1":"NY","lng":"-77.47304","geonameId":8108518,"toponymName":"Penfield Village Nursery School and Kindergarten","countryId":"6252001","fcl":"S","population":0,"countryCode":"US","name":"Penfield Village Nursery School and Kindergarten","fclName":"spot, building, farm","adminCodes1":{"ISO3166_2":"NY"},"countryName":"United States","fcodeName":"school","adminName1":"New York","lat":"43.13158","fcode":"SCH"},{"adminCode1":"NY","lng":"-77.47123","geonameId":8108800,"toponymName":"Penfield Senior High School","countryId":"6252001","fcl":"S","population":0,"countryCode":"US","name":"Penfield Senior High School","fclName":"spot, building, farm","adminCodes1":{"ISO3166_2":"NY"},"countryName":"United States","fcodeName":"school","adminName1":"New York","lat":"43.1358","fcode":"SCH"},{"adminCode1":"NY","lng":"-77.46534","geonameId":8082497,"toponymName":"Penfield Community Center","countryId":"6252001","fcl":"S","population":0,"countryCode":"US","name":"Penfield Community Center","fclName":"spot, building, farm","adminCodes1":{"ISO3166_2":"NY"},"countryName":"United States","fcodeName":"building(s)","adminName1":"New York","lat":"43.13734","fcode":"BLDG"},{"adminCode1":"NY","lng":"-77.4653","geonameId":8084520,"toponymName":"Penfield Public Library","countryId":"6252001","fcl":"S","population":0,"countryCode":"US","name":"Penfield Public Library","fclName":"spot, building, farm","adminCodes1":{"ISO3166_2":"NY"},"countryName":"United States","fcodeName":"library","adminName1":"New York","lat":"43.1374","fcode":"LIBR"},{"adminCode1":"NY","lng":"-77.46535","geonameId":8084662,"toponymName":"Town of Penfield Courthouse","countryId":"6252001","fcl":"S","population":0,"countryCode":"US","name":"Town of Penfield Courthouse","fclName":"spot, building, farm","adminCodes1":{"ISO3166_2":"NY"},"countryName":"United States","fcodeName":"building(s)","adminName1":"New York","lat":"43.13735","fcode":"BLDG"},{"adminCode1":"NY","lng":"-77.44611","geonameId":8084777,"toponymName":"Penfield Town Hall","countryId":"6252001","fcl":"S","population":0,"countryCode":"US","name":"Penfield Town Hall","fclName":"spot, building, farm","adminCodes1":{"ISO3166_2":"NY"},"countryName":"United States","fcodeName":"building(s)","adminName1":"New York","lat":"43.16087","fcode":"BLDG"},{"adminCode1":"NY","lng":"-77.44068","geonameId":8085141,"toponymName":"Penfield Post Office","countryId":"6252001","fcl":"S","population":0,"countryCode":"US","name":"Penfield Post Office","fclName":"spot, building, farm","adminCodes1":{"ISO3166_2":"NY"},"countryName":"United States","fcodeName":"post office","adminName1":"New York","lat":"43.13346","fcode":"PO"},{"adminCode1":"NY","lng":"-77.48562","geonameId":8082029,"toponymName":"Penfield Place Nursing Home","countryId":"6252001","fcl":"S","population":0,"countryCode":"US","name":"Penfield Place Nursing Home","fclName":"spot, building, farm","adminCodes1":{"ISO3166_2":"NY"},"countryName":"United States","fcodeName":"building(s)","adminName1":"New York","lat":"43.13096","fcode":"BLDG"},{"adminCode1":"NY","lng":"-77.44814","geonameId":8494526,"toponymName":"Penfield Volunteer Emergency Ambulance Service","countryId":"6252001","fcl":"S","population":0,"countryCode":"US","name":"Penfield Volunteer Emergency Ambulance Service","fclName":"spot, building, farm","adminCodes1":{"ISO3166_2":"NY"},"countryName":"United States","fcodeName":"building(s)","adminName1":"New York","lat":"43.16698","fcode":"BLDG"},{"adminCode1":"NY","lng":"-77.40987","geonameId":8486992,"toponymName":"Penfield Fire Company Station 3","countryId":"6252001","fcl":"S","population":0,"countryCode":"US","name":"Penfield Fire Company Station 3","fclName":"spot, building, farm","adminCodes1":{"ISO3166_2":"NY"},"countryName":"United States","fcodeName":"building(s)","adminName1":"New York","lat":"43.13117","fcode":"BLDG"},{"adminCode1":"NY","lng":"-77.4752","geonameId":8487084,"toponymName":"Penfield Fire Company","countryId":"6252001","fcl":"S","population":0,"countryCode":"US","name":"Penfield Fire Company","fclName":"spot, building, farm","adminCodes1":{"ISO3166_2":"NY"},"countryName":"United States","fcodeName":"building(s)","adminName1":"New York","lat":"43.13127","fcode":"BLDG"},{"adminCode1":"NY","lng":"-77.49417","geonameId":8487294,"toponymName":"Penfield Fire Company Station 2","countryId":"6252001","fcl":"S","population":0,"countryCode":"US","name":"Penfield Fire Company Station 2","fclName":"spot, building, farm","adminCodes1":{"ISO3166_2":"NY"},"countryName":"United States","fcodeName":"building(s)","adminName1":"New York","lat":"43.15548","fcode":"BLDG"},{"adminCode1":"NY","lng":"-77.46517","geonameId":11394939,"toponymName":"New York State Police Troop E Zone 1 Penfield Station","countryId":"6252001","fcl":"S","population":0,"countryCode":"US","name":"New York State Police Troop E Zone 1 Penfield Station","fclName":"spot, building, farm","adminCodes1":{"ISO3166_2":"NY"},"countryName":"United States","fcodeName":"building(s)","adminName1":"New York","lat":"43.1374","fcode":"BLDG"},{"adminCode1":"SD","lng":"-102.11487","geonameId":5767852,"toponymName":"Penfield School","countryId":"6252001","fcl":"S","population":0,"countryCode":"US","name":"Penfield School","fclName":"spot, building, farm","adminCodes1":{"ISO3166_2":"SD"},"countryName":"United States","fcodeName":"school","adminName1":"South Dakota","lat":"45.84444","fcode":"SCH"},{"adminCode1":"NY","lng":"-76.54389","geonameId":7187366,"toponymName":"Penfield Library","countryId":"6252001","fcl":"S","population":0,"countryCode":"US","name":"Penfield Library","fclName":"spot, building, farm","adminCodes1":{"ISO3166_2":"NY"},"countryName":"United States","fcodeName":"library","adminName1":"New York","lat":"43.45389","fcode":"LIBR"},{"adminCode1":"NY","lng":"-73.78722","geonameId":7186700,"toponymName":"Penfield Hall","countryId":"6252001","fcl":"S","population":0,"countryCode":"US","name":"Penfield Hall","fclName":"spot, building, farm","adminCodes1":{"ISO3166_2":"NY"},"countryName":"United States","fcodeName":"building(s)","adminName1":"New York","lat":"43.09694","fcode":"BLDG"},{"adminCode1":"WV","lng":"-81.11205","geonameId":4817897,"toponymName":"Penfield Branch","countryId":"6252001","fcl":"H","population":0,"countryCode":"US","name":"Penfield Branch","fclName":"stream, lake, ...","adminCodes1":{"ISO3166_2":"WV"},"countryName":"United States","fcodeName":"stream","adminName1":"West Virginia","lat":"38.109","fcode":"STM"},{"adminCode1":"NY","lng":"-73.53606","geonameId":8084638,"toponymName":"Penfield Homestead Museum","countryId":"6252001","fcl":"S","population":0,"countryCode":"US","name":"Penfield Homestead Museum","fclName":"spot, building, farm","adminCodes1":{"ISO3166_2":"NY"},"countryName":"United States","fcodeName":"museum","adminName1":"New York","lat":"43.92265","fcode":"MUS"},{"adminCode1":"MI","lng":"-85.16222","geonameId":5006187,"toponymName":"Poorman School","countryId":"6252001","fcl":"S","population":0,"countryCode":"US","name":"Poorman School","fclName":"spot, building, farm","adminCodes1":{"ISO3166_2":"MI"},"countryName":"United States","fcodeName":"school","adminName1":"Michigan","lat":"42.40615","fcode":"SCH"},{"adminCode1":"MI","lng":"-85.12388","geonameId":5006381,"toponymName":"Poulsen School","countryId":"6252001","fcl":"S","population":0,"countryCode":"US","name":"Poulsen School","fclName":"spot, building, farm","adminCodes1":{"ISO3166_2":"MI"},"countryName":"United States","fcodeName":"school","adminName1":"Michigan","lat":"42.33837","fcode":"SCH"},{"adminCode1":"MI","lng":"-85.13332","geonameId":5009153,"toponymName":"School Number 2","countryId":"6252001","fcl":"S","population":0,"countryCode":"US","name":"School Number 2","fclName":"spot, building, farm","adminCodes1":{"ISO3166_2":"MI"},"countryName":"United States","fcodeName":"school","adminName1":"Michigan","lat":"42.34698","fcode":"SCH"},{"adminCode1":"MI","lng":"-85.16166","geonameId":4983847,"toponymName":"Agnew Corners","countryId":"6252001","fcl":"S","population":0,"countryCode":"US","name":"Agnew Corners","fclName":"spot, building, farm","adminCodes1":{"ISO3166_2":"MI"},"countryName":"United States","fcodeName":"","adminName1":"Michigan","lat":"42.35504"},{"adminCode1":"MI","lng":"-85.1336","geonameId":5014616,"toponymName":"West Pennfield Cemetery","countryId":"6252001","fcl":"S","population":0,"countryCode":"US","name":"West Pennfield Cemetery","fclName":"spot, building, farm","adminCodes1":{"ISO3166_2":"MI"},"countryName":"United States","fcodeName":"cemetery","adminName1":"Michigan","lat":"42.38836","fcode":"CMTY"},{"adminCode1":"MI","lng":"-85.15166","geonameId":4993513,"toponymName":"Fruin Corners","countryId":"6252001","fcl":"S","population":0,"countryCode":"US","name":"Fruin Corners","fclName":"spot, building, farm","adminCodes1":{"ISO3166_2":"MI"},"countryName":"United States","fcodeName":"","adminName1":"Michigan","lat":"42.35532"},{"adminCode1":"MI","lng":"-85.10416","geonameId":4986680,"toponymName":"Boughton School","countryId":"6252001","fcl":"S","population":0,"countryCode":"US","name":"Boughton School","fclName":"spot, building, farm","adminCodes1":{"ISO3166_2":"MI"},"countryName":"United States","fcodeName":"school","adminName1":"Michigan","lat":"42.40615","fcode":"SCH"},{"adminCode1":"MI","lng":"-85.14583","geonameId":5002459,"toponymName":"Moores Corners","countryId":"6252001","fcl":"S","population":0,"countryCode":"US","name":"Moores Corners","fclName":"spot, building, farm","adminCodes1":{"ISO3166_2":"MI"},"countryName":"United States","fcodeName":"","adminName1":"Michigan","lat":"42.36976"},{"adminCode1":"MI","lng":"-85.15361","geonameId":5003826,"toponymName":"North Pennfield School","countryId":"6252001","fcl":"S","population":0,"countryCode":"US","name":"North Pennfield School","fclName":"spot, building, farm","adminCodes1":{"ISO3166_2":"MI"},"countryName":"United States","fcodeName":"school","adminName1":"Michigan","lat":"42.40615","fcode":"SCH"},{"adminCode1":"MI","lng":"-85.13027","geonameId":5005289,"toponymName":"Pennfield School","countryId":"6252001","fcl":"S","population":0,"countryCode":"US","name":"Pennfield School","fclName":"spot, building, farm","adminCodes1":{"ISO3166_2":"MI"},"countryName":"United States","fcodeName":"school","adminName1":"Michigan","lat":"42.37115","fcode":"SCH"},{"adminCode1":"MI","lng":"-85.10221","geonameId":5005290,"toponymName":"Pennfield School","countryId":"6252001","fcl":"S","population":0,"countryCode":"US","name":"Pennfield School","fclName":"spot, building, farm","adminCodes1":{"ISO3166_2":"MI"},"countryName":"United States","fcodeName":"school","adminName1":"Michigan","lat":"42.37921","fcode":"SCH"},{"adminCode1":"MI","lng":"-85.08249","geonameId":4989205,"toponymName":"Cobblestone School","countryId":"6252001","fcl":"S","population":0,"countryCode":"US","name":"Cobblestone School","fclName":"spot, building, farm","adminCodes1":{"ISO3166_2":"MI"},"countryName":"United States","fcodeName":"school","adminName1":"Michigan","lat":"42.34837","fcode":"SCH"},{"adminCode1":"MI","lng":"-85.17305","geonameId":5001089,"toponymName":"Marywood Country Club","countryId":"6252001","fcl":"S","population":0,"countryCode":"US","name":"Marywood Country Club","fclName":"spot, building, farm","adminCodes1":{"ISO3166_2":"MI"},"countryName":"United States","fcodeName":"resort","adminName1":"Michigan","lat":"42.38254","fcode":"RSRT"},{"adminCode1":"MI","lng":"-85.14619","geonameId":8087302,"toponymName":"Pennfield Township Fire Department Station 1","countryId":"6252001","fcl":"S","population":0,"countryCode":"US","name":"Pennfield Township Fire Department Station 1","fclName":"spot, building, farm","adminCodes1":{"ISO3166_2":"MI"},"countryName":"United States","fcodeName":"building(s)","adminName1":"Michigan","lat":"42.36647","fcode":"BLDG"},{"adminCode1":"MI","lng":"-85.10737","geonameId":8087495,"toponymName":"Pennfield Township Fire Department Station 2","countryId":"6252001","fcl":"S","population":0,"countryCode":"US","name":"Pennfield Township Fire Department Station 2","fclName":"spot, building, farm","adminCodes1":{"ISO3166_2":"MI"},"countryName":"United States","fcodeName":"building(s)","adminName1":"Michigan","lat":"42.36339","fcode":"BLDG"},{"adminCode1":"MI","lng":"-85.12194","geonameId":7728424,"toponymName":"Harmony Missionary Baptist Church","countryId":"6252001","fcl":"S","population":0,"countryCode":"US","name":"Harmony Missionary Baptist Church","fclName":"spot, building, farm","adminCodes1":{"ISO3166_2":"MI"},"countryName":"United States","fcodeName":"church","adminName1":"Michigan","lat":"42.34056","fcode":"CH"},{"adminCode1":"MI","lng":"-85.15278","geonameId":7728427,"toponymName":"Riverwalk Community Church","countryId":"6252001","fcl":"S","population":0,"countryCode":"US","name":"Riverwalk Community Church","fclName":"spot, building, farm","adminCodes1":{"ISO3166_2":"MI"},"countryName":"United States","fcodeName":"church","adminName1":"Michigan","lat":"42.33694","fcode":"CH"},{"adminCode1":"MI","lng":"-85.15472","geonameId":7728487,"toponymName":"Calvary Baptist Church","countryId":"6252001","fcl":"S","population":0,"countryCode":"US","name":"Calvary Baptist Church","fclName":"spot, building, farm","adminCodes1":{"ISO3166_2":"MI"},"countryName":"United States","fcodeName":"church","adminName1":"Michigan","lat":"42.34778","fcode":"CH"},{"adminCode1":"MI","lng":"-85.15278","geonameId":7728488,"toponymName":"Sanctuary of Praise Church of God","countryId":"6252001","fcl":"S","population":0,"countryCode":"US","name":"Sanctuary of Praise Church of God","fclName":"spot, building, farm","adminCodes1":{"ISO3166_2":"MI"},"countryName":"United States","fcodeName":"church","adminName1":"Michigan","lat":"42.35583","fcode":"CH"},{"adminCode1":"MI","lng":"-85.15278","geonameId":7728504,"toponymName":"Battle Creek Christian School","countryId":"6252001","fcl":"S","population":0,"countryCode":"US","name":"Battle Creek Christian School","fclName":"spot, building, farm","adminCodes1":{"ISO3166_2":"MI"},"countryName":"United States","fcodeName":"school","adminName1":"Michigan","lat":"42.33694","fcode":"SCH"}]}
