{"totalResultsCount":7,"geonames":[{"adminCode1":"OK","lng":"-94.83078","geonameId":4547954,"toponymName":"Picher (historical)","countryId":"6252001","fcl":"P","population":20,"countryCode":"US","name":"Picher (historical)","fclName":"city, village,...","adminCodes1":{"ISO3166_2":"OK"},"countryName":"United States","fcodeName":"abandoned populated place","adminName1":"Oklahoma","lat":"36.98701","fcode":"PPLQ"},{"adminCode1":"OK","lng":"-94.83246","geonameId":7174086,"toponymName":"City of Picher (historical)","countryId":"6252001","fcl":"A","population":20,"countryCode":"US","name":"City of Picher (historical)","fclName":"country, state, region,...","adminCodes1":{"ISO3166_2":"OK"},"countryName":"United States","fcodeName":"administrative division","adminName1":"Oklahoma","lat":"36.98349","fcode":"ADMD"},{"adminCode1":"CA","lng":"-122.68221","geonameId":5325243,"toponymName":"Audubon Canyon","countryId":"6252001","fcl":"T","population":0,"countryCode":"US","name":"Audubon Canyon","fclName":"mountain,hill,rock,... ","adminCodes1":{"ISO3166_2":"CA"},"countryName":"United States","fcodeName":"valley","adminName1":"California","lat":"37.92937","fcode":"VAL"},{"adminCode1":"NV","lng":"-118.77044","geonameId":5703527,"toponymName":"Eagle Picher Mine","countryId":"6252001","fcl":"S","population":0,"countryCode":"US","name":"Eagle Picher Mine","fclName":"spot, building, farm","adminCodes1":{"ISO3166_2":"NV"},"countryName":"United States","fcodeName":"mine(s)","adminName1":"Nevada","lat":"40.26935","fcode":"MN"},{"adminCode1":"NV","lng":"-119.48434","geonameId":5503395,"toponymName":"Eagle-Picher Industries Inc Mill","countryId":"6252001","fcl":"S","population":0,"countryCode":"US","name":"Eagle-Picher Industries Inc Mill","fclName":"spot, building, farm","adminCodes1":{"ISO3166_2":"NV"},"countryName":"United States","fcodeName":"","adminName1":"Nevada","lat":"39.56186"},{"adminCode1":"OK","lng":"-94.83154","geonameId":8099456,"toponymName":"Picher Fire and Emergency Medical Services (historical)","countryId":"6252001","fcl":"S","population":0,"countryCode":"US","name":"Picher Fire and Emergency Medical Services (historical)","fclName":"spot, building, farm","adminCodes1":{"ISO3166_2":"OK"},"countryName":"United States","fcodeName":"building(s)","adminName1":"Oklahoma","lat":"36.98368","fcode":"BLDG"},{"adminCode1":"OK","lng":"-94.83174","geonameId":11380654,"toponymName":"Picher City Police Department","countryId":"6252001","fcl":"S","population":0,"countryCode":"US","name":"Picher City Police Department","fclName":"spot, building, farm","adminCodes1":{"ISO3166_2":"OK"},"countryName":"United States","fcodeName":"building(s)","adminName1":"Oklahoma","lat":"36.98352","fcode":"BLDG"}]}
