{"totalResultsCount":4402,"geonames":[{"adminCode1":"NV","lng":"-114.88863","geonameId":5503694,"toponymName":"Ely","countryId":"6252001","fcl":"P","population":4134,"countryCode":"US","name":"Ely","fclName":"city, village,...","adminCodes1":{"ISO3166_2":"NV"},"countryName":"United States","fcodeName":"seat of a second-order administrative division","adminName1":"Nevada","lat":"39.24744","fcode":"PPLA2"},{"adminCode1":"NV","lng":"-114.90159","geonameId":5514990,"toponymName":"White Pine County","countryId":"6252001","fcl":"A","population":10030,"countryCode":"US","name":"White Pine","fclName":"country, state, region,...","adminCodes1":{"ISO3166_2":"NV"},"countryName":"United States","fcodeName":"second-order administrative division","adminName1":"Nevada","lat":"39.44216","fcode":"ADM2"},{"adminCode1":"NV","lng":"-114.84168","geonameId":5503695,"toponymName":"Ely Airport-Yelland Field","countryId":"6252001","fcl":"S","population":0,"countryCode":"US","name":"Ely Airport-Yelland Field","fclName":"spot, building, farm","adminCodes1":{"ISO3166_2":"NV"},"countryName":"United States","fcodeName":"airport","adminName1":"Nevada","lat":"39.29938","fcode":"AIRP"},{"adminCode1":"NV","lng":"-115.48691","geonameId":7309414,"toponymName":"White Pine Range Wilderness","countryId":"6252001","fcl":"L","population":0,"countryCode":"US","name":"White Pine Range Wilderness","fclName":"parks,area, ...","adminCodes1":{"ISO3166_2":"NV"},"countryName":"United States","fcodeName":"reserve","adminName1":"Nevada","lat":"39.07038","fcode":"RES"},{"adminCode1":"NV","lng":"-115.33997","geonameId":7309415,"toponymName":"Red Mountain Wilderness","countryId":"6252001","fcl":"L","population":0,"countryCode":"US","name":"Red Mountain Wilderness","fclName":"parks,area, ...","adminCodes1":{"ISO3166_2":"NV"},"countryName":"United States","fcodeName":"reserve","adminName1":"Nevada","lat":"38.89852","fcode":"RES"},{"adminCode1":"NV","lng":"-115.32211","geonameId":7309416,"toponymName":"Bald Mountain Wilderness","countryId":"6252001","fcl":"L","population":0,"countryCode":"US","name":"Bald Mountain Wilderness","fclName":"parks,area, ...","adminCodes1":{"ISO3166_2":"NV"},"countryName":"United States","fcodeName":"reserve","adminName1":"Nevada","lat":"39.07731","fcode":"RES"},{"adminCode1":"NV","lng":"-114.74556","geonameId":7309409,"toponymName":"Mount Grafton Wilderness","countryId":"6252001","fcl":"L","population":0,"countryCode":"US","name":"Mount Grafton Wilderness","fclName":"parks,area, ...","adminCodes1":{"ISO3166_2":"NV"},"countryName":"United States","fcodeName":"reserve","adminName1":"Nevada","lat":"38.73306","fcode":"RES"},{"adminCode1":"NV","lng":"-114.24583","geonameId":7309410,"toponymName":"Highland Ridge Wilderness","countryId":"6252001","fcl":"L","population":0,"countryCode":"US","name":"Highland Ridge Wilderness","fclName":"parks,area, ...","adminCodes1":{"ISO3166_2":"NV"},"countryName":"United States","fcodeName":"reserve","adminName1":"Nevada","lat":"38.78639","fcode":"RES"},{"adminCode1":"NV","lng":"-114.15567","geonameId":7309411,"toponymName":"Government Peak Wilderness","countryId":"6252001","fcl":"L","population":0,"countryCode":"US","name":"Government Peak Wilderness","fclName":"parks,area, ...","adminCodes1":{"ISO3166_2":"NV"},"countryName":"United States","fcodeName":"reserve","adminName1":"Nevada","lat":"39.52397","fcode":"RES"},{"adminCode1":"NV","lng":"-114.96231","geonameId":7309413,"toponymName":"Bristlecone Wilderness","countryId":"6252001","fcl":"L","population":0,"countryCode":"US","name":"Bristlecone Wilderness","fclName":"parks,area, ...","adminCodes1":{"ISO3166_2":"NV"},"countryName":"United States","fcodeName":"reserve","adminName1":"Nevada","lat":"39.43805","fcode":"RES"},{"adminCode1":"NV","lng":"-114.59701","geonameId":7309417,"toponymName":"Becky Peak Wilderness","countryId":"6252001","fcl":"L","population":0,"countryCode":"US","name":"Becky Peak Wilderness","fclName":"parks,area, ...","adminCodes1":{"ISO3166_2":"NV"},"countryName":"United States","fcodeName":"reserve","adminName1":"Nevada","lat":"39.95923","fcode":"RES"},{"adminCode1":"NV","lng":"-114.86343","geonameId":7309418,"toponymName":"Goshute Canyon Wilderness","countryId":"6252001","fcl":"L","population":0,"countryCode":"US","name":"Goshute Canyon Wilderness","fclName":"parks,area, ...","adminCodes1":{"ISO3166_2":"NV"},"countryName":"United States","fcodeName":"reserve","adminName1":"Nevada","lat":"40.02262","fcode":"RES"},{"adminCode1":"NV","lng":"-115.3331","geonameId":7309419,"toponymName":"Shellback Wilderness","countryId":"6252001","fcl":"L","population":0,"countryCode":"US","name":"Shellback Wilderness","fclName":"parks,area, ...","adminCodes1":{"ISO3166_2":"NV"},"countryName":"United States","fcodeName":"reserve","adminName1":"Nevada","lat":"39.23278","fcode":"RES"},{"adminCode1":"NV","lng":"-114.17616","geonameId":5508812,"toponymName":"Mount Moriah Wilderness","countryId":"6252001","fcl":"L","population":0,"countryCode":"US","name":"Mount Moriah Wilderness","fclName":"parks,area, ...","adminCodes1":{"ISO3166_2":"NV"},"countryName":"United States","fcodeName":"reserve","adminName1":"Nevada","lat":"39.27607","fcode":"RES"},{"adminCode1":"NV","lng":"-114.31866","geonameId":5513032,"toponymName":"Stella Lake","countryId":"6252001","fcl":"H","population":0,"countryCode":"US","name":"Stella Lake","fclName":"stream, lake, ...","adminCodes1":{"ISO3166_2":"NV"},"countryName":"United States","fcodeName":"lake","adminName1":"Nevada","lat":"39.00532","fcode":"LK"},{"adminCode1":"NV","lng":"-114.12277","geonameId":5499621,"toponymName":"Baker","countryId":"6252001","fcl":"P","population":68,"countryCode":"US","name":"Baker","fclName":"city, village,...","adminCodes1":{"ISO3166_2":"NV"},"countryName":"United States","fcodeName":"populated place","adminName1":"Nevada","lat":"39.01328","fcode":"PPL"},{"adminCode1":"NV","lng":"-114.31115","geonameId":5513581,"toponymName":"Teresa Lake","countryId":"6252001","fcl":"H","population":0,"countryCode":"US","name":"Teresa Lake","fclName":"stream, lake, ...","adminCodes1":{"ISO3166_2":"NV"},"countryName":"United States","fcodeName":"lake","adminName1":"Nevada","lat":"39.00317","fcode":"LK"},{"adminCode1":"NV","lng":"-114.72223","geonameId":5501479,"toponymName":"Cave Lake State Park","countryId":"6252001","fcl":"L","population":0,"countryCode":"US","name":"Cave Lake State Park","fclName":"parks,area, ...","adminCodes1":{"ISO3166_2":"NV"},"countryName":"United States","fcodeName":"park","adminName1":"Nevada","lat":"39.18966","fcode":"PRK"},{"adminCode1":"NV","lng":"-114.25797","geonameId":5505038,"toponymName":"Great Basin National Park","countryId":"6252001","fcl":"L","population":0,"countryCode":"US","name":"Great Basin National Park","fclName":"parks,area, ...","adminCodes1":{"ISO3166_2":"NV"},"countryName":"United States","fcodeName":"park","adminName1":"Nevada","lat":"38.9461","fcode":"PRK"},{"adminCode1":"NV","lng":"-114.98919","geonameId":5511520,"toponymName":"Ruth","countryId":"6252001","fcl":"P","population":440,"countryCode":"US","name":"Ruth","fclName":"city, village,...","adminCodes1":{"ISO3166_2":"NV"},"countryName":"United States","fcodeName":"populated place","adminName1":"Nevada","lat":"39.27827","fcode":"PPL"},{"adminCode1":"NV","lng":"-115.00779","geonameId":5507658,"toponymName":"Lund","countryId":"6252001","fcl":"P","population":282,"countryCode":"US","name":"Lund","fclName":"city, village,...","adminCodes1":{"ISO3166_2":"NV"},"countryName":"United States","fcodeName":"populated place","adminName1":"Nevada","lat":"38.85661","fcode":"PPL"},{"adminCode1":"NV","lng":"-114.77863","geonameId":5508030,"toponymName":"McGill","countryId":"6252001","fcl":"P","population":1148,"countryCode":"US","name":"McGill","fclName":"city, village,...","adminCodes1":{"ISO3166_2":"NV"},"countryName":"United States","fcodeName":"populated place","adminName1":"Nevada","lat":"39.40494","fcode":"PPL"},{"adminCode1":"GA","lng":"-84.8541","geonameId":4216049,"toponymName":"Pine Mountain","countryId":"6252001","fcl":"P","population":1358,"countryCode":"US","name":"Pine Mountain","fclName":"city, village,...","adminCodes1":{"ISO3166_2":"GA"},"countryName":"United States","fcodeName":"populated place","adminName1":"Georgia","lat":"32.86485","fcode":"PPL"},{"adminCode1":"NV","lng":"-114.64973","geonameId":5511919,"toponymName":"Schell Creek Range","countryId":"6252001","fcl":"T","population":0,"countryCode":"US","name":"Schell Creek Range","fclName":"mountain,hill,rock,... ","adminCodes1":{"ISO3166_2":"NV"},"countryName":"United States","fcodeName":"mountains","adminName1":"Nevada","lat":"39.15883","fcode":"MTS"},{"adminCode1":"NV","lng":"-114.31333","geonameId":5514910,"toponymName":"Wheeler Peak","countryId":"6252001","fcl":"T","population":0,"countryCode":"US","name":"Wheeler Peak","fclName":"mountain,hill,rock,... ","adminCodes1":{"ISO3166_2":"NV"},"countryName":"United States","fcodeName":"mountain","adminName1":"Nevada","lat":"38.98606","fcode":"MT"},{"adminCode1":"NV","lng":"-115.42447","geonameId":5502614,"toponymName":"Currant Mountain","countryId":"6252001","fcl":"T","population":0,"countryCode":"US","name":"Currant Mountain","fclName":"mountain,hill,rock,... ","adminCodes1":{"ISO3166_2":"NV"},"countryName":"United States","fcodeName":"mountain","adminName1":"Nevada","lat":"38.90994","fcode":"MT"},{"adminCode1":"NV","lng":"-114.92113","geonameId":5514570,"toponymName":"Ward Mountain","countryId":"6252001","fcl":"T","population":0,"countryCode":"US","name":"Ward Mountain","fclName":"mountain,hill,rock,... ","adminCodes1":{"ISO3166_2":"NV"},"countryName":"United States","fcodeName":"mountain","adminName1":"Nevada","lat":"39.10022","fcode":"MT"},{"adminCode1":"NV","lng":"-115.02919","geonameId":5503584,"toponymName":"Egan Range","countryId":"6252001","fcl":"T","population":0,"countryCode":"US","name":"Egan Range","fclName":"mountain,hill,rock,... ","adminCodes1":{"ISO3166_2":"NV"},"countryName":"United States","fcodeName":"mountains","adminName1":"Nevada","lat":"39.4391","fcode":"MTS"},{"adminCode1":"NV","lng":"-114.84779","geonameId":5514564,"toponymName":"Ward Charcoal Ovens State Historic Park","countryId":"6252001","fcl":"L","population":0,"countryCode":"US","name":"Ward Charcoal Ovens State Historic Park","fclName":"parks,area, ...","adminCodes1":{"ISO3166_2":"NV"},"countryName":"United States","fcodeName":"park","adminName1":"Nevada","lat":"39.03494","fcode":"PRK"},{"adminCode1":"NV","lng":"-114.88308","geonameId":5702399,"toponymName":"Cherry Creek Range","countryId":"6252001","fcl":"T","population":0,"countryCode":"US","name":"Cherry Creek Range","fclName":"mountain,hill,rock,... ","adminCodes1":{"ISO3166_2":"NV"},"countryName":"United States","fcodeName":"mountains","adminName1":"Nevada","lat":"40.05965","fcode":"MTS"},{"adminCode1":"NV","lng":"-114.19639","geonameId":5508673,"toponymName":"Mount Moriah","countryId":"6252001","fcl":"T","population":0,"countryCode":"US","name":"Mount Moriah","fclName":"mountain,hill,rock,... ","adminCodes1":{"ISO3166_2":"NV"},"countryName":"United States","fcodeName":"mountain","adminName1":"Nevada","lat":"39.27328","fcode":"MT"},{"adminCode1":"NV","lng":"-114.59946","geonameId":5509430,"toponymName":"North Schell Peak","countryId":"6252001","fcl":"T","population":0,"countryCode":"US","name":"North Schell Peak","fclName":"mountain,hill,rock,... ","adminCodes1":{"ISO3166_2":"NV"},"countryName":"United States","fcodeName":"mountain","adminName1":"Nevada","lat":"39.41327","fcode":"MT"},{"adminCode1":"NV","lng":"-115.80561","geonameId":5502985,"toponymName":"Diamond Mountains","countryId":"6252001","fcl":"T","population":0,"countryCode":"US","name":"Diamond Mountains","fclName":"mountain,hill,rock,... ","adminCodes1":{"ISO3166_2":"NV"},"countryName":"United States","fcodeName":"mountains","adminName1":"Nevada","lat":"39.88882","fcode":"MTS"},{"adminCode1":"NV","lng":"-115.81866","geonameId":5502987,"toponymName":"Diamond Peak","countryId":"6252001","fcl":"T","population":0,"countryCode":"US","name":"Diamond Peak","fclName":"mountain,hill,rock,... ","adminCodes1":{"ISO3166_2":"NV"},"countryName":"United States","fcodeName":"mountain","adminName1":"Nevada","lat":"39.58521","fcode":"MT"},{"adminCode1":"NV","lng":"-114.74251","geonameId":5504925,"toponymName":"Mount Grafton","countryId":"6252001","fcl":"T","population":0,"countryCode":"US","name":"Mount Grafton","fclName":"mountain,hill,rock,... ","adminCodes1":{"ISO3166_2":"NV"},"countryName":"United States","fcodeName":"mountain","adminName1":"Nevada","lat":"38.69217","fcode":"MT"},{"adminCode1":"NV","lng":"-115.48004","geonameId":5513906,"toponymName":"Treasure Hill","countryId":"6252001","fcl":"T","population":0,"countryCode":"US","name":"Treasure Hill","fclName":"mountain,hill,rock,... ","adminCodes1":{"ISO3166_2":"NV"},"countryName":"United States","fcodeName":"mountain","adminName1":"Nevada","lat":"39.22549","fcode":"MT"},{"adminCode1":"NV","lng":"-114.30916","geonameId":5514633,"toponymName":"Mount Washington","countryId":"6252001","fcl":"T","population":0,"countryCode":"US","name":"Mount Washington","fclName":"mountain,hill,rock,... ","adminCodes1":{"ISO3166_2":"NV"},"countryName":"United States","fcodeName":"mountain","adminName1":"Nevada","lat":"38.91495","fcode":"MT"},{"adminCode1":"NV","lng":"-114.28418","geonameId":5701119,"toponymName":"Antelope Valley","countryId":"6252001","fcl":"T","population":0,"countryCode":"US","name":"Antelope Valley","fclName":"mountain,hill,rock,... ","adminCodes1":{"ISO3166_2":"NV"},"countryName":"United States","fcodeName":"valley","adminName1":"Nevada","lat":"40.09993","fcode":"VAL"},{"adminCode1":"NV","lng":"-115.67199","geonameId":5509234,"toponymName":"Newark Valley","countryId":"6252001","fcl":"T","population":0,"countryCode":"US","name":"Newark Valley","fclName":"mountain,hill,rock,... ","adminCodes1":{"ISO3166_2":"NV"},"countryName":"United States","fcodeName":"valley","adminName1":"Nevada","lat":"39.57049","fcode":"VAL"},{"adminCode1":"NV","lng":"-115.72977","geonameId":5509246,"toponymName":"Newark Lake","countryId":"6252001","fcl":"T","population":0,"countryCode":"US","name":"Newark Lake","fclName":"mountain,hill,rock,... ","adminCodes1":{"ISO3166_2":"NV"},"countryName":"United States","fcodeName":"plain(s)","adminName1":"Nevada","lat":"39.68382","fcode":"PLN"},{"adminCode1":"NV","lng":"-114.38556","geonameId":5509754,"toponymName":"Osceola","countryId":"6252001","fcl":"P","population":0,"countryCode":"US","name":"Osceola","fclName":"city, village,...","adminCodes1":{"ISO3166_2":"NV"},"countryName":"United States","fcodeName":"populated place","adminName1":"Nevada","lat":"39.0905","fcode":"PPL"},{"adminCode1":"NV","lng":"-115.06057","geonameId":5510575,"toponymName":"Preston","countryId":"6252001","fcl":"P","population":78,"countryCode":"US","name":"Preston","fclName":"city, village,...","adminCodes1":{"ISO3166_2":"NV"},"countryName":"United States","fcodeName":"populated place","adminName1":"Nevada","lat":"38.91355","fcode":"PPL"},{"adminCode1":"NV","lng":"-115.01169","geonameId":5511180,"toponymName":"Riepetown","countryId":"6252001","fcl":"P","population":0,"countryCode":"US","name":"Riepetown","fclName":"city, village,...","adminCodes1":{"ISO3166_2":"NV"},"countryName":"United States","fcodeName":"populated place","adminName1":"Nevada","lat":"39.26438","fcode":"PPL"},{"adminCode1":"NV","lng":"-114.40778","geonameId":5512194,"toponymName":"Shoshone","countryId":"6252001","fcl":"P","population":0,"countryCode":"US","name":"Shoshone","fclName":"city, village,...","adminCodes1":{"ISO3166_2":"NV"},"countryName":"United States","fcodeName":"populated place","adminName1":"Nevada","lat":"38.84856","fcode":"PPL"},{"adminCode1":"NV","lng":"-114.79534","geonameId":5513047,"toponymName":"Steptoe Waterhole","countryId":"6252001","fcl":"H","population":0,"countryCode":"US","name":"Steptoe Waterhole","fclName":"stream, lake, ...","adminCodes1":{"ISO3166_2":"NV"},"countryName":"United States","fcodeName":"lake","adminName1":"Nevada","lat":"39.87616","fcode":"LK"},{"adminCode1":"NV","lng":"-114.40085","geonameId":5499314,"toponymName":"Antelope Range","countryId":"6252001","fcl":"T","population":0,"countryCode":"US","name":"Antelope Range","fclName":"mountain,hill,rock,... ","adminCodes1":{"ISO3166_2":"NV"},"countryName":"United States","fcodeName":"mountains","adminName1":"Nevada","lat":"39.96494","fcode":"MTS"},{"adminCode1":"NV","lng":"-114.30214","geonameId":5500753,"toponymName":"Brown Lake","countryId":"6252001","fcl":"H","population":0,"countryCode":"US","name":"Brown Lake","fclName":"stream, lake, ...","adminCodes1":{"ISO3166_2":"NV"},"countryName":"United States","fcodeName":"lake","adminName1":"Nevada","lat":"39.00369","fcode":"LK"},{"adminCode1":"NV","lng":"-115.27309","geonameId":5501022,"toponymName":"Butte Mountains","countryId":"6252001","fcl":"T","population":0,"countryCode":"US","name":"Butte Mountains","fclName":"mountain,hill,rock,... ","adminCodes1":{"ISO3166_2":"NV"},"countryName":"United States","fcodeName":"mountains","adminName1":"Nevada","lat":"39.71382","fcode":"MTS"},{"adminCode1":"NV","lng":"-115.57032","geonameId":5501444,"toponymName":"Cathedral Canyon","countryId":"6252001","fcl":"T","population":0,"countryCode":"US","name":"Cathedral Canyon","fclName":"mountain,hill,rock,... ","adminCodes1":{"ISO3166_2":"NV"},"countryName":"United States","fcodeName":"valley","adminName1":"Nevada","lat":"39.14382","fcode":"VAL"},{"adminCode1":"NV","lng":"-114.88586","geonameId":5501654,"toponymName":"Cherry Creek","countryId":"6252001","fcl":"P","population":0,"countryCode":"US","name":"Cherry Creek","fclName":"city, village,...","adminCodes1":{"ISO3166_2":"NV"},"countryName":"United States","fcodeName":"populated place","adminName1":"Nevada","lat":"39.90049","fcode":"PPL"},{"adminCode1":"NV","lng":"-114.75668","geonameId":5503274,"toponymName":"Duck Creek Range","countryId":"6252001","fcl":"T","population":0,"countryCode":"US","name":"Duck Creek Range","fclName":"mountain,hill,rock,... ","adminCodes1":{"ISO3166_2":"NV"},"countryName":"United States","fcodeName":"mountains","adminName1":"Nevada","lat":"39.32744","fcode":"MTS"},{"adminCode1":"NV","lng":"-114.6959","geonameId":5504347,"toponymName":"French Lake","countryId":"6252001","fcl":"H","population":0,"countryCode":"US","name":"French Lake","fclName":"stream, lake, ...","adminCodes1":{"ISO3166_2":"NV"},"countryName":"United States","fcodeName":"lake","adminName1":"Nevada","lat":"39.26485","fcode":"LK"},{"adminCode1":"NV","lng":"-115.48643","geonameId":5505230,"toponymName":"Hamilton","countryId":"6252001","fcl":"P","population":0,"countryCode":"US","name":"Hamilton","fclName":"city, village,...","adminCodes1":{"ISO3166_2":"NV"},"countryName":"United States","fcodeName":"populated place","adminName1":"Nevada","lat":"39.25299","fcode":"PPL"},{"adminCode1":"NV","lng":"-115.22197","geonameId":5506226,"toponymName":"Jakes Valley","countryId":"6252001","fcl":"T","population":0,"countryCode":"US","name":"Jakes Valley","fclName":"mountain,hill,rock,... ","adminCodes1":{"ISO3166_2":"NV"},"countryName":"United States","fcodeName":"valley","adminName1":"Nevada","lat":"39.32549","fcode":"VAL"},{"adminCode1":"NV","lng":"-114.1925","geonameId":5506661,"toponymName":"Kern Mountains","countryId":"6252001","fcl":"T","population":0,"countryCode":"US","name":"Kern Mountains","fclName":"mountain,hill,rock,... ","adminCodes1":{"ISO3166_2":"NV"},"countryName":"United States","fcodeName":"mountains","adminName1":"Nevada","lat":"39.69855","fcode":"MTS"},{"adminCode1":"NV","lng":"-115.02252","geonameId":5506710,"toponymName":"Kimberly","countryId":"6252001","fcl":"P","population":0,"countryCode":"US","name":"Kimberly","fclName":"city, village,...","adminCodes1":{"ISO3166_2":"NV"},"countryName":"United States","fcodeName":"populated place","adminName1":"Nevada","lat":"39.26327","fcode":"PPL"},{"adminCode1":"NV","lng":"-114.93141","geonameId":5506949,"toponymName":"Lane City","countryId":"6252001","fcl":"P","population":0,"countryCode":"US","name":"Lane City","fclName":"city, village,...","adminCodes1":{"ISO3166_2":"NV"},"countryName":"United States","fcodeName":"populated place","adminName1":"Nevada","lat":"39.26049","fcode":"PPL"},{"adminCode1":"NV","lng":"-114.58195","geonameId":5507746,"toponymName":"Majors Place","countryId":"6252001","fcl":"P","population":0,"countryCode":"US","name":"Majors Place","fclName":"city, village,...","adminCodes1":{"ISO3166_2":"NV"},"countryName":"United States","fcodeName":"populated place","adminName1":"Nevada","lat":"39.02494","fcode":"PPL"},{"adminCode1":"NV","lng":"-114.34973","geonameId":5513732,"toponymName":"Tippett","countryId":"6252001","fcl":"P","population":0,"countryCode":"US","name":"Tippett","fclName":"city, village,...","adminCodes1":{"ISO3166_2":"NV"},"countryName":"United States","fcodeName":"populated place","adminName1":"Nevada","lat":"39.86855","fcode":"PPL"},{"adminCode1":"NV","lng":"-115.20919","geonameId":5515018,"toponymName":"White River Range","countryId":"6252001","fcl":"T","population":0,"countryCode":"US","name":"White River Range","fclName":"mountain,hill,rock,... ","adminCodes1":{"ISO3166_2":"NV"},"countryName":"United States","fcodeName":"mountains","adminName1":"Nevada","lat":"38.83327","fcode":"MTS"},{"adminCode1":"NV","lng":"-114.42667","geonameId":5515483,"toponymName":"Yelland Dry Lake","countryId":"6252001","fcl":"T","population":0,"countryCode":"US","name":"Yelland Dry Lake","fclName":"mountain,hill,rock,... ","adminCodes1":{"ISO3166_2":"NV"},"countryName":"United States","fcodeName":"plain(s)","adminName1":"Nevada","lat":"39.34244","fcode":"PLN"},{"adminCode1":"NV","lng":"-115.69643","geonameId":5285842,"toponymName":"Pancake Summit","countryId":"6252001","fcl":"T","population":0,"countryCode":"US","name":"Pancake Summit","fclName":"mountain,hill,rock,... ","adminCodes1":{"ISO3166_2":"NV"},"countryName":"United States","fcodeName":"gap","adminName1":"Nevada","lat":"39.41021","fcode":"GAP"},{"adminCode1":"NV","lng":"-114.29771","geonameId":5285848,"toponymName":"Johnson Lake","countryId":"6252001","fcl":"H","population":0,"countryCode":"US","name":"Johnson Lake","fclName":"stream, lake, ...","adminCodes1":{"ISO3166_2":"NV"},"countryName":"United States","fcodeName":"lake","adminName1":"Nevada","lat":"38.94361","fcode":"LK"},{"adminCode1":"NV","lng":"-115.22781","geonameId":5285892,"toponymName":"Waldy Pond","countryId":"6252001","fcl":"H","population":0,"countryCode":"US","name":"Waldy Pond","fclName":"stream, lake, ...","adminCodes1":{"ISO3166_2":"NV"},"countryName":"United States","fcodeName":"lake","adminName1":"Nevada","lat":"39.32271","fcode":"LK"},{"adminCode1":"NV","lng":"-115.39308","geonameId":5515001,"toponymName":"White Pine Range","countryId":"6252001","fcl":"T","population":0,"countryCode":"US","name":"White Pine Range","fclName":"mountain,hill,rock,... ","adminCodes1":{"ISO3166_2":"NV"},"countryName":"United States","fcodeName":"mountains","adminName1":"Nevada","lat":"38.91244","fcode":"MTS"},{"adminCode1":"UT","lng":"-113.42367","geonameId":5544922,"toponymName":"Pine Valley Mountain Wilderness","countryId":"6252001","fcl":"L","population":0,"countryCode":"US","name":"Pine Valley Mountain Wilderness","fclName":"parks,area, ...","adminCodes1":{"ISO3166_2":"UT"},"countryName":"United States","fcodeName":"reserve","adminName1":"Utah","lat":"37.38646","fcode":"RES"},{"adminCode1":"GA","lng":"-84.82326","geonameId":4216068,"toponymName":"Pine Mountain Valley","countryId":"6252001","fcl":"P","population":0,"countryCode":"US","name":"Pine Mountain Valley","fclName":"city, village,...","adminCodes1":{"ISO3166_2":"GA"},"countryName":"United States","fcodeName":"populated place","adminName1":"Georgia","lat":"32.79874","fcode":"PPL"},{"adminCode1":"KY","lng":"-83.71797","geonameId":4304376,"toponymName":"Pine Mountain State Resort Park","countryId":"6252001","fcl":"L","population":0,"countryCode":"US","name":"Pine Mountain State Resort Park","fclName":"parks,area, ...","adminCodes1":{"ISO3166_2":"KY"},"countryName":"United States","fcodeName":"park","adminName1":"Kentucky","lat":"36.7462","fcode":"PRK"},{"adminCode1":"WY","lng":"-104.06912","geonameId":5835069,"toponymName":"Pine Bluffs","countryId":"6252001","fcl":"P","population":1146,"countryCode":"US","name":"Pine Bluffs","fclName":"city, village,...","adminCodes1":{"ISO3166_2":"WY"},"countryName":"United States","fcodeName":"populated place","adminName1":"Wyoming","lat":"41.18193","fcode":"PPL"},{"adminCode1":"KY","lng":"-83.56658","geonameId":4304369,"toponymName":"Pine Mountain","countryId":"6252001","fcl":"T","population":0,"countryCode":"US","name":"Pine Mountain","fclName":"mountain,hill,rock,... ","adminCodes1":{"ISO3166_2":"KY"},"countryName":"United States","fcodeName":"mountains","adminName1":"Kentucky","lat":"36.80009","fcode":"MTS"},{"adminCode1":"NV","lng":"-115.56227","geonameId":5499987,"toponymName":"Big Bald Mountain","countryId":"6252001","fcl":"T","population":0,"countryCode":"US","name":"Big Bald Mountain","fclName":"mountain,hill,rock,... ","adminCodes1":{"ISO3166_2":"NV"},"countryName":"United States","fcodeName":"mountain","adminName1":"Nevada","lat":"39.96576","fcode":"MT"},{"adminCode1":"NV","lng":"-115.55532","geonameId":5507226,"toponymName":"Little Bald Mountain","countryId":"6252001","fcl":"T","population":0,"countryCode":"US","name":"Little Bald Mountain","fclName":"mountain,hill,rock,... ","adminCodes1":{"ISO3166_2":"NV"},"countryName":"United States","fcodeName":"mountain","adminName1":"Nevada","lat":"39.92715","fcode":"MT"},{"adminCode1":"NV","lng":"-114.3225","geonameId":5499649,"toponymName":"Bald Mountain","countryId":"6252001","fcl":"T","population":0,"countryCode":"US","name":"Bald Mountain","fclName":"mountain,hill,rock,... ","adminCodes1":{"ISO3166_2":"NV"},"countryName":"United States","fcodeName":"mountain","adminName1":"Nevada","lat":"39.0205","fcode":"MT"},{"adminCode1":"GA","lng":"-84.64521","geonameId":4216042,"toponymName":"Pine Mountain","countryId":"6252001","fcl":"T","population":0,"countryCode":"US","name":"Pine Mountain","fclName":"mountain,hill,rock,... ","adminCodes1":{"ISO3166_2":"GA"},"countryName":"United States","fcodeName":"mountain","adminName1":"Georgia","lat":"33.98927","fcode":"MT"},{"adminCode1":"NV","lng":"-115.86172","geonameId":5512392,"toponymName":"Silverado Mountain","countryId":"6252001","fcl":"T","population":0,"countryCode":"US","name":"Silverado Mountain","fclName":"mountain,hill,rock,... ","adminCodes1":{"ISO3166_2":"NV"},"countryName":"United States","fcodeName":"mountain","adminName1":"Nevada","lat":"39.40604","fcode":"MT"},{"adminCode1":"NV","lng":"-115.48281","geonameId":5499307,"toponymName":"Antelope Mountain","countryId":"6252001","fcl":"T","population":0,"countryCode":"US","name":"Antelope Mountain","fclName":"mountain,hill,rock,... ","adminCodes1":{"ISO3166_2":"NV"},"countryName":"United States","fcodeName":"mountain","adminName1":"Nevada","lat":"39.41049","fcode":"MT"},{"adminCode1":"NV","lng":"-115.46976","geonameId":5501006,"toponymName":"Buster Mountain","countryId":"6252001","fcl":"T","population":0,"countryCode":"US","name":"Buster Mountain","fclName":"mountain,hill,rock,... ","adminCodes1":{"ISO3166_2":"NV"},"countryName":"United States","fcodeName":"mountain","adminName1":"Nevada","lat":"39.35743","fcode":"MT"},{"adminCode1":"NV","lng":"-114.61473","geonameId":5501480,"toponymName":"Cave Mountain","countryId":"6252001","fcl":"T","population":0,"countryCode":"US","name":"Cave Mountain","fclName":"mountain,hill,rock,... ","adminCodes1":{"ISO3166_2":"NV"},"countryName":"United States","fcodeName":"mountain","adminName1":"Nevada","lat":"39.16105","fcode":"MT"},{"adminCode1":"NV","lng":"-115.3281","geonameId":5706157,"toponymName":"Maverick Springs Range","countryId":"6252001","fcl":"T","population":0,"countryCode":"US","name":"Maverick Springs Range","fclName":"mountain,hill,rock,... ","adminCodes1":{"ISO3166_2":"NV"},"countryName":"United States","fcodeName":"mountains","adminName1":"Nevada","lat":"40.05493","fcode":"MTS"},{"adminCode1":"NV","lng":"-114.60001","geonameId":5511904,"toponymName":"Schell Creek State Game Refuge Number 7","countryId":"6252001","fcl":"L","population":0,"countryCode":"US","name":"Schell Creek State Game Refuge Number 7","fclName":"parks,area, ...","adminCodes1":{"ISO3166_2":"NV"},"countryName":"United States","fcodeName":"park","adminName1":"Nevada","lat":"39.44716","fcode":"PRK"},{"adminCode1":"NV","lng":"-114.99808","geonameId":5507148,"toponymName":"Liberty Pit","countryId":"6252001","fcl":"S","population":0,"countryCode":"US","name":"Liberty Pit","fclName":"spot, building, farm","adminCodes1":{"ISO3166_2":"NV"},"countryName":"United States","fcodeName":"mine(s)","adminName1":"Nevada","lat":"39.25744","fcode":"MN"},{"adminCode1":"NV","lng":"-115.58783","geonameId":5708486,"toponymName":"Sherman Mountain","countryId":"6252001","fcl":"T","population":0,"countryCode":"US","name":"Sherman Mountain","fclName":"mountain,hill,rock,... ","adminCodes1":{"ISO3166_2":"NV"},"countryName":"United States","fcodeName":"mountain","adminName1":"Nevada","lat":"40.11882","fcode":"MT"},{"adminCode1":"NV","lng":"-114.55779","geonameId":5500257,"toponymName":"Black Mountain","countryId":"6252001","fcl":"T","population":0,"countryCode":"US","name":"Black Mountain","fclName":"mountain,hill,rock,... ","adminCodes1":{"ISO3166_2":"NV"},"countryName":"United States","fcodeName":"mountain","adminName1":"Nevada","lat":"39.27661","fcode":"MT"},{"adminCode1":"NV","lng":"-114.29944","geonameId":5500805,"toponymName":"Buck Mountain","countryId":"6252001","fcl":"T","population":0,"countryCode":"US","name":"Buck Mountain","fclName":"mountain,hill,rock,... ","adminCodes1":{"ISO3166_2":"NV"},"countryName":"United States","fcodeName":"mountain","adminName1":"Nevada","lat":"39.02772","fcode":"MT"},{"adminCode1":"MT","lng":"-114.33041","geonameId":5663329,"toponymName":"Lone Pine State Preserve","countryId":"6252001","fcl":"L","population":0,"countryCode":"US","name":"Lone Pine State Preserve","fclName":"parks,area, ...","adminCodes1":{"ISO3166_2":"MT"},"countryName":"United States","fcodeName":"park","adminName1":"Montana","lat":"48.1594","fcode":"PRK"},{"adminCode1":"NV","lng":"-114.96808","geonameId":5514571,"toponymName":"Ward Mountain Recreation Area","countryId":"6252001","fcl":"L","population":0,"countryCode":"US","name":"Ward Mountain Recreation Area","fclName":"parks,area, ...","adminCodes1":{"ISO3166_2":"NV"},"countryName":"United States","fcodeName":"park","adminName1":"Nevada","lat":"39.21188","fcode":"PRK"},{"adminCode1":"NV","lng":"-115.5417","geonameId":5505232,"toponymName":"Mount Hamilton","countryId":"6252001","fcl":"T","population":0,"countryCode":"US","name":"Mount Hamilton","fclName":"mountain,hill,rock,... ","adminCodes1":{"ISO3166_2":"NV"},"countryName":"United States","fcodeName":"mountain","adminName1":"Nevada","lat":"39.23215","fcode":"MT"},{"adminCode1":"AZ","lng":"-111.45514","geonameId":5308938,"toponymName":"Pine","countryId":"6252001","fcl":"P","population":1963,"countryCode":"US","name":"Pine","fclName":"city, village,...","adminCodes1":{"ISO3166_2":"AZ"},"countryName":"United States","fcodeName":"populated place","adminName1":"Arizona","lat":"34.38447","fcode":"PPL"},{"adminCode1":"NV","lng":"-114.60252","geonameId":5499851,"toponymName":"Becky Peak","countryId":"6252001","fcl":"T","population":0,"countryCode":"US","name":"Becky Peak","fclName":"mountain,hill,rock,... ","adminCodes1":{"ISO3166_2":"NV"},"countryName":"United States","fcodeName":"mountain","adminName1":"Nevada","lat":"39.97105","fcode":"MT"},{"adminCode1":"NV","lng":"-115.42864","geonameId":5503291,"toponymName":"Duckwater Peak","countryId":"6252001","fcl":"T","population":0,"countryCode":"US","name":"Duckwater Peak","fclName":"mountain,hill,rock,... ","adminCodes1":{"ISO3166_2":"NV"},"countryName":"United States","fcodeName":"mountain","adminName1":"Nevada","lat":"38.93605","fcode":"MT"},{"adminCode1":"NV","lng":"-114.28778","geonameId":5509531,"toponymName":"O'Neal Peak","countryId":"6252001","fcl":"T","population":0,"countryCode":"US","name":"O'Neal Peak","fclName":"mountain,hill,rock,... ","adminCodes1":{"ISO3166_2":"NV"},"countryName":"United States","fcodeName":"mountain","adminName1":"Nevada","lat":"39.4455","fcode":"MT"},{"adminCode1":"NV","lng":"-114.29472","geonameId":5510664,"toponymName":"Pyramid Peak","countryId":"6252001","fcl":"T","population":0,"countryCode":"US","name":"Pyramid Peak","fclName":"mountain,hill,rock,... ","adminCodes1":{"ISO3166_2":"NV"},"countryName":"United States","fcodeName":"mountain","adminName1":"Nevada","lat":"38.94856","fcode":"MT"},{"adminCode1":"NV","lng":"-114.60001","geonameId":5512750,"toponymName":"South Schell Peak","countryId":"6252001","fcl":"T","population":0,"countryCode":"US","name":"South Schell Peak","fclName":"mountain,hill,rock,... ","adminCodes1":{"ISO3166_2":"NV"},"countryName":"United States","fcodeName":"mountain","adminName1":"Nevada","lat":"39.33605","fcode":"MT"},{"adminCode1":"NV","lng":"-115.82727","geonameId":5499131,"toponymName":"Alhambra Hills","countryId":"6252001","fcl":"T","population":0,"countryCode":"US","name":"Alhambra Hills","fclName":"mountain,hill,rock,... ","adminCodes1":{"ISO3166_2":"NV"},"countryName":"United States","fcodeName":"mountain","adminName1":"Nevada","lat":"39.40382","fcode":"MT"},{"adminCode1":"NV","lng":"-114.31694","geonameId":5499629,"toponymName":"Baker Peak","countryId":"6252001","fcl":"T","population":0,"countryCode":"US","name":"Baker Peak","fclName":"mountain,hill,rock,... ","adminCodes1":{"ISO3166_2":"NV"},"countryName":"United States","fcodeName":"mountain","adminName1":"Nevada","lat":"38.97022","fcode":"MT"},{"adminCode1":"NV","lng":"-115.44031","geonameId":5500321,"toponymName":"Blackrock","countryId":"6252001","fcl":"T","population":0,"countryCode":"US","name":"Blackrock","fclName":"mountain,hill,rock,... ","adminCodes1":{"ISO3166_2":"NV"},"countryName":"United States","fcodeName":"mountain","adminName1":"Nevada","lat":"38.99021","fcode":"MT"},{"adminCode1":"NV","lng":"-114.71668","geonameId":5501184,"toponymName":"Camel Peak","countryId":"6252001","fcl":"T","population":0,"countryCode":"US","name":"Camel Peak","fclName":"mountain,hill,rock,... ","adminCodes1":{"ISO3166_2":"NV"},"countryName":"United States","fcodeName":"mountain","adminName1":"Nevada","lat":"39.23661","fcode":"MT"},{"adminCode1":"NV","lng":"-114.64529","geonameId":5501908,"toponymName":"Cleve Creek Baldy","countryId":"6252001","fcl":"T","population":0,"countryCode":"US","name":"Cleve Creek Baldy","fclName":"mountain,hill,rock,... ","adminCodes1":{"ISO3166_2":"NV"},"countryName":"United States","fcodeName":"mountain","adminName1":"Nevada","lat":"39.25855","fcode":"MT"},{"adminCode1":"NV","lng":"-114.25527","geonameId":5504937,"toponymName":"Granite Peak","countryId":"6252001","fcl":"T","population":0,"countryCode":"US","name":"Granite Peak","fclName":"mountain,hill,rock,... ","adminCodes1":{"ISO3166_2":"NV"},"countryName":"United States","fcodeName":"mountain","adminName1":"Nevada","lat":"38.84384","fcode":"MT"},{"adminCode1":"NV","lng":"-114.90863","geonameId":5505229,"toponymName":"Hamels Peak","countryId":"6252001","fcl":"T","population":0,"countryCode":"US","name":"Hamels Peak","fclName":"mountain,hill,rock,... ","adminCodes1":{"ISO3166_2":"NV"},"countryName":"United States","fcodeName":"mountain","adminName1":"Nevada","lat":"39.0805","fcode":"MT"}]}
