{"totalResultsCount":1560,"geonames":[{"adminCode1":"PA","lng":"-79.99589","geonameId":5206379,"toponymName":"Pittsburgh","countryId":"6252001","fcl":"P","population":304391,"countryCode":"US","name":"Pittsburgh","fclName":"city, village,...","adminCodes1":{"ISO3166_2":"PA"},"countryName":"United States","fcodeName":"seat of a second-order administrative division","adminName1":"Pennsylvania","lat":"40.44062","fcode":"PPLA2"},{"adminCode1":"PA","lng":"-80.25547","geonameId":5191803,"toponymName":"Pittsburgh International Airport","countryId":"6252001","fcl":"S","population":0,"countryCode":"US","name":"Pittsburgh International Airport","fclName":"spot, building, farm","adminCodes1":{"ISO3166_2":"PA"},"countryName":"United States","fcodeName":"airport","adminName1":"Pennsylvania","lat":"40.49608","fcode":"AIRP"},{"adminCode1":"KS","lng":"-94.70496","geonameId":4277241,"toponymName":"Pittsburg","countryId":"6252001","fcl":"P","population":20409,"countryCode":"US","name":"Pittsburg","fclName":"city, village,...","adminCodes1":{"ISO3166_2":"KS"},"countryName":"United States","fcodeName":"populated place","adminName1":"Kansas","lat":"37.41088","fcode":"PPL"},{"adminCode1":"PA","lng":"-79.95922","geonameId":5216781,"toponymName":"University of Pittsburgh","countryId":"6252001","fcl":"S","population":0,"countryCode":"US","name":"University of Pittsburgh","fclName":"spot, building, farm","adminCodes1":{"ISO3166_2":"PA"},"countryName":"United States","fcodeName":"school","adminName1":"Pennsylvania","lat":"40.44285","fcode":"SCH"},{"adminCode1":"PA","lng":"-79.83866","geonameId":5188029,"toponymName":"East Pittsburgh","countryId":"6252001","fcl":"P","population":1794,"countryCode":"US","name":"East Pittsburgh","fclName":"city, village,...","adminCodes1":{"ISO3166_2":"PA"},"countryName":"United States","fcodeName":"populated place","adminName1":"Pennsylvania","lat":"40.39562","fcode":"PPL"},{"adminCode1":"CA","lng":"-121.88468","geonameId":5383465,"toponymName":"Pittsburg","countryId":"6252001","fcl":"P","population":69424,"countryCode":"US","name":"Pittsburg","fclName":"city, village,...","adminCodes1":{"ISO3166_2":"CA"},"countryName":"United States","fcodeName":"populated place","adminName1":"California","lat":"38.02798","fcode":"PPL"},{"adminCode1":"PA","lng":"-79.77566","geonameId":5206394,"toponymName":"Pittsburgh-Monroeville Airport","countryId":"6252001","fcl":"S","population":0,"countryCode":"US","name":"Pittsburgh-Monroeville Airport","fclName":"spot, building, farm","adminCodes1":{"ISO3166_2":"PA"},"countryName":"United States","fcodeName":"airport","adminName1":"Pennsylvania","lat":"40.451","fcode":"AIRP"},{"adminCode1":"PA","lng":"-79.82644","geonameId":5218836,"toponymName":"Pittsburgh Northeast Airport","countryId":"6252001","fcl":"S","population":0,"countryCode":"US","name":"Pittsburgh Northeast Airport","fclName":"spot, building, farm","adminCodes1":{"ISO3166_2":"PA"},"countryName":"United States","fcodeName":"airport","adminName1":"Pennsylvania","lat":"40.60849","fcode":"AIRP"},{"adminCode1":"OH","lng":"-80.95065","geonameId":5166855,"toponymName":"Pittsburgh Junction","countryId":"6252001","fcl":"P","population":0,"countryCode":"US","name":"Pittsburgh Junction","fclName":"city, village,...","adminCodes1":{"ISO3166_2":"OH"},"countryName":"United States","fcodeName":"populated place","adminName1":"Ohio","lat":"40.33201","fcode":"PPL"},{"adminCode1":"PA","lng":"-79.94033","geonameId":5211100,"toponymName":"Schenley Park","countryId":"6252001","fcl":"L","population":0,"countryCode":"US","name":"Schenley Park","fclName":"parks,area, ...","adminCodes1":{"ISO3166_2":"PA"},"countryName":"United States","fcodeName":"park","adminName1":"Pennsylvania","lat":"40.43312","fcode":"PRK"},{"adminCode1":"MT","lng":"-110.92551","geonameId":5639462,"toponymName":"Belt","countryId":"6252001","fcl":"P","population":596,"countryCode":"US","name":"Belt","fclName":"city, village,...","adminCodes1":{"ISO3166_2":"MT"},"countryName":"United States","fcodeName":"populated place","adminName1":"Montana","lat":"47.38608","fcode":"PPL"},{"adminCode1":"TN","lng":"-85.70441","geonameId":4659005,"toponymName":"South Pittsburg","countryId":"6252001","fcl":"P","population":3114,"countryCode":"US","name":"South Pittsburg","fclName":"city, village,...","adminCodes1":{"ISO3166_2":"TN"},"countryName":"United States","fcodeName":"populated place","adminName1":"Tennessee","lat":"35.0123","fcode":"PPL"},{"adminCode1":"OH","lng":"-84.48745","geonameId":4521418,"toponymName":"Pitsburg","countryId":"6252001","fcl":"P","population":382,"countryCode":"US","name":"Pitsburg","fclName":"city, village,...","adminCodes1":{"ISO3166_2":"OH"},"countryName":"United States","fcodeName":"populated place","adminName1":"Ohio","lat":"39.98755","fcode":"PPL"},{"adminCode1":"PA","lng":"-79.95089","geonameId":5180905,"toponymName":"Bloomfield","countryId":"6252001","fcl":"P","population":1095,"countryCode":"US","name":"Bloomfield","fclName":"city, village,...","adminCodes1":{"ISO3166_2":"PA"},"countryName":"United States","fcodeName":"populated place","adminName1":"Pennsylvania","lat":"40.4609","fcode":"PPL"},{"adminCode1":"PA","lng":"-79.94283","geonameId":5183278,"toponymName":"Carnegie Mellon University","countryId":"6252001","fcl":"S","population":0,"countryCode":"US","name":"Carnegie Mellon University","fclName":"spot, building, farm","adminCodes1":{"ISO3166_2":"PA"},"countryName":"United States","fcodeName":"university","adminName1":"Pennsylvania","lat":"40.44118","fcode":"UNIV"},{"adminCode1":"PA","lng":"-79.97626","geonameId":5206393,"toponymName":"City of Pittsburgh","countryId":"6252001","fcl":"A","population":305704,"countryCode":"US","name":"City of Pittsburgh","fclName":"country, state, region,...","adminCodes1":{"ISO3166_2":"PA"},"countryName":"United States","fcodeName":"third-order administrative division","adminName1":"Pennsylvania","lat":"40.43962","fcode":"ADM3"},{"adminCode1":"PA","lng":"-79.83818","geonameId":5188030,"toponymName":"Borough of East Pittsburgh","countryId":"6252001","fcl":"A","population":1822,"countryCode":"US","name":"Borough of East Pittsburgh","fclName":"country, state, region,...","adminCodes1":{"ISO3166_2":"PA"},"countryName":"United States","fcodeName":"third-order administrative division","adminName1":"Pennsylvania","lat":"40.39688","fcode":"ADM3"},{"adminCode1":"PA","lng":"-79.95318","geonameId":5184211,"toponymName":"Children's Hospital of Pittsburgh of UPMC","countryId":"6252001","fcl":"S","population":0,"countryCode":"US","name":"Children's Hospital of Pittsburgh of UPMC","fclName":"spot, building, farm","adminCodes1":{"ISO3166_2":"PA"},"countryName":"United States","fcodeName":"hospital","adminName1":"Pennsylvania","lat":"40.46687","fcode":"HSP"},{"adminCode1":"IN","lng":"-87.30168","geonameId":4259303,"toponymName":"Hymera","countryId":"6252001","fcl":"P","population":774,"countryCode":"US","name":"Hymera","fclName":"city, village,...","adminCodes1":{"ISO3166_2":"IN"},"countryName":"United States","fcodeName":"populated place","adminName1":"Indiana","lat":"39.18643","fcode":"PPL"},{"adminCode1":"KS","lng":"-98.4709","geonameId":4280484,"toponymName":"Tipton","countryId":"6252001","fcl":"P","population":207,"countryCode":"US","name":"Tipton","fclName":"city, village,...","adminCodes1":{"ISO3166_2":"KS"},"countryName":"United States","fcodeName":"populated place","adminName1":"Kansas","lat":"39.34307","fcode":"PPL"},{"adminCode1":"ND","lng":"-97.17813","geonameId":5061136,"toponymName":"Pittsburgh","countryId":"6252001","fcl":"P","population":0,"countryCode":"US","name":"Pittsburgh","fclName":"city, village,...","adminCodes1":{"ISO3166_2":"ND"},"countryName":"United States","fcodeName":"populated place","adminName1":"North Dakota","lat":"48.62943","fcode":"PPL"},{"adminCode1":"PA","lng":"-79.60847","geonameId":5206381,"toponymName":"Greensburg Jeannette Regional Airport","countryId":"6252001","fcl":"S","population":0,"countryCode":"US","name":"Greensburg Jeannette Regional Airport","fclName":"spot, building, farm","adminCodes1":{"ISO3166_2":"PA"},"countryName":"United States","fcodeName":"airport","adminName1":"Pennsylvania","lat":"40.37797","fcode":"AIRP"},{"adminCode1":"PA","lng":"-80.03978","geonameId":5219035,"toponymName":"Westwood","countryId":"6252001","fcl":"P","population":0,"countryCode":"US","name":"Westwood","fclName":"city, village,...","adminCodes1":{"ISO3166_2":"PA"},"countryName":"United States","fcodeName":"populated place","adminName1":"Pennsylvania","lat":"40.42924","fcode":"PPL"},{"adminCode1":"PA","lng":"-79.99339","geonameId":5204721,"toponymName":"Overbrook","countryId":"6252001","fcl":"P","population":0,"countryCode":"US","name":"Overbrook","fclName":"city, village,...","adminCodes1":{"ISO3166_2":"PA"},"countryName":"United States","fcodeName":"populated place","adminName1":"Pennsylvania","lat":"40.38507","fcode":"PPL"},{"adminCode1":"PA","lng":"-79.94088","geonameId":5211570,"toponymName":"Shadyside","countryId":"6252001","fcl":"P","population":0,"countryCode":"US","name":"Shadyside","fclName":"city, village,...","adminCodes1":{"ISO3166_2":"PA"},"countryName":"United States","fcodeName":"populated place","adminName1":"Pennsylvania","lat":"40.45146","fcode":"PPL"},{"adminCode1":"PA","lng":"-80.07728","geonameId":5211877,"toponymName":"Sheraden","countryId":"6252001","fcl":"P","population":0,"countryCode":"US","name":"Sheraden","fclName":"city, village,...","adminCodes1":{"ISO3166_2":"PA"},"countryName":"United States","fcodeName":"populated place","adminName1":"Pennsylvania","lat":"40.45951","fcode":"PPL"},{"adminCode1":"PA","lng":"-79.91922","geonameId":5213582,"toponymName":"Squirrel Hill","countryId":"6252001","fcl":"P","population":0,"countryCode":"US","name":"Squirrel Hill","fclName":"city, village,...","adminCodes1":{"ISO3166_2":"PA"},"countryName":"United States","fcodeName":"populated place","adminName1":"Pennsylvania","lat":"40.43812","fcode":"PPL"},{"adminCode1":"PA","lng":"-79.93894","geonameId":5213636,"toponymName":"Stanton Heights","countryId":"6252001","fcl":"P","population":0,"countryCode":"US","name":"Stanton Heights","fclName":"city, village,...","adminCodes1":{"ISO3166_2":"PA"},"countryName":"United States","fcodeName":"populated place","adminName1":"Pennsylvania","lat":"40.47812","fcode":"PPL"},{"adminCode1":"PA","lng":"-80.01978","geonameId":5199633,"toponymName":"Manchester","countryId":"6252001","fcl":"P","population":0,"countryCode":"US","name":"Manchester","fclName":"city, village,...","adminCodes1":{"ISO3166_2":"PA"},"countryName":"United States","fcodeName":"populated place","adminName1":"Pennsylvania","lat":"40.45507","fcode":"PPL"},{"adminCode1":"PA","lng":"-79.9295","geonameId":5201946,"toponymName":"Morningside","countryId":"6252001","fcl":"P","population":0,"countryCode":"US","name":"Morningside","fclName":"city, village,...","adminCodes1":{"ISO3166_2":"PA"},"countryName":"United States","fcodeName":"populated place","adminName1":"Pennsylvania","lat":"40.48257","fcode":"PPL"},{"adminCode1":"PA","lng":"-80.01033","geonameId":5202414,"toponymName":"Mount Washington","countryId":"6252001","fcl":"P","population":0,"countryCode":"US","name":"Mount Washington","fclName":"city, village,...","adminCodes1":{"ISO3166_2":"PA"},"countryName":"United States","fcodeName":"populated place","adminName1":"Pennsylvania","lat":"40.4309","fcode":"PPL"},{"adminCode1":"PA","lng":"-80.03533","geonameId":5218686,"toponymName":"West End","countryId":"6252001","fcl":"P","population":0,"countryCode":"US","name":"West End","fclName":"city, village,...","adminCodes1":{"ISO3166_2":"PA"},"countryName":"United States","fcodeName":"populated place","adminName1":"Pennsylvania","lat":"40.44035","fcode":"PPL"},{"adminCode1":"PA","lng":"-80.03366","geonameId":5179006,"toponymName":"Banksville","countryId":"6252001","fcl":"P","population":0,"countryCode":"US","name":"Banksville","fclName":"city, village,...","adminCodes1":{"ISO3166_2":"PA"},"countryName":"United States","fcodeName":"populated place","adminName1":"Pennsylvania","lat":"40.4084","fcode":"PPL"},{"adminCode1":"PA","lng":"-80.02478","geonameId":5179698,"toponymName":"Beechview","countryId":"6252001","fcl":"P","population":0,"countryCode":"US","name":"Beechview","fclName":"city, village,...","adminCodes1":{"ISO3166_2":"PA"},"countryName":"United States","fcodeName":"populated place","adminName1":"Pennsylvania","lat":"40.41062","fcode":"PPL"},{"adminCode1":"PA","lng":"-80.002","geonameId":5179895,"toponymName":"Beltzhoover","countryId":"6252001","fcl":"P","population":0,"countryCode":"US","name":"Beltzhoover","fclName":"city, village,...","adminCodes1":{"ISO3166_2":"PA"},"countryName":"United States","fcodeName":"populated place","adminName1":"Pennsylvania","lat":"40.41979","fcode":"PPL"},{"adminCode1":"PA","lng":"-80.01783","geonameId":5181790,"toponymName":"Brookline","countryId":"6252001","fcl":"P","population":0,"countryCode":"US","name":"Brookline","fclName":"city, village,...","adminCodes1":{"ISO3166_2":"PA"},"countryName":"United States","fcodeName":"populated place","adminName1":"Pennsylvania","lat":"40.39201","fcode":"PPL"},{"adminCode1":"PA","lng":"-79.94338","geonameId":5191971,"toponymName":"Greenfield","countryId":"6252001","fcl":"P","population":0,"countryCode":"US","name":"Greenfield","fclName":"city, village,...","adminCodes1":{"ISO3166_2":"PA"},"countryName":"United States","fcodeName":"populated place","adminName1":"Pennsylvania","lat":"40.42146","fcode":"PPL"},{"adminCode1":"PA","lng":"-79.93922","geonameId":5192999,"toponymName":"Hazelwood","countryId":"6252001","fcl":"P","population":0,"countryCode":"US","name":"Hazelwood","fclName":"city, village,...","adminCodes1":{"ISO3166_2":"PA"},"countryName":"United States","fcodeName":"populated place","adminName1":"Pennsylvania","lat":"40.4134","fcode":"PPL"},{"adminCode1":"PA","lng":"-79.90783","geonameId":5194081,"toponymName":"Homewood","countryId":"6252001","fcl":"P","population":0,"countryCode":"US","name":"Homewood","fclName":"city, village,...","adminCodes1":{"ISO3166_2":"PA"},"countryName":"United States","fcodeName":"populated place","adminName1":"Pennsylvania","lat":"40.45146","fcode":"PPL"},{"adminCode1":"PA","lng":"-79.99033","geonameId":5183327,"toponymName":"Carrick","countryId":"6252001","fcl":"P","population":0,"countryCode":"US","name":"Carrick","fclName":"city, village,...","adminCodes1":{"ISO3166_2":"PA"},"countryName":"United States","fcodeName":"populated place","adminName1":"Pennsylvania","lat":"40.39646","fcode":"PPL"},{"adminCode1":"PA","lng":"-80.02005","geonameId":5187583,"toponymName":"Duquesne Heights","countryId":"6252001","fcl":"P","population":0,"countryCode":"US","name":"Duquesne Heights","fclName":"city, village,...","adminCodes1":{"ISO3166_2":"PA"},"countryName":"United States","fcodeName":"populated place","adminName1":"Pennsylvania","lat":"40.43535","fcode":"PPL"},{"adminCode1":"PA","lng":"-80.07533","geonameId":5187866,"toponymName":"East Carnegie","countryId":"6252001","fcl":"P","population":0,"countryCode":"US","name":"East Carnegie","fclName":"city, village,...","adminCodes1":{"ISO3166_2":"PA"},"countryName":"United States","fcodeName":"populated place","adminName1":"Pennsylvania","lat":"40.41562","fcode":"PPL"},{"adminCode1":"PA","lng":"-79.92283","geonameId":5187977,"toponymName":"East Liberty","countryId":"6252001","fcl":"P","population":0,"countryCode":"US","name":"East Liberty","fclName":"city, village,...","adminCodes1":{"ISO3166_2":"PA"},"countryName":"United States","fcodeName":"populated place","adminName1":"Pennsylvania","lat":"40.46062","fcode":"PPL"},{"adminCode1":"PA","lng":"-80.05894","geonameId":5188587,"toponymName":"Elliott","countryId":"6252001","fcl":"P","population":0,"countryCode":"US","name":"Elliott","fclName":"city, village,...","adminCodes1":{"ISO3166_2":"PA"},"countryName":"United States","fcodeName":"populated place","adminName1":"Pennsylvania","lat":"40.45007","fcode":"PPL"},{"adminCode1":"PA","lng":"-80.05061","geonameId":5188889,"toponymName":"Esplen","countryId":"6252001","fcl":"P","population":0,"countryCode":"US","name":"Esplen","fclName":"city, village,...","adminCodes1":{"ISO3166_2":"PA"},"countryName":"United States","fcodeName":"populated place","adminName1":"Pennsylvania","lat":"40.45757","fcode":"PPL"},{"adminCode1":"PA","lng":"-79.99478","geonameId":5196471,"toponymName":"Knoxville","countryId":"6252001","fcl":"P","population":0,"countryCode":"US","name":"Knoxville","fclName":"city, village,...","adminCodes1":{"ISO3166_2":"PA"},"countryName":"United States","fcodeName":"populated place","adminName1":"Pennsylvania","lat":"40.41979","fcode":"PPL"},{"adminCode1":"IN","lng":"-86.48332","geonameId":4257356,"toponymName":"Fargo","countryId":"6252001","fcl":"P","population":0,"countryCode":"US","name":"Fargo","fclName":"city, village,...","adminCodes1":{"ISO3166_2":"IN"},"countryName":"United States","fcodeName":"populated place","adminName1":"Indiana","lat":"38.40006","fcode":"PPL"},{"adminCode1":"PA","lng":"-79.89614","geonameId":7184538,"toponymName":"University of Pittsburgh Medical Center Saint Margaret","countryId":"6252001","fcl":"S","population":0,"countryCode":"US","name":"University of Pittsburgh Medical Center Saint Margaret","fclName":"spot, building, farm","adminCodes1":{"ISO3166_2":"PA"},"countryName":"United States","fcodeName":"hospital","adminName1":"Pennsylvania","lat":"40.48946","fcode":"HSP"},{"adminCode1":"PA","lng":"-80.01033","geonameId":5206380,"toponymName":"Pittsburgh Aviary Conservatory","countryId":"6252001","fcl":"L","population":0,"countryCode":"US","name":"Pittsburgh Aviary Conservatory","fclName":"parks,area, ...","adminCodes1":{"ISO3166_2":"PA"},"countryName":"United States","fcodeName":"park","adminName1":"Pennsylvania","lat":"40.45396","fcode":"PRK"},{"adminCode1":"PA","lng":"-79.98589","geonameId":5213103,"toponymName":"South Side Flats","countryId":"6252001","fcl":"P","population":0,"countryCode":"US","name":"South Side Flats","fclName":"city, village,...","adminCodes1":{"ISO3166_2":"PA"},"countryName":"United States","fcodeName":"section of populated place","adminName1":"Pennsylvania","lat":"40.42924","fcode":"PPLX"},{"adminCode1":"NV","lng":"-116.82232","geonameId":5707369,"toponymName":"Pittsburgh (historical)","countryId":"6252001","fcl":"P","population":0,"countryCode":"US","name":"Pittsburgh (historical)","fclName":"city, village,...","adminCodes1":{"ISO3166_2":"NV"},"countryName":"United States","fcodeName":"abandoned populated place","adminName1":"Nevada","lat":"40.42853","fcode":"PPLQ"},{"adminCode1":"OH","lng":"-82.73101","geonameId":5164397,"toponymName":"New Pittsburgh","countryId":"6252001","fcl":"P","population":0,"countryCode":"US","name":"New Pittsburgh","fclName":"city, village,...","adminCodes1":{"ISO3166_2":"OH"},"countryName":"United States","fcodeName":"populated place","adminName1":"Ohio","lat":"40.99589","fcode":"PPL"},{"adminCode1":"PA","lng":"-79.98778","geonameId":7183533,"toponymName":"Pittsburgh Public Schools Library","countryId":"6252001","fcl":"S","population":0,"countryCode":"US","name":"Pittsburgh Public Schools Library","fclName":"spot, building, farm","adminCodes1":{"ISO3166_2":"PA"},"countryName":"United States","fcodeName":"library","adminName1":"Pennsylvania","lat":"40.44456","fcode":"LIBR"},{"adminCode1":"PA","lng":"-79.95494","geonameId":7183720,"toponymName":"University of Pittsburgh School of Education","countryId":"6252001","fcl":"S","population":0,"countryCode":"US","name":"University of Pittsburgh School of Education","fclName":"spot, building, farm","adminCodes1":{"ISO3166_2":"PA"},"countryName":"United States","fcodeName":"building(s)","adminName1":"Pennsylvania","lat":"40.44123","fcode":"BLDG"},{"adminCode1":"PA","lng":"-79.95056","geonameId":7184028,"toponymName":"Pittsburgh Chinese Church of Oakland","countryId":"6252001","fcl":"S","population":0,"countryCode":"US","name":"Pittsburgh Chinese Church of Oakland","fclName":"spot, building, farm","adminCodes1":{"ISO3166_2":"PA"},"countryName":"United States","fcodeName":"church","adminName1":"Pennsylvania","lat":"40.44776","fcode":"CH"},{"adminCode1":"PA","lng":"-79.98145","geonameId":7184379,"toponymName":"Pittsburgh Gifted Center","countryId":"6252001","fcl":"S","population":0,"countryCode":"US","name":"Pittsburgh Gifted Center","fclName":"spot, building, farm","adminCodes1":{"ISO3166_2":"PA"},"countryName":"United States","fcodeName":"school","adminName1":"Pennsylvania","lat":"40.44724","fcode":"SCH"},{"adminCode1":"PA","lng":"-79.9916","geonameId":7182999,"toponymName":"John Heinz Pittsburgh Regional History Center","countryId":"6252001","fcl":"S","population":0,"countryCode":"US","name":"John Heinz Pittsburgh Regional History Center","fclName":"spot, building, farm","adminCodes1":{"ISO3166_2":"PA"},"countryName":"United States","fcodeName":"building(s)","adminName1":"Pennsylvania","lat":"40.4458","fcode":"BLDG"},{"adminCode1":"PA","lng":"-79.8331","geonameId":5218979,"toponymName":"Westinghouse E Pittsburgh Airport","countryId":"6252001","fcl":"S","population":0,"countryCode":"US","name":"Westinghouse E Pittsburgh Airport","fclName":"spot, building, farm","adminCodes1":{"ISO3166_2":"PA"},"countryName":"United States","fcodeName":"airport","adminName1":"Pennsylvania","lat":"40.40007","fcode":"AIRP"},{"adminCode1":"PA","lng":"-79.92144","geonameId":5206390,"toponymName":"Pittsburgh Theological Seminary","countryId":"6252001","fcl":"S","population":0,"countryCode":"US","name":"Pittsburgh Theological Seminary","fclName":"spot, building, farm","adminCodes1":{"ISO3166_2":"PA"},"countryName":"United States","fcodeName":"school","adminName1":"Pennsylvania","lat":"40.46674","fcode":"SCH"},{"adminCode1":"PA","lng":"-80.00478","geonameId":5217568,"toponymName":"WPGH-TV (Pittsburgh)","countryId":"6252001","fcl":"S","population":0,"countryCode":"US","name":"WPGH-TV (Pittsburgh)","fclName":"spot, building, farm","adminCodes1":{"ISO3166_2":"PA"},"countryName":"United States","fcodeName":"tower","adminName1":"Pennsylvania","lat":"40.49535","fcode":"TOWR"},{"adminCode1":"PA","lng":"-80.0045","geonameId":5217585,"toponymName":"WPXI-TV (Pittsburgh)","countryId":"6252001","fcl":"S","population":0,"countryCode":"US","name":"WPXI-TV (Pittsburgh)","fclName":"spot, building, farm","adminCodes1":{"ISO3166_2":"PA"},"countryName":"United States","fcodeName":"tower","adminName1":"Pennsylvania","lat":"40.46312","fcode":"TOWR"},{"adminCode1":"PA","lng":"-79.96394","geonameId":5217592,"toponymName":"WQEX-TV (Pittsburgh)","countryId":"6252001","fcl":"S","population":0,"countryCode":"US","name":"WQEX-TV (Pittsburgh)","fclName":"spot, building, farm","adminCodes1":{"ISO3166_2":"PA"},"countryName":"United States","fcodeName":"tower","adminName1":"Pennsylvania","lat":"40.44618","fcode":"TOWR"},{"adminCode1":"PA","lng":"-79.94338","geonameId":5217609,"toponymName":"WRCT-FM (Pittsburgh)","countryId":"6252001","fcl":"S","population":0,"countryCode":"US","name":"WRCT-FM (Pittsburgh)","fclName":"spot, building, farm","adminCodes1":{"ISO3166_2":"PA"},"countryName":"United States","fcodeName":"tower","adminName1":"Pennsylvania","lat":"40.44424","fcode":"TOWR"},{"adminCode1":"PA","lng":"-80.002","geonameId":5178558,"toponymName":"Art Institute of Pittsburgh","countryId":"6252001","fcl":"S","population":0,"countryCode":"US","name":"Art Institute of Pittsburgh","fclName":"spot, building, farm","adminCodes1":{"ISO3166_2":"PA"},"countryName":"United States","fcodeName":"school","adminName1":"Pennsylvania","lat":"40.44257","fcode":"SCH"},{"adminCode1":"PA","lng":"-80.01894","geonameId":5195705,"toponymName":"KDKA-TV (Pittsburgh)","countryId":"6252001","fcl":"S","population":0,"countryCode":"US","name":"KDKA-TV (Pittsburgh)","fclName":"spot, building, farm","adminCodes1":{"ISO3166_2":"PA"},"countryName":"United States","fcodeName":"tower","adminName1":"Pennsylvania","lat":"40.49396","fcode":"TOWR"},{"adminCode1":"OR","lng":"-123.15234","geonameId":5746077,"toponymName":"Pittsburg","countryId":"6252001","fcl":"P","population":0,"countryCode":"US","name":"Pittsburg","fclName":"city, village,...","adminCodes1":{"ISO3166_2":"OR"},"countryName":"United States","fcodeName":"populated place","adminName1":"Oregon","lat":"45.90067","fcode":"PPL"},{"adminCode1":"TN","lng":"-88.32282","geonameId":4649892,"toponymName":"Pittsburg Landing","countryId":"6252001","fcl":"P","population":0,"countryCode":"US","name":"Pittsburg Landing","fclName":"city, village,...","adminCodes1":{"ISO3166_2":"TN"},"countryName":"United States","fcodeName":"populated place","adminName1":"Tennessee","lat":"35.15231","fcode":"PPL"},{"adminCode1":"OH","lng":"-82.10015","geonameId":5164395,"toponymName":"New Pittsburg","countryId":"6252001","fcl":"P","population":388,"countryCode":"US","name":"New Pittsburg","fclName":"city, village,...","adminCodes1":{"ISO3166_2":"OH"},"countryName":"United States","fcodeName":"populated place","adminName1":"Ohio","lat":"40.83922","fcode":"PPL"},{"adminCode1":"IN","lng":"-84.89913","geonameId":4924138,"toponymName":"New Pittsburg","countryId":"6252001","fcl":"P","population":0,"countryCode":"US","name":"New Pittsburg","fclName":"city, village,...","adminCodes1":{"ISO3166_2":"IN"},"countryName":"United States","fcodeName":"populated place","adminName1":"Indiana","lat":"40.30755","fcode":"PPL"},{"adminCode1":"IN","lng":"-86.70167","geonameId":4924858,"toponymName":"Pittsburg","countryId":"6252001","fcl":"P","population":0,"countryCode":"US","name":"Pittsburg","fclName":"city, village,...","adminCodes1":{"ISO3166_2":"IN"},"countryName":"United States","fcodeName":"populated place","adminName1":"Indiana","lat":"40.59281","fcode":"PPL"},{"adminCode1":"PA","lng":"-79.89977","geonameId":5207958,"toponymName":"Regent Square","countryId":"6252001","fcl":"P","population":0,"countryCode":"US","name":"Regent Square","fclName":"city, village,...","adminCodes1":{"ISO3166_2":"PA"},"countryName":"United States","fcodeName":"section of populated place","adminName1":"Pennsylvania","lat":"40.42785","fcode":"PPLX"},{"adminCode1":"PA","lng":"-79.92061","geonameId":5203196,"toponymName":"New Homestead","countryId":"6252001","fcl":"P","population":0,"countryCode":"US","name":"New Homestead","fclName":"city, village,...","adminCodes1":{"ISO3166_2":"PA"},"countryName":"United States","fcodeName":"section of populated place","adminName1":"Pennsylvania","lat":"40.39118","fcode":"PPLX"},{"adminCode1":"PA","lng":"-80.01283","geonameId":5203760,"toponymName":"North Shore","countryId":"6252001","fcl":"P","population":0,"countryCode":"US","name":"North Shore","fclName":"city, village,...","adminCodes1":{"ISO3166_2":"PA"},"countryName":"United States","fcodeName":"section of populated place","adminName1":"Pennsylvania","lat":"40.44729","fcode":"PPLX"},{"adminCode1":"PA","lng":"-80.007","geonameId":5203761,"toponymName":"North Side","countryId":"6252001","fcl":"P","population":0,"countryCode":"US","name":"North Side","fclName":"city, village,...","adminCodes1":{"ISO3166_2":"PA"},"countryName":"United States","fcodeName":"section of populated place","adminName1":"Pennsylvania","lat":"40.45729","fcode":"PPLX"},{"adminCode1":"PA","lng":"-80.00061","geonameId":5203865,"toponymName":"Northview Heights","countryId":"6252001","fcl":"P","population":0,"countryCode":"US","name":"Northview Heights","fclName":"city, village,...","adminCodes1":{"ISO3166_2":"PA"},"countryName":"United States","fcodeName":"section of populated place","adminName1":"Pennsylvania","lat":"40.4784","fcode":"PPLX"},{"adminCode1":"PA","lng":"-80.02283","geonameId":5205685,"toponymName":"Perry North","countryId":"6252001","fcl":"P","population":0,"countryCode":"US","name":"Perry North","fclName":"city, village,...","adminCodes1":{"ISO3166_2":"PA"},"countryName":"United States","fcodeName":"section of populated place","adminName1":"Pennsylvania","lat":"40.4859","fcode":"PPLX"},{"adminCode1":"PA","lng":"-79.987","geonameId":5213350,"toponymName":"Spring Garden","countryId":"6252001","fcl":"P","population":0,"countryCode":"US","name":"Spring Garden","fclName":"city, village,...","adminCodes1":{"ISO3166_2":"PA"},"countryName":"United States","fcodeName":"section of populated place","adminName1":"Pennsylvania","lat":"40.46896","fcode":"PPLX"},{"adminCode1":"PA","lng":"-79.90644","geonameId":5215062,"toponymName":"Swisshelm Park","countryId":"6252001","fcl":"P","population":0,"countryCode":"US","name":"Swisshelm Park","fclName":"city, village,...","adminCodes1":{"ISO3166_2":"PA"},"countryName":"United States","fcodeName":"section of populated place","adminName1":"Pennsylvania","lat":"40.42062","fcode":"PPLX"},{"adminCode1":"PA","lng":"-79.99561","geonameId":5216930,"toponymName":"Uptown","countryId":"6252001","fcl":"P","population":0,"countryCode":"US","name":"Uptown","fclName":"city, village,...","adminCodes1":{"ISO3166_2":"PA"},"countryName":"United States","fcodeName":"section of populated place","adminName1":"Pennsylvania","lat":"40.4359","fcode":"PPLX"},{"adminCode1":"PA","lng":"-79.9745","geonameId":5178486,"toponymName":"Arlington","countryId":"6252001","fcl":"P","population":0,"countryCode":"US","name":"Arlington","fclName":"city, village,...","adminCodes1":{"ISO3166_2":"PA"},"countryName":"United States","fcodeName":"section of populated place","adminName1":"Pennsylvania","lat":"40.4259","fcode":"PPLX"},{"adminCode1":"PA","lng":"-80.00589","geonameId":5181156,"toponymName":"Bon Air","countryId":"6252001","fcl":"P","population":0,"countryCode":"US","name":"Bon Air","fclName":"city, village,...","adminCodes1":{"ISO3166_2":"PA"},"countryName":"United States","fcodeName":"section of populated place","adminName1":"Pennsylvania","lat":"40.40674","fcode":"PPLX"},{"adminCode1":"PA","lng":"-80.03589","geonameId":5181656,"toponymName":"Brighton Heights","countryId":"6252001","fcl":"P","population":0,"countryCode":"US","name":"Brighton Heights","fclName":"city, village,...","adminCodes1":{"ISO3166_2":"PA"},"countryName":"United States","fcodeName":"section of populated place","adminName1":"Pennsylvania","lat":"40.47785","fcode":"PPLX"},{"adminCode1":"PA","lng":"-80.00589","geonameId":5178033,"toponymName":"Allegheny Center","countryId":"6252001","fcl":"P","population":0,"countryCode":"US","name":"Allegheny Center","fclName":"city, village,...","adminCodes1":{"ISO3166_2":"PA"},"countryName":"United States","fcodeName":"section of populated place","adminName1":"Pennsylvania","lat":"40.4534","fcode":"PPLX"},{"adminCode1":"PA","lng":"-79.99394","geonameId":5178128,"toponymName":"Allentown","countryId":"6252001","fcl":"P","population":0,"countryCode":"US","name":"Allentown","fclName":"city, village,...","adminCodes1":{"ISO3166_2":"PA"},"countryName":"United States","fcodeName":"section of populated place","adminName1":"Pennsylvania","lat":"40.42757","fcode":"PPLX"},{"adminCode1":"PA","lng":"-79.93922","geonameId":5190568,"toponymName":"Friendship","countryId":"6252001","fcl":"P","population":0,"countryCode":"US","name":"Friendship","fclName":"city, village,...","adminCodes1":{"ISO3166_2":"PA"},"countryName":"United States","fcodeName":"section of populated place","adminName1":"Pennsylvania","lat":"40.46257","fcode":"PPLX"},{"adminCode1":"PA","lng":"-79.93866","geonameId":5190830,"toponymName":"Garfield","countryId":"6252001","fcl":"P","population":0,"countryCode":"US","name":"Garfield","fclName":"city, village,...","adminCodes1":{"ISO3166_2":"PA"},"countryName":"United States","fcodeName":"section of populated place","adminName1":"Pennsylvania","lat":"40.46868","fcode":"PPLX"},{"adminCode1":"PA","lng":"-79.92922","geonameId":5191266,"toponymName":"Glen Hazel","countryId":"6252001","fcl":"P","population":0,"countryCode":"US","name":"Glen Hazel","fclName":"city, village,...","adminCodes1":{"ISO3166_2":"PA"},"countryName":"United States","fcodeName":"section of populated place","adminName1":"Pennsylvania","lat":"40.40729","fcode":"PPLX"},{"adminCode1":"PA","lng":"-80.07644","geonameId":5183910,"toponymName":"Chartiers","countryId":"6252001","fcl":"P","population":0,"countryCode":"US","name":"Chartiers","fclName":"city, village,...","adminCodes1":{"ISO3166_2":"PA"},"countryName":"United States","fcodeName":"section of populated place","adminName1":"Pennsylvania","lat":"40.46062","fcode":"PPLX"},{"adminCode1":"PA","lng":"-80.00061","geonameId":5184391,"toponymName":"City View","countryId":"6252001","fcl":"P","population":0,"countryCode":"US","name":"City View","fclName":"city, village,...","adminCodes1":{"ISO3166_2":"PA"},"countryName":"United States","fcodeName":"section of populated place","adminName1":"Pennsylvania","lat":"40.47535","fcode":"PPLX"},{"adminCode1":"PA","lng":"-79.98978","geonameId":5184394,"toponymName":"Civic Arena","countryId":"6252001","fcl":"S","population":0,"countryCode":"US","name":"Civic Arena","fclName":"spot, building, farm","adminCodes1":{"ISO3166_2":"PA"},"countryName":"United States","fcodeName":"building(s)","adminName1":"Pennsylvania","lat":"40.44174","fcode":"BLDG"},{"adminCode1":"PA","lng":"-79.99144","geonameId":5187752,"toponymName":"East Allegheny","countryId":"6252001","fcl":"P","population":0,"countryCode":"US","name":"East Allegheny","fclName":"city, village,...","adminCodes1":{"ISO3166_2":"PA"},"countryName":"United States","fcodeName":"section of populated place","adminName1":"Pennsylvania","lat":"40.45812","fcode":"PPLX"},{"adminCode1":"PA","lng":"-80.08394","geonameId":5189248,"toponymName":"Fairywood","countryId":"6252001","fcl":"P","population":0,"countryCode":"US","name":"Fairywood","fclName":"city, village,...","adminCodes1":{"ISO3166_2":"PA"},"countryName":"United States","fcodeName":"section of populated place","adminName1":"Pennsylvania","lat":"40.45035","fcode":"PPLX"},{"adminCode1":"PA","lng":"-80.00394","geonameId":5189572,"toponymName":"Fineview","countryId":"6252001","fcl":"P","population":0,"countryCode":"US","name":"Fineview","fclName":"city, village,...","adminCodes1":{"ISO3166_2":"PA"},"countryName":"United States","fcodeName":"section of populated place","adminName1":"Pennsylvania","lat":"40.46451","fcode":"PPLX"},{"adminCode1":"PA","lng":"-79.90838","geonameId":5197186,"toponymName":"Larimer","countryId":"6252001","fcl":"P","population":0,"countryCode":"US","name":"Larimer","fclName":"city, village,...","adminCodes1":{"ISO3166_2":"PA"},"countryName":"United States","fcodeName":"section of populated place","adminName1":"Pennsylvania","lat":"40.46257","fcode":"PPLX"},{"adminCode1":"PA","lng":"-79.91727","geonameId":5198094,"toponymName":"Lincoln Place","countryId":"6252001","fcl":"P","population":0,"countryCode":"US","name":"Lincoln Place","fclName":"city, village,...","adminCodes1":{"ISO3166_2":"PA"},"countryName":"United States","fcodeName":"section of populated place","adminName1":"Pennsylvania","lat":"40.36785","fcode":"PPLX"},{"adminCode1":"PA","lng":"-79.9969","geonameId":6489877,"toponymName":"Omni William Penn Hotel","countryId":"6252001","fcl":"S","population":0,"countryCode":"US","name":"Omni William Penn Hotel","fclName":"spot, building, farm","adminCodes1":{"ISO3166_2":"PA"},"countryName":"United States","fcodeName":"hotel","adminName1":"Pennsylvania","lat":"40.4404","fcode":"HTL"},{"adminCode1":"PA","lng":"-80.21023","geonameId":7267702,"toponymName":"Pittsburgh Airport Air Reserve Station","countryId":"6252001","fcl":"S","population":0,"countryCode":"US","name":"Pittsburgh Airport Air Reserve Station","fclName":"spot, building, farm","adminCodes1":{"ISO3166_2":"PA"},"countryName":"United States","fcodeName":"military installation","adminName1":"Pennsylvania","lat":"40.49389","fcode":"INSM"},{"adminCode1":"PA","lng":"-79.88922","geonameId":5206384,"toponymName":"Pittsburgh Field Club","countryId":"6252001","fcl":"S","population":0,"countryCode":"US","name":"Pittsburgh Field Club","fclName":"spot, building, farm","adminCodes1":{"ISO3166_2":"PA"},"countryName":"United States","fcodeName":"","adminName1":"Pennsylvania","lat":"40.51312"},{"adminCode1":"PA","lng":"-79.66505","geonameId":5216773,"toponymName":"University of Pittsburgh at Titusville","countryId":"6252001","fcl":"S","population":0,"countryCode":"US","name":"University of Pittsburgh at Titusville","fclName":"spot, building, farm","adminCodes1":{"ISO3166_2":"PA"},"countryName":"United States","fcodeName":"school","adminName1":"Pennsylvania","lat":"41.62895","fcode":"SCH"},{"adminCode1":"PA","lng":"-79.80282","geonameId":5217647,"toponymName":"WTAE-TV (Pittsburgh)","countryId":"6252001","fcl":"S","population":0,"countryCode":"US","name":"WTAE-TV (Pittsburgh)","fclName":"spot, building, farm","adminCodes1":{"ISO3166_2":"PA"},"countryName":"United States","fcodeName":"tower","adminName1":"Pennsylvania","lat":"40.28035","fcode":"TOWR"}]}
