{"totalResultsCount":797,"geonames":[{"adminCode1":"IN","lng":"-86.89503","geonameId":4923531,"toponymName":"Michigan City","countryId":"6252001","fcl":"P","population":31459,"countryCode":"US","name":"Michigan City","fclName":"city, village,...","adminCodes1":{"ISO3166_2":"IN"},"countryName":"United States","fcodeName":"populated place","adminName1":"Indiana","lat":"41.70754","fcode":"PPL"},{"adminCode1":"PA","lng":"-80.21617","geonameId":5206946,"toponymName":"Port Meadville Airport","countryId":"6252001","fcl":"S","population":0,"countryCode":"US","name":"Port Meadville Airport","fclName":"spot, building, farm","adminCodes1":{"ISO3166_2":"PA"},"countryName":"United States","fcodeName":"airport","adminName1":"Pennsylvania","lat":"41.62589","fcode":"AIRP"},{"adminCode1":"IL","lng":"-87.80034","geonameId":4895876,"toponymName":"Highland Park","countryId":"6252001","fcl":"P","population":29743,"countryCode":"US","name":"Highland Park","fclName":"city, village,...","adminCodes1":{"ISO3166_2":"IL"},"countryName":"United States","fcodeName":"populated place","adminName1":"Illinois","lat":"42.18169","fcode":"PPL"},{"adminCode1":"OH","lng":"-82.88379","geonameId":4513425,"toponymName":"Groveport","countryId":"6252001","fcl":"P","population":5737,"countryCode":"US","name":"Groveport","fclName":"city, village,...","adminCodes1":{"ISO3166_2":"OH"},"countryName":"United States","fcodeName":"populated place","adminName1":"Ohio","lat":"39.8784","fcode":"PPL"},{"adminCode1":"IN","lng":"-86.73753","geonameId":4922456,"toponymName":"La Porte Municipal Airport","countryId":"6252001","fcl":"S","population":0,"countryCode":"US","name":"La Porte Municipal Airport","fclName":"spot, building, farm","adminCodes1":{"ISO3166_2":"IN"},"countryName":"United States","fcodeName":"airport","adminName1":"Indiana","lat":"41.57154","fcode":"AIRP"},{"adminCode1":"MO","lng":"-90.36591","geonameId":4394516,"toponymName":"Lambert–St. Louis International Airport","countryId":"6252001","fcl":"S","population":0,"countryCode":"US","name":"Lambert–St. Louis International Airport","fclName":"spot, building, farm","adminCodes1":{"ISO3166_2":"MO"},"countryName":"United States","fcodeName":"airport","adminName1":"Missouri","lat":"38.74321","fcode":"AIRP"},{"adminCode1":"MO","lng":"-94.71775","geonameId":4393219,"toponymName":"Kansas City International Airport","countryId":"6252001","fcl":"S","population":0,"countryCode":"US","name":"Kansas City International Airport","fclName":"spot, building, farm","adminCodes1":{"ISO3166_2":"MO"},"countryName":"United States","fcodeName":"airport","adminName1":"Missouri","lat":"39.29623","fcode":"AIRP"},{"adminCode1":"IN","lng":"-86.29762","geonameId":4259427,"toponymName":"Indianapolis International Airport","countryId":"6252001","fcl":"S","population":0,"countryCode":"US","name":"Indianapolis International Airport","fclName":"spot, building, farm","adminCodes1":{"ISO3166_2":"IN"},"countryName":"United States","fcodeName":"airport","adminName1":"Indiana","lat":"39.71507","fcode":"AIRP"},{"adminCode1":"IL","lng":"-90.33541","geonameId":4906491,"toponymName":"Port Byron","countryId":"6252001","fcl":"P","population":1649,"countryCode":"US","name":"Port Byron","fclName":"city, village,...","adminCodes1":{"ISO3166_2":"IL"},"countryName":"United States","fcodeName":"populated place","adminName1":"Illinois","lat":"41.60642","fcode":"PPL"},{"adminCode1":"ME","lng":"-70.47672","geonameId":4968747,"toponymName":"Kennebunkport","countryId":"6252001","fcl":"P","population":1238,"countryCode":"US","name":"Kennebunkport","fclName":"city, village,...","adminCodes1":{"ISO3166_2":"ME"},"countryName":"United States","fcodeName":"populated place","adminName1":"Maine","lat":"43.36175","fcode":"PPL"},{"adminCode1":"OH","lng":"-83.78631","geonameId":4521782,"toponymName":"Port William","countryId":"6252001","fcl":"P","population":254,"countryCode":"US","name":"Port William","fclName":"city, village,...","adminCodes1":{"ISO3166_2":"OH"},"countryName":"United States","fcodeName":"populated place","adminName1":"Ohio","lat":"39.55201","fcode":"PPL"},{"adminCode1":"MI","lng":"-82.99411","geonameId":5006221,"toponymName":"Port Austin","countryId":"6252001","fcl":"P","population":642,"countryCode":"US","name":"Port Austin","fclName":"city, village,...","adminCodes1":{"ISO3166_2":"MI"},"countryName":"United States","fcodeName":"populated place","adminName1":"Michigan","lat":"44.04613","fcode":"PPL"},{"adminCode1":"IN","lng":"-86.71389","geonameId":8449910,"toponymName":"La Porte","countryId":"6252001","fcl":"P","population":21916,"countryCode":"US","name":"La Porte","fclName":"city, village,...","adminCodes1":{"ISO3166_2":"IN"},"countryName":"United States","fcodeName":"populated place","adminName1":"Indiana","lat":"41.60774","fcode":"PPL"},{"adminCode1":"PA","lng":"-80.25547","geonameId":5191803,"toponymName":"Pittsburgh International Airport","countryId":"6252001","fcl":"S","population":0,"countryCode":"US","name":"Pittsburgh International Airport","fclName":"spot, building, farm","adminCodes1":{"ISO3166_2":"PA"},"countryName":"United States","fcodeName":"airport","adminName1":"Pennsylvania","lat":"40.49608","fcode":"AIRP"},{"adminCode1":"MO","lng":"-95.51693","geonameId":5057058,"toponymName":"Rock Port","countryId":"6252001","fcl":"P","population":1232,"countryCode":"US","name":"Rock Port","fclName":"city, village,...","adminCodes1":{"ISO3166_2":"MO"},"countryName":"United States","fcodeName":"seat of a second-order administrative division","adminName1":"Missouri","lat":"40.41111","fcode":"PPLA2"},{"adminCode1":"IA","lng":"-93.6586","geonameId":4853851,"toponymName":"Des Moines International Airport","countryId":"6252001","fcl":"S","population":0,"countryCode":"US","name":"Des Moines International Airport","fclName":"spot, building, farm","adminCodes1":{"ISO3166_2":"IA"},"countryName":"United States","fcodeName":"airport","adminName1":"Iowa","lat":"41.53934","fcode":"AIRP"},{"adminCode1":"OH","lng":"-84.09439","geonameId":5167269,"toponymName":"Port Jefferson","countryId":"6252001","fcl":"P","population":359,"countryCode":"US","name":"Port Jefferson","fclName":"city, village,...","adminCodes1":{"ISO3166_2":"OH"},"countryName":"United States","fcodeName":"populated place","adminName1":"Ohio","lat":"40.32866","fcode":"PPL"},{"adminCode1":"OH","lng":"-81.52067","geonameId":5167275,"toponymName":"Port Washington","countryId":"6252001","fcl":"P","population":570,"countryCode":"US","name":"Port Washington","fclName":"city, village,...","adminCodes1":{"ISO3166_2":"OH"},"countryName":"United States","fcodeName":"populated place","adminName1":"Ohio","lat":"40.32812","fcode":"PPL"},{"adminCode1":"NJ","lng":"-75.03518","geonameId":4503681,"toponymName":"Port Norris","countryId":"6252001","fcl":"P","population":1377,"countryCode":"US","name":"Port Norris","fclName":"city, village,...","adminCodes1":{"ISO3166_2":"NJ"},"countryName":"United States","fcodeName":"populated place","adminName1":"New Jersey","lat":"39.24595","fcode":"PPL"},{"adminCode1":"NJ","lng":"-74.57654","geonameId":4500551,"toponymName":"Atlantic City International Airport","countryId":"6252001","fcl":"S","population":0,"countryCode":"US","name":"Atlantic City International Airport","fclName":"spot, building, farm","adminCodes1":{"ISO3166_2":"NJ"},"countryName":"United States","fcodeName":"airport","adminName1":"New Jersey","lat":"39.45762","fcode":"AIRP"},{"adminCode1":"MI","lng":"-82.47941","geonameId":5006240,"toponymName":"Charter Township of Port Huron","countryId":"6252001","fcl":"A","population":0,"countryCode":"US","name":"Charter Township of Port Huron","fclName":"country, state, region,...","adminCodes1":{"ISO3166_2":"MI"},"countryName":"United States","fcodeName":"third-order administrative division","adminName1":"Michigan","lat":"42.97637","fcode":"ADM3"},{"adminCode1":"MI","lng":"-82.71271","geonameId":5006232,"toponymName":"Port Hope","countryId":"6252001","fcl":"P","population":257,"countryCode":"US","name":"Port Hope","fclName":"city, village,...","adminCodes1":{"ISO3166_2":"MI"},"countryName":"United States","fcodeName":"populated place","adminName1":"Michigan","lat":"43.94084","fcode":"PPL"},{"adminCode1":"MI","lng":"-82.54242","geonameId":5006244,"toponymName":"Port Sanilac","countryId":"6252001","fcl":"P","population":604,"countryCode":"US","name":"Port Sanilac","fclName":"city, village,...","adminCodes1":{"ISO3166_2":"MI"},"countryName":"United States","fcodeName":"populated place","adminName1":"Michigan","lat":"43.43086","fcode":"PPL"},{"adminCode1":"MI","lng":"-83.37329","geonameId":4985208,"toponymName":"Bay Port","countryId":"6252001","fcl":"P","population":477,"countryCode":"US","name":"Bay Port","fclName":"city, village,...","adminCodes1":{"ISO3166_2":"MI"},"countryName":"United States","fcodeName":"populated place","adminName1":"Michigan","lat":"43.84946","fcode":"PPL"},{"adminCode1":"ME","lng":"-69.25282","geonameId":4975774,"toponymName":"Port Clyde","countryId":"6252001","fcl":"P","population":0,"countryCode":"US","name":"Port Clyde","fclName":"city, village,...","adminCodes1":{"ISO3166_2":"ME"},"countryName":"United States","fcodeName":"populated place","adminName1":"Maine","lat":"43.92731","fcode":"PPL"},{"adminCode1":"IA","lng":"-92.19213","geonameId":4863820,"toponymName":"La Porte City","countryId":"6252001","fcl":"P","population":2290,"countryCode":"US","name":"La Porte City","fclName":"city, village,...","adminCodes1":{"ISO3166_2":"IA"},"countryName":"United States","fcodeName":"populated place","adminName1":"Iowa","lat":"42.31499","fcode":"PPL"},{"adminCode1":"IN","lng":"-86.89836","geonameId":4927832,"toponymName":"Wanatah","countryId":"6252001","fcl":"P","population":1024,"countryCode":"US","name":"Wanatah","fclName":"city, village,...","adminCodes1":{"ISO3166_2":"IN"},"countryName":"United States","fcodeName":"populated place","adminName1":"Indiana","lat":"41.4306","fcode":"PPL"},{"adminCode1":"IN","lng":"-86.90058","geonameId":4928145,"toponymName":"Westville","countryId":"6252001","fcl":"P","population":5662,"countryCode":"US","name":"Westville","fclName":"city, village,...","adminCodes1":{"ISO3166_2":"IN"},"countryName":"United States","fcodeName":"populated place","adminName1":"Indiana","lat":"41.54143","fcode":"PPL"},{"adminCode1":"IN","lng":"-86.69169","geonameId":4922329,"toponymName":"Kingsford Heights","countryId":"6252001","fcl":"P","population":1421,"countryCode":"US","name":"Kingsford Heights","fclName":"city, village,...","adminCodes1":{"ISO3166_2":"IN"},"countryName":"United States","fcodeName":"populated place","adminName1":"Indiana","lat":"41.4806","fcode":"PPL"},{"adminCode1":"IN","lng":"-86.72252","geonameId":4922459,"toponymName":"LaPorte","countryId":"6252001","fcl":"P","population":22053,"countryCode":"US","name":"LaPorte","fclName":"city, village,...","adminCodes1":{"ISO3166_2":"IN"},"countryName":"United States","fcodeName":"populated place","adminName1":"Indiana","lat":"41.6106","fcode":"PPL"},{"adminCode1":"NJ","lng":"-74.26042","geonameId":5102863,"toponymName":"Port Reading","countryId":"6252001","fcl":"P","population":3728,"countryCode":"US","name":"Port Reading","fclName":"city, village,...","adminCodes1":{"ISO3166_2":"NJ"},"countryName":"United States","fcodeName":"populated place","adminName1":"New Jersey","lat":"40.56538","fcode":"PPL"},{"adminCode1":"NJ","lng":"-74.09847","geonameId":5102853,"toponymName":"Port Monmouth","countryId":"6252001","fcl":"P","population":3818,"countryCode":"US","name":"Port Monmouth","fclName":"city, village,...","adminCodes1":{"ISO3166_2":"NJ"},"countryName":"United States","fcodeName":"populated place","adminName1":"New Jersey","lat":"40.43011","fcode":"PPL"},{"adminCode1":"IL","lng":"-88.20203","geonameId":4906490,"toponymName":"Port Barrington","countryId":"6252001","fcl":"P","population":1504,"countryCode":"US","name":"Port Barrington","fclName":"city, village,...","adminCodes1":{"ISO3166_2":"IL"},"countryName":"United States","fcodeName":"populated place","adminName1":"Illinois","lat":"42.24252","fcode":"PPL"},{"adminCode1":"KS","lng":"-95.03274","geonameId":4277580,"toponymName":"Port Williams","countryId":"6252001","fcl":"P","population":0,"countryCode":"US","name":"Port Williams","fclName":"city, village,...","adminCodes1":{"ISO3166_2":"KS"},"countryName":"United States","fcodeName":"populated place","adminName1":"Kansas","lat":"39.45639","fcode":"PPL"},{"adminCode1":"MO","lng":"-95.60054","geonameId":5057059,"toponymName":"Rock Port Municipal Airport","countryId":"6252001","fcl":"S","population":0,"countryCode":"US","name":"Rock Port Municipal Airport","fclName":"spot, building, farm","adminCodes1":{"ISO3166_2":"MO"},"countryName":"United States","fcodeName":"airport","adminName1":"Missouri","lat":"40.40445","fcode":"AIRP"},{"adminCode1":"IN","lng":"-85.43887","geonameId":4925001,"toponymName":"Port Mitchell","countryId":"6252001","fcl":"P","population":0,"countryCode":"US","name":"Port Mitchell","fclName":"city, village,...","adminCodes1":{"ISO3166_2":"IN"},"countryName":"United States","fcodeName":"populated place","adminName1":"Indiana","lat":"41.36199","fcode":"PPL"},{"adminCode1":"PA","lng":"-76.86608","geonameId":5206971,"toponymName":"Port Trevorton","countryId":"6252001","fcl":"P","population":769,"countryCode":"US","name":"Port Trevorton","fclName":"city, village,...","adminCodes1":{"ISO3166_2":"PA"},"countryName":"United States","fcodeName":"populated place","adminName1":"Pennsylvania","lat":"40.70731","fcode":"PPL"},{"adminCode1":"PA","lng":"-75.56339","geonameId":5182579,"toponymName":"Butter Valley Golf Port Airport","countryId":"6252001","fcl":"S","population":0,"countryCode":"US","name":"Butter Valley Golf Port Airport","fclName":"spot, building, farm","adminCodes1":{"ISO3166_2":"PA"},"countryName":"United States","fcodeName":"airport","adminName1":"Pennsylvania","lat":"40.39778","fcode":"AIRP"},{"adminCode1":"NJ","lng":"-74.916","geonameId":5102858,"toponymName":"Port Murray","countryId":"6252001","fcl":"P","population":129,"countryCode":"US","name":"Port Murray","fclName":"city, village,...","adminCodes1":{"ISO3166_2":"NJ"},"countryName":"United States","fcodeName":"populated place","adminName1":"New Jersey","lat":"40.78565","fcode":"PPL"},{"adminCode1":"IA","lng":"-91.12809","geonameId":4871844,"toponymName":"Township of Port Louisa","countryId":"6252001","fcl":"A","population":0,"countryCode":"US","name":"Port Louisa Township","fclName":"country, state, region,...","adminCodes1":{"ISO3166_2":"IA"},"countryName":"United States","fcodeName":"third-order administrative division","adminName1":"Iowa","lat":"41.25354","fcode":"ADM3"},{"adminCode1":"MN","lng":"-94.7397","geonameId":5042118,"toponymName":"Township of Port Hope","countryId":"6252001","fcl":"A","population":0,"countryCode":"US","name":"Port Hope Township","fclName":"country, state, region,...","adminCodes1":{"ISO3166_2":"MN"},"countryName":"United States","fcodeName":"third-order administrative division","adminName1":"Minnesota","lat":"47.62575","fcode":"ADM3"},{"adminCode1":"MI","lng":"-82.99347","geonameId":5006225,"toponymName":"Township of Port Austin","countryId":"6252001","fcl":"A","population":0,"countryCode":"US","name":"Port Austin Township","fclName":"country, state, region,...","adminCodes1":{"ISO3166_2":"MI"},"countryName":"United States","fcodeName":"third-order administrative division","adminName1":"Michigan","lat":"44.0417","fcode":"ADM3"},{"adminCode1":"MI","lng":"-86.17794","geonameId":5006248,"toponymName":"Township of Port Sheldon","countryId":"6252001","fcl":"A","population":0,"countryCode":"US","name":"Port Sheldon Township","fclName":"country, state, region,...","adminCodes1":{"ISO3166_2":"MI"},"countryName":"United States","fcodeName":"third-order administrative division","adminName1":"Michigan","lat":"42.89961","fcode":"ADM3"},{"adminCode1":"OH","lng":"-84.38995","geonameId":5161096,"toponymName":"Lock Port","countryId":"6252001","fcl":"P","population":0,"countryCode":"US","name":"Lock Port","fclName":"city, village,...","adminCodes1":{"ISO3166_2":"OH"},"countryName":"United States","fcodeName":"populated place","adminName1":"Ohio","lat":"41.54977","fcode":"PPL"},{"adminCode1":"IL","lng":"-89.90261","geonameId":4889996,"toponymName":"Doerings Port Airport","countryId":"6252001","fcl":"S","population":0,"countryCode":"US","name":"Doerings Port Airport","fclName":"spot, building, farm","adminCodes1":{"ISO3166_2":"IL"},"countryName":"United States","fcodeName":"airport","adminName1":"Illinois","lat":"41.68559","fcode":"AIRP"},{"adminCode1":"OH","lng":"-81.7518","geonameId":4514379,"toponymName":"Hockingport","countryId":"6252001","fcl":"P","population":212,"countryCode":"US","name":"Hockingport","fclName":"city, village,...","adminCodes1":{"ISO3166_2":"OH"},"countryName":"United States","fcodeName":"populated place","adminName1":"Ohio","lat":"39.18813","fcode":"PPL"},{"adminCode1":"OH","lng":"-82.04875","geonameId":4518257,"toponymName":"Middleport","countryId":"6252001","fcl":"P","population":2474,"countryCode":"US","name":"Middleport","fclName":"city, village,...","adminCodes1":{"ISO3166_2":"OH"},"countryName":"United States","fcodeName":"populated place","adminName1":"Ohio","lat":"39.00175","fcode":"PPL"},{"adminCode1":"MO","lng":"-90.8168","geonameId":4388632,"toponymName":"Gray Summit","countryId":"6252001","fcl":"P","population":2701,"countryCode":"US","name":"Gray Summit","fclName":"city, village,...","adminCodes1":{"ISO3166_2":"MO"},"countryName":"United States","fcodeName":"populated place","adminName1":"Missouri","lat":"38.48978","fcode":"PPL"},{"adminCode1":"AR","lng":"-91.2818","geonameId":4123830,"toponymName":"Newport","countryId":"6252001","fcl":"P","population":7767,"countryCode":"US","name":"Newport","fclName":"city, village,...","adminCodes1":{"ISO3166_2":"AR"},"countryName":"United States","fcodeName":"seat of a second-order administrative division","adminName1":"Arkansas","lat":"35.6048","fcode":"PPLA2"},{"adminCode1":"OH","lng":"-83.14659","geonameId":5165215,"toponymName":"Oak Harbor","countryId":"6252001","fcl":"P","population":2715,"countryCode":"US","name":"Oak Harbor","fclName":"city, village,...","adminCodes1":{"ISO3166_2":"OH"},"countryName":"United States","fcodeName":"populated place","adminName1":"Ohio","lat":"41.50672","fcode":"PPL"},{"adminCode1":"OH","lng":"-84.46328","geonameId":4521778,"toponymName":"Port Union","countryId":"6252001","fcl":"P","population":0,"countryCode":"US","name":"Port Union","fclName":"city, village,...","adminCodes1":{"ISO3166_2":"OH"},"countryName":"United States","fcodeName":"populated place","adminName1":"Ohio","lat":"39.33284","fcode":"PPL"},{"adminCode1":"AR","lng":"-91.30957","geonameId":4116311,"toponymName":"Jacksonport","countryId":"6252001","fcl":"P","population":203,"countryCode":"US","name":"Jacksonport","fclName":"city, village,...","adminCodes1":{"ISO3166_2":"AR"},"countryName":"United States","fcodeName":"populated place","adminName1":"Arkansas","lat":"35.64175","fcode":"PPL"},{"adminCode1":"IN","lng":"-86.55196","geonameId":4920327,"toponymName":"Fish Lake","countryId":"6252001","fcl":"P","population":1016,"countryCode":"US","name":"Fish Lake","fclName":"city, village,...","adminCodes1":{"ISO3166_2":"IN"},"countryName":"United States","fcodeName":"populated place","adminName1":"Indiana","lat":"41.56671","fcode":"PPL"},{"adminCode1":"IN","lng":"-86.78002","geonameId":4921135,"toponymName":"Hanna","countryId":"6252001","fcl":"P","population":463,"countryCode":"US","name":"Hanna","fclName":"city, village,...","adminCodes1":{"ISO3166_2":"IN"},"countryName":"United States","fcodeName":"populated place","adminName1":"Indiana","lat":"41.41199","fcode":"PPL"},{"adminCode1":"IN","lng":"-86.8592","geonameId":4927291,"toponymName":"Trail Creek","countryId":"6252001","fcl":"P","population":2029,"countryCode":"US","name":"Trail Creek","fclName":"city, village,...","adminCodes1":{"ISO3166_2":"IN"},"countryName":"United States","fcodeName":"populated place","adminName1":"Indiana","lat":"41.69837","fcode":"PPL"},{"adminCode1":"IN","lng":"-86.77752","geonameId":4927458,"toponymName":"Union Mills","countryId":"6252001","fcl":"P","population":0,"countryCode":"US","name":"Union Mills","fclName":"city, village,...","adminCodes1":{"ISO3166_2":"IN"},"countryName":"United States","fcodeName":"populated place","adminName1":"Indiana","lat":"41.4931","fcode":"PPL"},{"adminCode1":"IN","lng":"-86.89613","geonameId":4928235,"toponymName":"Wilders","countryId":"6252001","fcl":"P","population":0,"countryCode":"US","name":"Wilders","fclName":"city, village,...","adminCodes1":{"ISO3166_2":"IN"},"countryName":"United States","fcodeName":"populated place","adminName1":"Indiana","lat":"41.26671","fcode":"PPL"},{"adminCode1":"IN","lng":"-86.70002","geonameId":4922323,"toponymName":"Kingsbury","countryId":"6252001","fcl":"P","population":245,"countryCode":"US","name":"Kingsbury","fclName":"city, village,...","adminCodes1":{"ISO3166_2":"IN"},"countryName":"United States","fcodeName":"populated place","adminName1":"Indiana","lat":"41.52754","fcode":"PPL"},{"adminCode1":"IN","lng":"-86.89141","geonameId":4922450,"toponymName":"La Crosse","countryId":"6252001","fcl":"P","population":537,"countryCode":"US","name":"La Crosse","fclName":"city, village,...","adminCodes1":{"ISO3166_2":"IN"},"countryName":"United States","fcodeName":"populated place","adminName1":"Indiana","lat":"41.31754","fcode":"PPL"},{"adminCode1":"IN","lng":"-86.85697","geonameId":4922979,"toponymName":"Long Beach","countryId":"6252001","fcl":"P","population":1162,"countryCode":"US","name":"Long Beach","fclName":"city, village,...","adminCodes1":{"ISO3166_2":"IN"},"countryName":"United States","fcodeName":"populated place","adminName1":"Indiana","lat":"41.73893","fcode":"PPL"},{"adminCode1":"IN","lng":"-86.61585","geonameId":4925559,"toponymName":"Rolling Prairie","countryId":"6252001","fcl":"P","population":582,"countryCode":"US","name":"Rolling Prairie","fclName":"city, village,...","adminCodes1":{"ISO3166_2":"IN"},"countryName":"United States","fcodeName":"populated place","adminName1":"Indiana","lat":"41.67088","fcode":"PPL"},{"adminCode1":"PA","lng":"-79.05087","geonameId":5206929,"toponymName":"Port Barnett","countryId":"6252001","fcl":"P","population":0,"countryCode":"US","name":"Port Barnett","fclName":"city, village,...","adminCodes1":{"ISO3166_2":"PA"},"countryName":"United States","fcodeName":"populated place","adminName1":"Pennsylvania","lat":"41.15645","fcode":"PPL"},{"adminCode1":"MO","lng":"-91.25404","geonameId":4404265,"toponymName":"Port Hudson","countryId":"6252001","fcl":"P","population":0,"countryCode":"US","name":"Port Hudson","fclName":"city, village,...","adminCodes1":{"ISO3166_2":"MO"},"countryName":"United States","fcodeName":"populated place","adminName1":"Missouri","lat":"38.45394","fcode":"PPL"},{"adminCode1":"IL","lng":"-87.77836","geonameId":4247404,"toponymName":"Port Jackson","countryId":"6252001","fcl":"P","population":0,"countryCode":"US","name":"Port Jackson","fclName":"city, village,...","adminCodes1":{"ISO3166_2":"IL"},"countryName":"United States","fcodeName":"populated place","adminName1":"Illinois","lat":"38.86366","fcode":"PPL"},{"adminCode1":"IN","lng":"-85.72024","geonameId":4263293,"toponymName":"Port Fulton","countryId":"6252001","fcl":"P","population":0,"countryCode":"US","name":"Port Fulton","fclName":"city, village,...","adminCodes1":{"ISO3166_2":"IN"},"countryName":"United States","fcodeName":"populated place","adminName1":"Indiana","lat":"38.28201","fcode":"PPL"},{"adminCode1":"OH","lng":"-80.64007","geonameId":5167267,"toponymName":"Port Homer","countryId":"6252001","fcl":"P","population":0,"countryCode":"US","name":"Port Homer","fclName":"city, village,...","adminCodes1":{"ISO3166_2":"OH"},"countryName":"United States","fcodeName":"populated place","adminName1":"Ohio","lat":"40.54395","fcode":"PPL"},{"adminCode1":"NJ","lng":"-74.98101","geonameId":4503680,"toponymName":"Port Elizabeth","countryId":"6252001","fcl":"P","population":0,"countryCode":"US","name":"Port Elizabeth","fclName":"city, village,...","adminCodes1":{"ISO3166_2":"NJ"},"countryName":"United States","fcodeName":"populated place","adminName1":"New Jersey","lat":"39.31345","fcode":"PPL"},{"adminCode1":"MI","lng":"-82.91434","geonameId":8096428,"toponymName":"Grindstone Air Harbor Airport","countryId":"6252001","fcl":"S","population":0,"countryCode":"US","name":"Grindstone Air Harbor Airport","fclName":"spot, building, farm","adminCodes1":{"ISO3166_2":"MI"},"countryName":"United States","fcodeName":"airport","adminName1":"Michigan","lat":"44.04378","fcode":"AIRP"},{"adminCode1":"IL","lng":"-90.33321","geonameId":4906493,"toponymName":"Township of Port Byron","countryId":"6252001","fcl":"A","population":0,"countryCode":"US","name":"Port Byron Township","fclName":"country, state, region,...","adminCodes1":{"ISO3166_2":"IL"},"countryName":"United States","fcodeName":"third-order administrative division","adminName1":"Illinois","lat":"41.62568","fcode":"ADM3"},{"adminCode1":"MO","lng":"-92.56407","geonameId":4405992,"toponymName":"Rocheport","countryId":"6252001","fcl":"P","population":249,"countryCode":"US","name":"Rocheport","fclName":"city, village,...","adminCodes1":{"ISO3166_2":"MO"},"countryName":"United States","fcodeName":"populated place","adminName1":"Missouri","lat":"38.98003","fcode":"PPL"},{"adminCode1":"OH","lng":"-83.01575","geonameId":5167969,"toponymName":"Republic","countryId":"6252001","fcl":"P","population":537,"countryCode":"US","name":"Republic","fclName":"city, village,...","adminCodes1":{"ISO3166_2":"OH"},"countryName":"United States","fcodeName":"populated place","adminName1":"Ohio","lat":"41.122","fcode":"PPL"},{"adminCode1":"PA","lng":"-75.81047","geonameId":5206939,"toponymName":"Port Griffith","countryId":"6252001","fcl":"P","population":0,"countryCode":"US","name":"Port Griffith","fclName":"city, village,...","adminCodes1":{"ISO3166_2":"PA"},"countryName":"United States","fcodeName":"populated place","adminName1":"Pennsylvania","lat":"41.31091","fcode":"PPL"},{"adminCode1":"PA","lng":"-79.84949","geonameId":5206947,"toponymName":"Port Perry","countryId":"6252001","fcl":"P","population":0,"countryCode":"US","name":"Port Perry","fclName":"city, village,...","adminCodes1":{"ISO3166_2":"PA"},"countryName":"United States","fcodeName":"populated place","adminName1":"Pennsylvania","lat":"40.3909","fcode":"PPL"},{"adminCode1":"PA","lng":"-75.49269","geonameId":5206949,"toponymName":"Port Providence","countryId":"6252001","fcl":"P","population":0,"countryCode":"US","name":"Port Providence","fclName":"city, village,...","adminCodes1":{"ISO3166_2":"PA"},"countryName":"United States","fcodeName":"populated place","adminName1":"Pennsylvania","lat":"40.12816","fcode":"PPL"},{"adminCode1":"ME","lng":"-70.47783","geonameId":4956893,"toponymName":"Arundel","countryId":"6252001","fcl":"P","population":3571,"countryCode":"US","name":"Arundel","fclName":"city, village,...","adminCodes1":{"ISO3166_2":"ME"},"countryName":"United States","fcodeName":"populated place","adminName1":"Maine","lat":"43.38259","fcode":"PPL"},{"adminCode1":"IN","lng":"-86.90308","geonameId":4917545,"toponymName":"Alida","countryId":"6252001","fcl":"P","population":0,"countryCode":"US","name":"Alida","fclName":"city, village,...","adminCodes1":{"ISO3166_2":"IN"},"countryName":"United States","fcodeName":"populated place","adminName1":"Indiana","lat":"41.5106","fcode":"PPL"},{"adminCode1":"IN","lng":"-86.89392","geonameId":4917902,"toponymName":"Beattys Corner","countryId":"6252001","fcl":"P","population":0,"countryCode":"US","name":"Beattys Corner","fclName":"city, village,...","adminCodes1":{"ISO3166_2":"IN"},"countryName":"United States","fcodeName":"populated place","adminName1":"Indiana","lat":"41.62226","fcode":"PPL"},{"adminCode1":"IN","lng":"-86.6028","geonameId":4918151,"toponymName":"Birchim","countryId":"6252001","fcl":"P","population":0,"countryCode":"US","name":"Birchim","fclName":"city, village,...","adminCodes1":{"ISO3166_2":"IN"},"countryName":"United States","fcodeName":"populated place","adminName1":"Indiana","lat":"41.71032","fcode":"PPL"},{"adminCode1":"IN","lng":"-86.62474","geonameId":4918609,"toponymName":"Byron","countryId":"6252001","fcl":"P","population":0,"countryCode":"US","name":"Byron","fclName":"city, village,...","adminCodes1":{"ISO3166_2":"IN"},"countryName":"United States","fcodeName":"populated place","adminName1":"Indiana","lat":"41.65615","fcode":"PPL"},{"adminCode1":"IN","lng":"-86.76891","geonameId":4919721,"toponymName":"Door Village","countryId":"6252001","fcl":"P","population":0,"countryCode":"US","name":"Door Village","fclName":"city, village,...","adminCodes1":{"ISO3166_2":"IN"},"countryName":"United States","fcodeName":"populated place","adminName1":"Indiana","lat":"41.57476","fcode":"PPL"},{"adminCode1":"IN","lng":"-86.83336","geonameId":4919786,"toponymName":"Duneland Beach","countryId":"6252001","fcl":"P","population":0,"countryCode":"US","name":"Duneland Beach","fclName":"city, village,...","adminCodes1":{"ISO3166_2":"IN"},"countryName":"United States","fcodeName":"populated place","adminName1":"Indiana","lat":"41.75615","fcode":"PPL"},{"adminCode1":"IN","lng":"-86.58224","geonameId":4921095,"toponymName":"Hamlet","countryId":"6252001","fcl":"P","population":800,"countryCode":"US","name":"Hamlet","fclName":"city, village,...","adminCodes1":{"ISO3166_2":"IN"},"countryName":"United States","fcodeName":"populated place","adminName1":"Indiana","lat":"41.54754","fcode":"PPL"},{"adminCode1":"IN","lng":"-86.90197","geonameId":4921246,"toponymName":"Haskell","countryId":"6252001","fcl":"P","population":0,"countryCode":"US","name":"Haskell","fclName":"city, village,...","adminCodes1":{"ISO3166_2":"IN"},"countryName":"United States","fcodeName":"populated place","adminName1":"Indiana","lat":"41.48393","fcode":"PPL"},{"adminCode1":"IN","lng":"-86.66086","geonameId":4921361,"toponymName":"Hesston","countryId":"6252001","fcl":"P","population":0,"countryCode":"US","name":"Hesston","fclName":"city, village,...","adminCodes1":{"ISO3166_2":"IN"},"countryName":"United States","fcodeName":"populated place","adminName1":"Indiana","lat":"41.75282","fcode":"PPL"},{"adminCode1":"IN","lng":"-86.88114","geonameId":4921539,"toponymName":"Holmesville","countryId":"6252001","fcl":"P","population":0,"countryCode":"US","name":"Holmesville","fclName":"city, village,...","adminCodes1":{"ISO3166_2":"IN"},"countryName":"United States","fcodeName":"populated place","adminName1":"Indiana","lat":"41.59976","fcode":"PPL"},{"adminCode1":"IN","lng":"-86.62196","geonameId":4926096,"toponymName":"Salem Heights","countryId":"6252001","fcl":"P","population":0,"countryCode":"US","name":"Salem Heights","fclName":"city, village,...","adminCodes1":{"ISO3166_2":"IN"},"countryName":"United States","fcodeName":"populated place","adminName1":"Indiana","lat":"41.57477","fcode":"PPL"},{"adminCode1":"IN","lng":"-86.66919","geonameId":4926502,"toponymName":"Smith","countryId":"6252001","fcl":"P","population":0,"countryCode":"US","name":"Smith","fclName":"city, village,...","adminCodes1":{"ISO3166_2":"IN"},"countryName":"United States","fcodeName":"populated place","adminName1":"Indiana","lat":"41.71088","fcode":"PPL"},{"adminCode1":"IN","lng":"-86.64002","geonameId":4926582,"toponymName":"South Center","countryId":"6252001","fcl":"P","population":0,"countryCode":"US","name":"South Center","fclName":"city, village,...","adminCodes1":{"ISO3166_2":"IN"},"countryName":"United States","fcodeName":"populated place","adminName1":"Indiana","lat":"41.47643","fcode":"PPL"},{"adminCode1":"IN","lng":"-86.89919","geonameId":4926627,"toponymName":"South Wanatah","countryId":"6252001","fcl":"P","population":0,"countryCode":"US","name":"South Wanatah","fclName":"city, village,...","adminCodes1":{"ISO3166_2":"IN"},"countryName":"United States","fcodeName":"populated place","adminName1":"Indiana","lat":"41.40587","fcode":"PPL"},{"adminCode1":"IN","lng":"-86.77753","geonameId":4926718,"toponymName":"Springfield","countryId":"6252001","fcl":"P","population":0,"countryCode":"US","name":"Springfield","fclName":"city, village,...","adminCodes1":{"ISO3166_2":"IN"},"countryName":"United States","fcodeName":"populated place","adminName1":"Indiana","lat":"41.71532","fcode":"PPL"},{"adminCode1":"IN","lng":"-86.6028","geonameId":4926817,"toponymName":"Stillwell","countryId":"6252001","fcl":"P","population":0,"countryCode":"US","name":"Stillwell","fclName":"city, village,...","adminCodes1":{"ISO3166_2":"IN"},"countryName":"United States","fcodeName":"populated place","adminName1":"Indiana","lat":"41.55588","fcode":"PPL"},{"adminCode1":"IN","lng":"-86.69002","geonameId":4927105,"toponymName":"Tee Lake","countryId":"6252001","fcl":"P","population":0,"countryCode":"US","name":"Tee Lake","fclName":"city, village,...","adminCodes1":{"ISO3166_2":"IN"},"countryName":"United States","fcodeName":"populated place","adminName1":"Indiana","lat":"41.71699","fcode":"PPL"},{"adminCode1":"IN","lng":"-86.81419","geonameId":4927173,"toponymName":"Thomaston","countryId":"6252001","fcl":"P","population":0,"countryCode":"US","name":"Thomaston","fclName":"city, village,...","adminCodes1":{"ISO3166_2":"IN"},"countryName":"United States","fcodeName":"populated place","adminName1":"Indiana","lat":"41.37837","fcode":"PPL"},{"adminCode1":"IN","lng":"-86.68252","geonameId":4927284,"toponymName":"Tracy","countryId":"6252001","fcl":"P","population":0,"countryCode":"US","name":"Tracy","fclName":"city, village,...","adminCodes1":{"ISO3166_2":"IN"},"countryName":"United States","fcodeName":"populated place","adminName1":"Indiana","lat":"41.48532","fcode":"PPL"},{"adminCode1":"IN","lng":"-86.63974","geonameId":4927421,"toponymName":"Union Center","countryId":"6252001","fcl":"P","population":0,"countryCode":"US","name":"Union Center","fclName":"city, village,...","adminCodes1":{"ISO3166_2":"IN"},"countryName":"United States","fcodeName":"populated place","adminName1":"Indiana","lat":"41.48421","fcode":"PPL"},{"adminCode1":"IN","lng":"-86.84503","geonameId":4927926,"toponymName":"Waterford","countryId":"6252001","fcl":"P","population":0,"countryCode":"US","name":"Waterford","fclName":"city, village,...","adminCodes1":{"ISO3166_2":"IN"},"countryName":"United States","fcodeName":"populated place","adminName1":"Indiana","lat":"41.67143","fcode":"PPL"},{"adminCode1":"IN","lng":"-86.7653","geonameId":4928011,"toponymName":"Wellsboro","countryId":"6252001","fcl":"P","population":0,"countryCode":"US","name":"Wellsboro","fclName":"city, village,...","adminCodes1":{"ISO3166_2":"IN"},"countryName":"United States","fcodeName":"populated place","adminName1":"Indiana","lat":"41.49726","fcode":"PPL"},{"adminCode1":"IN","lng":"-86.53946","geonameId":4922198,"toponymName":"Kankakee","countryId":"6252001","fcl":"P","population":0,"countryCode":"US","name":"Kankakee","fclName":"city, village,...","adminCodes1":{"ISO3166_2":"IN"},"countryName":"United States","fcodeName":"populated place","adminName1":"Indiana","lat":"41.50838","fcode":"PPL"},{"adminCode1":"IN","lng":"-86.54974","geonameId":4922528,"toponymName":"Lake Park","countryId":"6252001","fcl":"P","population":0,"countryCode":"US","name":"Lake Park","fclName":"city, village,...","adminCodes1":{"ISO3166_2":"IN"},"countryName":"United States","fcodeName":"populated place","adminName1":"Indiana","lat":"41.70477","fcode":"PPL"},{"adminCode1":"IN","lng":"-86.81669","geonameId":4923529,"toponymName":"Michiana Shores","countryId":"6252001","fcl":"P","population":304,"countryCode":"US","name":"Michiana Shores","fclName":"city, village,...","adminCodes1":{"ISO3166_2":"IN"},"countryName":"United States","fcodeName":"populated place","adminName1":"Indiana","lat":"41.75587","fcode":"PPL"}]}
