{"totalResultsCount":2565,"geonames":[{"adminCode1":"NY","lng":"-73.83652","geonameId":5133273,"toponymName":"Queens","countryId":"6252001","fcl":"P","population":2272771,"countryCode":"US","name":"Borough of Queens","fclName":"city, village,...","adminCodes1":{"ISO3166_2":"NY"},"countryName":"United States","fcodeName":"seat of a second-order administrative division","adminName1":"New York","lat":"40.68149","fcode":"PPLA2"},{"adminCode1":"NY","lng":"-73.91327","geonameId":6955102,"toponymName":"New York-Northern New Jersey-Long Island","countryId":"6252001","fcl":"L","population":19006798,"countryCode":"US","name":"New York-Northern New Jersey-Long Island","fclName":"parks,area, ...","adminCodes1":{"ISO3166_2":"NY"},"countryName":"United States","fcodeName":"economic region","adminName1":"New York","lat":"40.75766","fcode":"RGNE"},{"adminCode1":"NY","lng":"-73.80569","geonameId":5122520,"toponymName":"Jamaica","countryId":"6252001","fcl":"P","population":216866,"countryCode":"US","name":"Jamaica","fclName":"city, village,...","adminCodes1":{"ISO3166_2":"NY"},"countryName":"United States","fcodeName":"populated place","adminName1":"New York","lat":"40.69149","fcode":"PPL"},{"adminCode1":"NY","lng":"-73.93014","geonameId":5107464,"toponymName":"Astoria","countryId":"6252001","fcl":"P","population":150165,"countryCode":"US","name":"Astoria","fclName":"city, village,...","adminCodes1":{"ISO3166_2":"NY"},"countryName":"United States","fcodeName":"populated place","adminName1":"New York","lat":"40.77205","fcode":"PPL"},{"adminCode1":"NY","lng":"-73.74152","geonameId":5133271,"toponymName":"Queens Village","countryId":"6252001","fcl":"P","population":51919,"countryCode":"US","name":"Queens Village","fclName":"city, village,...","adminCodes1":{"ISO3166_2":"NY"},"countryName":"United States","fcodeName":"populated place","adminName1":"New York","lat":"40.72677","fcode":"PPL"},{"adminCode1":"NY","lng":"-73.81736","geonameId":5117472,"toponymName":"Flushing","countryId":"6252001","fcl":"P","population":0,"countryCode":"US","name":"Flushing","fclName":"city, village,...","adminCodes1":{"ISO3166_2":"NY"},"countryName":"United States","fcodeName":"populated place","adminName1":"New York","lat":"40.76538","fcode":"PPL"},{"adminCode1":"NY","lng":"-73.87791","geonameId":5116495,"toponymName":"Elmhurst","countryId":"6252001","fcl":"P","population":113364,"countryCode":"US","name":"Elmhurst","fclName":"city, village,...","adminCodes1":{"ISO3166_2":"NY"},"countryName":"United States","fcodeName":"populated place","adminName1":"New York","lat":"40.73649","fcode":"PPL"},{"adminCode1":"NY","lng":"-73.75513","geonameId":5116917,"toponymName":"Far Rockaway","countryId":"6252001","fcl":"P","population":39189,"countryCode":"US","name":"Far Rockaway","fclName":"city, village,...","adminCodes1":{"ISO3166_2":"NY"},"countryName":"United States","fcodeName":"populated place","adminName1":"New York","lat":"40.60538","fcode":"PPL"},{"adminCode1":"NY","lng":"-73.77708","geonameId":5108193,"toponymName":"Bayside","countryId":"6252001","fcl":"P","population":66455,"countryCode":"US","name":"Bayside","fclName":"city, village,...","adminCodes1":{"ISO3166_2":"NY"},"countryName":"United States","fcodeName":"populated place","adminName1":"New York","lat":"40.76844","fcode":"PPL"},{"adminCode1":"NY","lng":"-73.86014","geonameId":5113779,"toponymName":"Corona","countryId":"6252001","fcl":"P","population":109698,"countryCode":"US","name":"Corona","fclName":"city, village,...","adminCodes1":{"ISO3166_2":"NY"},"countryName":"United States","fcodeName":"populated place","adminName1":"New York","lat":"40.74705","fcode":"PPL"},{"adminCode1":"NY","lng":"-73.83125","geonameId":5133825,"toponymName":"Richmond Hill","countryId":"6252001","fcl":"P","population":98984,"countryCode":"US","name":"Richmond Hill","fclName":"city, village,...","adminCodes1":{"ISO3166_2":"NY"},"countryName":"United States","fcodeName":"populated place","adminName1":"New York","lat":"40.69983","fcode":"PPL"},{"adminCode1":"NY","lng":"-73.84375","geonameId":5130334,"toponymName":"Ozone Park","countryId":"6252001","fcl":"P","population":53985,"countryCode":"US","name":"Ozone Park","fclName":"city, village,...","adminCodes1":{"ISO3166_2":"NY"},"countryName":"United States","fcodeName":"populated place","adminName1":"New York","lat":"40.67677","fcode":"PPL"},{"adminCode1":"NY","lng":"-73.77874","geonameId":5122732,"toponymName":"John F. Kennedy International Airport","countryId":"6252001","fcl":"S","population":0,"countryCode":"US","name":"John F. Kennedy International Airport","fclName":"spot, building, farm","adminCodes1":{"ISO3166_2":"NY"},"countryName":"United States","fcodeName":"airport","adminName1":"New York","lat":"40.63983","fcode":"AIRP"},{"adminCode1":"NY","lng":"-73.90569","geonameId":5133858,"toponymName":"Ridgewood","countryId":"6252001","fcl":"P","population":69317,"countryCode":"US","name":"Ridgewood","fclName":"city, village,...","adminCodes1":{"ISO3166_2":"NY"},"countryName":"United States","fcodeName":"section of populated place","adminName1":"New York","lat":"40.7001","fcode":"PPLX"},{"adminCode1":"NY","lng":"-73.85264","geonameId":5133640,"toponymName":"Rego Park","countryId":"6252001","fcl":"P","population":43925,"countryCode":"US","name":"Rego Park","fclName":"city, village,...","adminCodes1":{"ISO3166_2":"NY"},"countryName":"United States","fcodeName":"populated place","adminName1":"New York","lat":"40.72649","fcode":"PPL"},{"adminCode1":"NY","lng":"-73.94875","geonameId":5125125,"toponymName":"Long Island City","countryId":"6252001","fcl":"P","population":25595,"countryCode":"US","name":"Long Island","fclName":"city, village,...","adminCodes1":{"ISO3166_2":"NY"},"countryName":"United States","fcodeName":"section of populated place","adminName1":"New York","lat":"40.74482","fcode":"PPLX"},{"adminCode1":"NY","lng":"-73.91264","geonameId":5126180,"toponymName":"Maspeth","countryId":"6252001","fcl":"P","population":48325,"countryCode":"US","name":"Maspeth","fclName":"city, village,...","adminCodes1":{"ISO3166_2":"NY"},"countryName":"United States","fcodeName":"populated place","adminName1":"New York","lat":"40.72316","fcode":"PPL"},{"adminCode1":"NY","lng":"-73.85014","geonameId":5117575,"toponymName":"Forest Hills","countryId":"6252001","fcl":"P","population":67714,"countryCode":"US","name":"Forest Hills","fclName":"city, village,...","adminCodes1":{"ISO3166_2":"NY"},"countryName":"United States","fcodeName":"populated place","adminName1":"New York","lat":"40.71621","fcode":"PPL"},{"adminCode1":"NY","lng":"-73.79347","geonameId":5118005,"toponymName":"Fresh Meadows","countryId":"6252001","fcl":"P","population":28397,"countryCode":"US","name":"Fresh Meadows","fclName":"city, village,...","adminCodes1":{"ISO3166_2":"NY"},"countryName":"United States","fcodeName":"populated place","adminName1":"New York","lat":"40.73482","fcode":"PPL"},{"adminCode1":"NY","lng":"-73.88541","geonameId":5122477,"toponymName":"Jackson Heights","countryId":"6252001","fcl":"P","population":67067,"countryCode":"US","name":"Jackson Heights","fclName":"city, village,...","adminCodes1":{"ISO3166_2":"NY"},"countryName":"United States","fcodeName":"populated place","adminName1":"New York","lat":"40.75566","fcode":"PPL"},{"adminCode1":"NY","lng":"-73.87269","geonameId":5123698,"toponymName":"La Guardia Airport","countryId":"6252001","fcl":"S","population":0,"countryCode":"US","name":"LaGuardia Airport","fclName":"spot, building, farm","adminCodes1":{"ISO3166_2":"NY"},"countryName":"United States","fcodeName":"airport","adminName1":"New York","lat":"40.77607","fcode":"AIRP"},{"adminCode1":"NY","lng":"-73.83875","geonameId":5133268,"toponymName":"Queens County","countryId":"6252001","fcl":"A","population":2230722,"countryCode":"US","name":"Queens","fclName":"country, state, region,...","adminCodes1":{"ISO3166_2":"NY"},"countryName":"United States","fcodeName":"second-order administrative division","adminName1":"New York","lat":"40.65749","fcode":"ADM2"},{"adminCode1":"NY","lng":"-73.81529","geonameId":6640032,"toponymName":"Briarwood","countryId":"6252001","fcl":"P","population":53877,"countryCode":"US","name":"Briarwood","fclName":"city, village,...","adminCodes1":{"ISO3166_2":"NY"},"countryName":"United States","fcodeName":"populated place","adminName1":"New York","lat":"40.70935","fcode":"PPL"},{"adminCode1":"NY","lng":"-73.76221","geonameId":5139287,"toponymName":"Springfield Gardens","countryId":"6252001","fcl":"P","population":30515,"countryCode":"US","name":"Springfield Gardens","fclName":"city, village,...","adminCodes1":{"ISO3166_2":"NY"},"countryName":"United States","fcodeName":"populated place","adminName1":"New York","lat":"40.66312","fcode":"PPL"},{"adminCode1":"NY","lng":"-73.73541","geonameId":5134395,"toponymName":"Rosedale","countryId":"6252001","fcl":"P","population":25812,"countryCode":"US","name":"Rosedale","fclName":"city, village,...","adminCodes1":{"ISO3166_2":"NY"},"countryName":"United States","fcodeName":"populated place","adminName1":"New York","lat":"40.66205","fcode":"PPL"},{"adminCode1":"NY","lng":"-73.93542","geonameId":5140221,"toponymName":"Sunnyside","countryId":"6252001","fcl":"P","population":49833,"countryCode":"US","name":"Sunnyside","fclName":"city, village,...","adminCodes1":{"ISO3166_2":"NY"},"countryName":"United States","fcodeName":"populated place","adminName1":"New York","lat":"40.73982","fcode":"PPL"},{"adminCode1":"NY","lng":"-73.88125","geonameId":5126827,"toponymName":"Middle Village","countryId":"6252001","fcl":"P","population":29491,"countryCode":"US","name":"Middle Village","fclName":"city, village,...","adminCodes1":{"ISO3166_2":"NY"},"countryName":"United States","fcodeName":"populated place","adminName1":"New York","lat":"40.71649","fcode":"PPL"},{"adminCode1":"NY","lng":"-73.81847","geonameId":5144400,"toponymName":"Whitestone","countryId":"6252001","fcl":"P","population":36984,"countryCode":"US","name":"Whitestone","fclName":"city, village,...","adminCodes1":{"ISO3166_2":"NY"},"countryName":"United States","fcodeName":"populated place","adminName1":"New York","lat":"40.79455","fcode":"PPL"},{"adminCode1":"NY","lng":"-73.85791","geonameId":5144975,"toponymName":"Woodhaven","countryId":"6252001","fcl":"P","population":36555,"countryCode":"US","name":"Woodhaven","fclName":"city, village,...","adminCodes1":{"ISO3166_2":"NY"},"countryName":"United States","fcodeName":"populated place","adminName1":"New York","lat":"40.68927","fcode":"PPL"},{"adminCode1":"NY","lng":"-73.90541","geonameId":5145067,"toponymName":"Woodside","countryId":"6252001","fcl":"P","population":41981,"countryCode":"US","name":"Woodside","fclName":"city, village,...","adminCodes1":{"ISO3166_2":"NY"},"countryName":"United States","fcodeName":"populated place","adminName1":"New York","lat":"40.74538","fcode":"PPL"},{"adminCode1":"NY","lng":"-73.73225","geonameId":5124753,"toponymName":"Little Neck","countryId":"6252001","fcl":"P","population":10049,"countryCode":"US","name":"Little Neck","fclName":"city, village,...","adminCodes1":{"ISO3166_2":"NY"},"countryName":"United States","fcodeName":"populated place","adminName1":"New York","lat":"40.76289","fcode":"PPL"},{"adminCode1":"NY","lng":"-73.84597","geonameId":5113302,"toponymName":"College Point","countryId":"6252001","fcl":"P","population":27307,"countryCode":"US","name":"College Point","fclName":"city, village,...","adminCodes1":{"ISO3166_2":"NY"},"countryName":"United States","fcodeName":"populated place","adminName1":"New York","lat":"40.7876","fcode":"PPL"},{"adminCode1":"NY","lng":"-73.83625","geonameId":5121407,"toponymName":"Howard Beach","countryId":"6252001","fcl":"P","population":26148,"countryCode":"US","name":"Howard Beach","fclName":"city, village,...","adminCodes1":{"ISO3166_2":"NY"},"countryName":"United States","fcodeName":"populated place","adminName1":"New York","lat":"40.65788","fcode":"PPL"},{"adminCode1":"NY","lng":"-73.86514","geonameId":5115835,"toponymName":"East Elmhurst","countryId":"6252001","fcl":"P","population":23150,"countryCode":"US","name":"East Elmhurst","fclName":"city, village,...","adminCodes1":{"ISO3166_2":"NY"},"countryName":"United States","fcodeName":"populated place","adminName1":"New York","lat":"40.76121","fcode":"PPL"},{"adminCode1":"NY","lng":"-73.8234","geonameId":7250691,"toponymName":"Kew Gardens Hills","countryId":"6252001","fcl":"P","population":37479,"countryCode":"US","name":"Kew Gardens Hills","fclName":"city, village,...","adminCodes1":{"ISO3166_2":"NY"},"countryName":"United States","fcodeName":"populated place","adminName1":"New York","lat":"40.73002","fcode":"PPL"},{"adminCode1":"NY","lng":"-73.84791","geonameId":5137831,"toponymName":"Shea Stadium (historical)","countryId":"6252001","fcl":"L","population":0,"countryCode":"US","name":"Shea Stadium","fclName":"parks,area, ...","adminCodes1":{"ISO3166_2":"NY"},"countryName":"United States","fcodeName":"park","adminName1":"New York","lat":"40.75594","fcode":"PRK"},{"adminCode1":"NY","lng":"-73.73847","geonameId":5111141,"toponymName":"Cambria Heights","countryId":"6252001","fcl":"P","population":20287,"countryCode":"US","name":"Cambria Heights","fclName":"city, village,...","adminCodes1":{"ISO3166_2":"NY"},"countryName":"United States","fcodeName":"populated place","adminName1":"New York","lat":"40.69455","fcode":"PPL"},{"adminCode1":"NY","lng":"-73.83097","geonameId":5123344,"toponymName":"Kew Gardens","countryId":"6252001","fcl":"P","population":18983,"countryCode":"US","name":"Kew Gardens","fclName":"city, village,...","adminCodes1":{"ISO3166_2":"NY"},"countryName":"United States","fcodeName":"populated place","adminName1":"New York","lat":"40.71427","fcode":"PPL"},{"adminCode1":"NY","lng":"-73.79597","geonameId":5107394,"toponymName":"Arverne","countryId":"6252001","fcl":"P","population":14120,"countryCode":"US","name":"Arverne","fclName":"city, village,...","adminCodes1":{"ISO3166_2":"NY"},"countryName":"United States","fcodeName":"populated place","adminName1":"New York","lat":"40.59122","fcode":"PPL"},{"adminCode1":"NY","lng":"-73.8868","geonameId":5118670,"toponymName":"Glendale","countryId":"6252001","fcl":"P","population":34389,"countryCode":"US","name":"Glendale","fclName":"city, village,...","adminCodes1":{"ISO3166_2":"NY"},"countryName":"United States","fcodeName":"populated place","adminName1":"New York","lat":"40.70149","fcode":"PPL"},{"adminCode1":"NY","lng":"-73.76708","geonameId":5121026,"toponymName":"Hollis","countryId":"6252001","fcl":"P","population":20269,"countryCode":"US","name":"Hollis","fclName":"city, village,...","adminCodes1":{"ISO3166_2":"NY"},"countryName":"United States","fcodeName":"populated place","adminName1":"New York","lat":"40.71344","fcode":"PPL"},{"adminCode1":"RI","lng":"-71.52312","geonameId":5224205,"toponymName":"Queens Fort (historical)","countryId":"6252001","fcl":"L","population":0,"countryCode":"US","name":"Queens Fort (historical)","fclName":"parks,area, ...","adminCodes1":{"ISO3166_2":"RI"},"countryName":"United States","fcodeName":"park","adminName1":"Rhode Island","lat":"41.59316","fcode":"PRK"},{"adminCode1":"NY","lng":"-73.93639","geonameId":6348491,"toponymName":"Socrates Sculpture Garden","countryId":"6252001","fcl":"L","population":0,"countryCode":"US","name":"Socrates Sculpture Garden","fclName":"parks,area, ...","adminCodes1":{"ISO3166_2":"NY"},"countryName":"United States","fcodeName":"park","adminName1":"New York","lat":"40.76889","fcode":"PRK"},{"adminCode1":"NY","lng":"-73.95875","geonameId":6348502,"toponymName":"Gantry Plaza State Park","countryId":"6252001","fcl":"L","population":0,"countryCode":"US","name":"Gantry Plaza State Park","fclName":"parks,area, ...","adminCodes1":{"ISO3166_2":"NY"},"countryName":"United States","fcodeName":"park","adminName1":"New York","lat":"40.74551","fcode":"PRK"},{"adminCode1":"NY","lng":"-73.84528","geonameId":6348518,"toponymName":"Unisphere","countryId":"6252001","fcl":"L","population":0,"countryCode":"US","name":"Unisphere","fclName":"parks,area, ...","adminCodes1":{"ISO3166_2":"NY"},"countryName":"United States","fcodeName":"park","adminName1":"New York","lat":"40.74639","fcode":"PRK"},{"adminCode1":"NY","lng":"-73.91139","geonameId":7149488,"toponymName":"Astoria Heights Playground","countryId":"6252001","fcl":"L","population":0,"countryCode":"US","name":"Astoria Heights Playground","fclName":"parks,area, ...","adminCodes1":{"ISO3166_2":"NY"},"countryName":"United States","fcodeName":"park","adminName1":"New York","lat":"40.76083","fcode":"PRK"},{"adminCode1":"NY","lng":"-73.88944","geonameId":7149492,"toponymName":"Travers Park","countryId":"6252001","fcl":"L","population":0,"countryCode":"US","name":"Travers Park","fclName":"parks,area, ...","adminCodes1":{"ISO3166_2":"NY"},"countryName":"United States","fcodeName":"park","adminName1":"New York","lat":"40.75389","fcode":"PRK"},{"adminCode1":"NY","lng":"-73.87944","geonameId":7149623,"toponymName":"One Room Schoolhouse Park","countryId":"6252001","fcl":"L","population":0,"countryCode":"US","name":"One Room Schoolhouse Park","fclName":"parks,area, ...","adminCodes1":{"ISO3166_2":"NY"},"countryName":"United States","fcodeName":"park","adminName1":"New York","lat":"40.76333","fcode":"PRK"},{"adminCode1":"NY","lng":"-73.90917","geonameId":7149788,"toponymName":"Doughboy Plaza","countryId":"6252001","fcl":"L","population":0,"countryCode":"US","name":"Doughboy Plaza","fclName":"parks,area, ...","adminCodes1":{"ISO3166_2":"NY"},"countryName":"United States","fcodeName":"park","adminName1":"New York","lat":"40.74639","fcode":"PRK"},{"adminCode1":"NY","lng":"-73.81611","geonameId":7176394,"toponymName":"Vleigh Playground","countryId":"6252001","fcl":"L","population":0,"countryCode":"US","name":"Vleigh Playground","fclName":"parks,area, ...","adminCodes1":{"ISO3166_2":"NY"},"countryName":"United States","fcodeName":"park","adminName1":"New York","lat":"40.72972","fcode":"PRK"},{"adminCode1":"NY","lng":"-73.82819","geonameId":5137529,"toponymName":"Seaside","countryId":"6252001","fcl":"P","population":12754,"countryCode":"US","name":"Seaside","fclName":"city, village,...","adminCodes1":{"ISO3166_2":"NY"},"countryName":"United States","fcodeName":"populated place","adminName1":"New York","lat":"40.58316","fcode":"PPL"},{"adminCode1":"NY","lng":"-73.76152","geonameId":5139289,"toponymName":"Springfield Park","countryId":"6252001","fcl":"L","population":0,"countryCode":"US","name":"Springfield Park","fclName":"parks,area, ...","adminCodes1":{"ISO3166_2":"NY"},"countryName":"United States","fcodeName":"park","adminName1":"New York","lat":"40.66233","fcode":"PRK"},{"adminCode1":"NY","lng":"-73.74708","geonameId":5115258,"toponymName":"Douglaston","countryId":"6252001","fcl":"P","population":14762,"countryCode":"US","name":"Douglaston","fclName":"city, village,...","adminCodes1":{"ISO3166_2":"NY"},"countryName":"United States","fcodeName":"populated place","adminName1":"New York","lat":"40.76871","fcode":"PPL"},{"adminCode1":"NY","lng":"-73.84069","geonameId":5117480,"toponymName":"Flushing Meadows - Corona Park","countryId":"6252001","fcl":"L","population":0,"countryCode":"US","name":"Flushing Meadow Park","fclName":"parks,area, ...","adminCodes1":{"ISO3166_2":"NY"},"countryName":"United States","fcodeName":"park","adminName1":"New York","lat":"40.7401","fcode":"PRK"},{"adminCode1":"NY","lng":"-73.85041","geonameId":5117598,"toponymName":"Forest Park","countryId":"6252001","fcl":"L","population":0,"countryCode":"US","name":"Forest Park","fclName":"parks,area, ...","adminCodes1":{"ISO3166_2":"NY"},"countryName":"United States","fcodeName":"park","adminName1":"New York","lat":"40.70344","fcode":"PRK"},{"adminCode1":"NY","lng":"-73.8418","geonameId":5122523,"toponymName":"Jamaica Bay Wildlife Refuge","countryId":"6252001","fcl":"L","population":0,"countryCode":"US","name":"Jamaica Bay Wildlife Refuge","fclName":"parks,area, ...","adminCodes1":{"ISO3166_2":"NY"},"countryName":"United States","fcodeName":"park","adminName1":"New York","lat":"40.61483","fcode":"PRK"},{"adminCode1":"NY","lng":"-73.88069","geonameId":5123078,"toponymName":"Juniper Valley Park","countryId":"6252001","fcl":"L","population":0,"countryCode":"US","name":"Juniper Valley Park","fclName":"parks,area, ...","adminCodes1":{"ISO3166_2":"NY"},"countryName":"United States","fcodeName":"park","adminName1":"New York","lat":"40.72038","fcode":"PRK"},{"adminCode1":"NY","lng":"-73.8043","geonameId":5123542,"toponymName":"Kissena Park","countryId":"6252001","fcl":"L","population":0,"countryCode":"US","name":"Kissena Park","fclName":"parks,area, ...","adminCodes1":{"ISO3166_2":"NY"},"countryName":"United States","fcodeName":"park","adminName1":"New York","lat":"40.74482","fcode":"PRK"},{"adminCode1":"NY","lng":"-73.74659","geonameId":5124078,"toponymName":"Laurelton","countryId":"6252001","fcl":"P","population":21053,"countryCode":"US","name":"Laurelton","fclName":"city, village,...","adminCodes1":{"ISO3166_2":"NY"},"countryName":"United States","fcodeName":"populated place","adminName1":"New York","lat":"40.67019","fcode":"PPL"},{"adminCode1":"NY","lng":"-73.92291","geonameId":5107466,"toponymName":"Astoria Park","countryId":"6252001","fcl":"L","population":0,"countryCode":"US","name":"Astoria Park","fclName":"parks,area, ...","adminCodes1":{"ISO3166_2":"NY"},"countryName":"United States","fcodeName":"park","adminName1":"New York","lat":"40.77843","fcode":"PRK"},{"adminCode1":"NY","lng":"-73.78597","geonameId":5107669,"toponymName":"Baisley Pond Park","countryId":"6252001","fcl":"L","population":0,"countryCode":"US","name":"Baisley Pond Park","fclName":"parks,area, ...","adminCodes1":{"ISO3166_2":"NY"},"countryName":"United States","fcodeName":"park","adminName1":"New York","lat":"40.67455","fcode":"PRK"},{"adminCode1":"NY","lng":"-73.76874","geonameId":5114379,"toponymName":"Cunningham Park","countryId":"6252001","fcl":"L","population":0,"countryCode":"US","name":"Cunningham Park","fclName":"parks,area, ...","adminCodes1":{"ISO3166_2":"NY"},"countryName":"United States","fcodeName":"park","adminName1":"New York","lat":"40.73594","fcode":"PRK"},{"adminCode1":"NY","lng":"-73.71152","geonameId":5118650,"toponymName":"Glen Oaks","countryId":"6252001","fcl":"P","population":6655,"countryCode":"US","name":"Glen Oaks","fclName":"city, village,...","adminCodes1":{"ISO3166_2":"NY"},"countryName":"United States","fcodeName":"populated place","adminName1":"New York","lat":"40.74705","fcode":"PPL"},{"adminCode1":"NY","lng":"-73.7868","geonameId":5120824,"toponymName":"Hillside","countryId":"6252001","fcl":"P","population":24808,"countryCode":"US","name":"Hillside","fclName":"city, village,...","adminCodes1":{"ISO3166_2":"NY"},"countryName":"United States","fcodeName":"populated place","adminName1":"New York","lat":"40.70788","fcode":"PPL"},{"adminCode1":"HI","lng":"-155.01516","geonameId":5853492,"toponymName":"Queens Bath (historical)","countryId":"6252001","fcl":"H","population":0,"countryCode":"US","name":"Queens Bath (historical)","fclName":"stream, lake, ...","adminCodes1":{"ISO3166_2":"HI"},"countryName":"United States","fcodeName":"lake","adminName1":"Hawaii","lat":"19.33662","fcode":"LK"},{"adminCode1":"NY","lng":"-73.82361","geonameId":7176398,"toponymName":"Queens Valley Playground","countryId":"6252001","fcl":"L","population":0,"countryCode":"US","name":"Queens Valley Playground","fclName":"parks,area, ...","adminCodes1":{"ISO3166_2":"NY"},"countryName":"United States","fcodeName":"park","adminName1":"New York","lat":"40.72194","fcode":"PRK"},{"adminCode1":"NY","lng":"-73.84583","geonameId":6347755,"toponymName":"U S Tennis Association Billie Jean King National Tennis Center","countryId":"6252001","fcl":"L","population":0,"countryCode":"US","name":"U S Tennis Association Billie Jean King National Tennis Center","fclName":"parks,area, ...","adminCodes1":{"ISO3166_2":"NY"},"countryName":"United States","fcodeName":"park","adminName1":"New York","lat":"40.74944","fcode":"PRK"},{"adminCode1":"NY","lng":"-73.71583","geonameId":6348501,"toponymName":"Tenney Park","countryId":"6252001","fcl":"L","population":0,"countryCode":"US","name":"Tenney Park","fclName":"parks,area, ...","adminCodes1":{"ISO3166_2":"NY"},"countryName":"United States","fcodeName":"park","adminName1":"New York","lat":"40.74944","fcode":"PRK"},{"adminCode1":"NY","lng":"-73.91611","geonameId":7149791,"toponymName":"Joe Sabba Park","countryId":"6252001","fcl":"L","population":0,"countryCode":"US","name":"Joe Sabba Park","fclName":"parks,area, ...","adminCodes1":{"ISO3166_2":"NY"},"countryName":"United States","fcodeName":"park","adminName1":"New York","lat":"40.74278","fcode":"PRK"},{"adminCode1":"NY","lng":"-73.75639","geonameId":7162899,"toponymName":"Telephone Playground","countryId":"6252001","fcl":"L","population":0,"countryCode":"US","name":"Telephone Playground","fclName":"parks,area, ...","adminCodes1":{"ISO3166_2":"NY"},"countryName":"United States","fcodeName":"park","adminName1":"New York","lat":"40.73833","fcode":"PRK"},{"adminCode1":"NY","lng":"-73.85028","geonameId":7167791,"toponymName":"Harold Schneiderman Playground","countryId":"6252001","fcl":"L","population":0,"countryCode":"US","name":"Harold Schneiderman Playground","fclName":"parks,area, ...","adminCodes1":{"ISO3166_2":"NY"},"countryName":"United States","fcodeName":"park","adminName1":"New York","lat":"40.66472","fcode":"PRK"},{"adminCode1":"NY","lng":"-73.84389","geonameId":7167792,"toponymName":"Walter Ward Playground","countryId":"6252001","fcl":"L","population":0,"countryCode":"US","name":"Walter Ward Playground","fclName":"parks,area, ...","adminCodes1":{"ISO3166_2":"NY"},"countryName":"United States","fcodeName":"park","adminName1":"New York","lat":"40.65778","fcode":"PRK"},{"adminCode1":"NY","lng":"-73.77694","geonameId":7227304,"toponymName":"Holy Cow Playground","countryId":"6252001","fcl":"L","population":0,"countryCode":"US","name":"Holy Cow Playground","fclName":"parks,area, ...","adminCodes1":{"ISO3166_2":"NY"},"countryName":"United States","fcodeName":"park","adminName1":"New York","lat":"40.74139","fcode":"PRK"},{"adminCode1":"NY","lng":"-73.86167","geonameId":7176302,"toponymName":"Josephine Caminiti Playground","countryId":"6252001","fcl":"L","population":0,"countryCode":"US","name":"Josephine Caminiti Playground","fclName":"parks,area, ...","adminCodes1":{"ISO3166_2":"NY"},"countryName":"United States","fcodeName":"park","adminName1":"New York","lat":"40.74417","fcode":"PRK"},{"adminCode1":"NY","lng":"-73.85278","geonameId":7176344,"toponymName":"Playground Sixty-Two","countryId":"6252001","fcl":"L","population":0,"countryCode":"US","name":"Playground Sixty-Two","fclName":"parks,area, ...","adminCodes1":{"ISO3166_2":"NY"},"countryName":"United States","fcodeName":"park","adminName1":"New York","lat":"40.73639","fcode":"PRK"},{"adminCode1":"NY","lng":"-73.80611","geonameId":7176390,"toponymName":"Emerald Playground","countryId":"6252001","fcl":"L","population":0,"countryCode":"US","name":"Emerald Playground","fclName":"parks,area, ...","adminCodes1":{"ISO3166_2":"NY"},"countryName":"United States","fcodeName":"park","adminName1":"New York","lat":"40.73111","fcode":"PRK"},{"adminCode1":"NY","lng":"-73.83625","geonameId":5134170,"toponymName":"Rockaway Park","countryId":"6252001","fcl":"P","population":0,"countryCode":"US","name":"Rockaway Park","fclName":"city, village,...","adminCodes1":{"ISO3166_2":"NY"},"countryName":"United States","fcodeName":"populated place","adminName1":"New York","lat":"40.58011","fcode":"PPL"},{"adminCode1":"NY","lng":"-73.79902","geonameId":5141014,"toponymName":"Captain George H Tilly Park","countryId":"6252001","fcl":"L","population":0,"countryCode":"US","name":"Captain George H Tilly Park","fclName":"parks,area, ...","adminCodes1":{"ISO3166_2":"NY"},"countryName":"United States","fcodeName":"park","adminName1":"New York","lat":"40.71232","fcode":"PRK"},{"adminCode1":"NY","lng":"-73.91764","geonameId":5116041,"toponymName":"East River","countryId":"6252001","fcl":"H","population":0,"countryCode":"US","name":"East River","fclName":"stream, lake, ...","adminCodes1":{"ISO3166_2":"NY"},"countryName":"United States","fcodeName":"channel","adminName1":"New York","lat":"40.78705","fcode":"CHN"},{"adminCode1":"NY","lng":"-73.76763","geonameId":5116225,"toponymName":"Edgemere","countryId":"6252001","fcl":"P","population":9646,"countryCode":"US","name":"Edgemere","fclName":"city, village,...","adminCodes1":{"ISO3166_2":"NY"},"countryName":"United States","fcodeName":"populated place","adminName1":"New York","lat":"40.59622","fcode":"PPL"},{"adminCode1":"NY","lng":"-73.75402","geonameId":5108677,"toponymName":"Bellaire","countryId":"6252001","fcl":"P","population":5610,"countryCode":"US","name":"Bellaire","fclName":"city, village,...","adminCodes1":{"ISO3166_2":"NY"},"countryName":"United States","fcodeName":"populated place","adminName1":"New York","lat":"40.71399","fcode":"PPL"},{"adminCode1":"NY","lng":"-73.84819","geonameId":5108683,"toponymName":"Belle Harbor","countryId":"6252001","fcl":"P","population":6758,"countryCode":"US","name":"Belle Harbor","fclName":"city, village,...","adminCodes1":{"ISO3166_2":"NY"},"countryName":"United States","fcodeName":"populated place","adminName1":"New York","lat":"40.57594","fcode":"PPL"},{"adminCode1":"NY","lng":"-73.92625","geonameId":5110073,"toponymName":"Breezy Point","countryId":"6252001","fcl":"P","population":0,"countryCode":"US","name":"Breezy Point","fclName":"city, village,...","adminCodes1":{"ISO3166_2":"NY"},"countryName":"United States","fcodeName":"populated place","adminName1":"New York","lat":"40.55649","fcode":"PPL"},{"adminCode1":"NY","lng":"-73.91097","geonameId":5112936,"toponymName":"Grover Cleveland Park","countryId":"6252001","fcl":"L","population":0,"countryCode":"US","name":"Grover Cleveland Park","fclName":"parks,area, ...","adminCodes1":{"ISO3166_2":"NY"},"countryName":"United States","fcodeName":"park","adminName1":"New York","lat":"40.71094","fcode":"PRK"},{"adminCode1":"NY","lng":"-73.89153","geonameId":5118655,"toponymName":"Joseph F Mafera Park","countryId":"6252001","fcl":"L","population":0,"countryCode":"US","name":"Joseph F Mafera Park","fclName":"parks,area, ...","adminCodes1":{"ISO3166_2":"NY"},"countryName":"United States","fcodeName":"park","adminName1":"New York","lat":"40.70705","fcode":"PRK"},{"adminCode1":"HI","lng":"-157.82583","geonameId":5853495,"toponymName":"Queens Surf Beach Park","countryId":"6252001","fcl":"L","population":0,"countryCode":"US","name":"Queens Surf Beach Park","fclName":"parks,area, ...","adminCodes1":{"ISO3166_2":"HI"},"countryName":"United States","fcodeName":"park","adminName1":"Hawaii","lat":"21.27083","fcode":"PRK"},{"adminCode1":"PA","lng":"-76.69567","geonameId":7259102,"toponymName":"Tyler Run-Queens Gate","countryId":"6252001","fcl":"P","population":0,"countryCode":"US","name":"Tyler Run-Queens Gate","fclName":"city, village,...","adminCodes1":{"ISO3166_2":"PA"},"countryName":"United States","fcodeName":"populated place","adminName1":"Pennsylvania","lat":"39.93454","fcode":"PPL"},{"adminCode1":"GA","lng":"-84.04574","geonameId":4217695,"toponymName":"Queens Mountain","countryId":"6252001","fcl":"T","population":0,"countryCode":"US","name":"Queens Mountain","fclName":"mountain,hill,rock,... ","adminCodes1":{"ISO3166_2":"GA"},"countryName":"United States","fcodeName":"mountain","adminName1":"Georgia","lat":"34.8687","fcode":"MT"},{"adminCode1":"AZ","lng":"-111.63345","geonameId":5310206,"toponymName":"Queens Well","countryId":"6252001","fcl":"P","population":0,"countryCode":"US","name":"Queens Well","fclName":"city, village,...","adminCodes1":{"ISO3166_2":"AZ"},"countryName":"United States","fcodeName":"populated place","adminName1":"Arizona","lat":"32.26757","fcode":"PPL"},{"adminCode1":"WA","lng":"-121.25271","geonameId":5813472,"toponymName":"Three Queens Lake","countryId":"6252001","fcl":"H","population":0,"countryCode":"US","name":"Three Queens Lake","fclName":"stream, lake, ...","adminCodes1":{"ISO3166_2":"WA"},"countryName":"United States","fcodeName":"lake","adminName1":"Washington","lat":"47.43962","fcode":"LK"},{"adminCode1":"VA","lng":"-81.09342","geonameId":4780738,"toponymName":"Queens Knob","countryId":"6252001","fcl":"T","population":0,"countryCode":"US","name":"Queens Knob","fclName":"mountain,hill,rock,... ","adminCodes1":{"ISO3166_2":"VA"},"countryName":"United States","fcodeName":"mountain","adminName1":"Virginia","lat":"36.9904","fcode":"MT"},{"adminCode1":"NY","lng":"-73.82944","geonameId":6348514,"toponymName":"Queens Botanical Gardens","countryId":"6252001","fcl":"L","population":0,"countryCode":"US","name":"Queens Botanical Gardens","fclName":"parks,area, ...","adminCodes1":{"ISO3166_2":"NY"},"countryName":"United States","fcodeName":"park","adminName1":"New York","lat":"40.75028","fcode":"PRK"},{"adminCode1":"NY","lng":"-73.77278","geonameId":6348516,"toponymName":"Roy Wilkins Southern Queens Park","countryId":"6252001","fcl":"L","population":0,"countryCode":"US","name":"Roy Wilkins Southern Queens Park","fclName":"parks,area, ...","adminCodes1":{"ISO3166_2":"NY"},"countryName":"United States","fcodeName":"park","adminName1":"New York","lat":"40.68694","fcode":"PRK"},{"adminCode1":"NY","lng":"-73.72139","geonameId":7169212,"toponymName":"Queens Farm Park","countryId":"6252001","fcl":"L","population":0,"countryCode":"US","name":"Queens Farm Park","fclName":"parks,area, ...","adminCodes1":{"ISO3166_2":"NY"},"countryName":"United States","fcodeName":"park","adminName1":"New York","lat":"40.74667","fcode":"PRK"},{"adminCode1":"NY","lng":"-73.73583","geonameId":7176050,"toponymName":"Queens Village Veterans Plaza","countryId":"6252001","fcl":"L","population":0,"countryCode":"US","name":"Queens Village Veterans Plaza","fclName":"parks,area, ...","adminCodes1":{"ISO3166_2":"NY"},"countryName":"United States","fcodeName":"park","adminName1":"New York","lat":"40.71806","fcode":"PRK"},{"adminCode1":"WV","lng":"-80.13674","geonameId":4819215,"toponymName":"Queens","countryId":"6252001","fcl":"P","population":0,"countryCode":"US","name":"Queens","fclName":"city, village,...","adminCodes1":{"ISO3166_2":"WV"},"countryName":"United States","fcodeName":"populated place","adminName1":"West Virginia","lat":"38.85705","fcode":"PPL"},{"adminCode1":"TX","lng":"-97.8692","geonameId":4721056,"toponymName":"Queens Peak","countryId":"6252001","fcl":"T","population":0,"countryCode":"US","name":"Queens Peak","fclName":"mountain,hill,rock,... ","adminCodes1":{"ISO3166_2":"TX"},"countryName":"United States","fcodeName":"mountain","adminName1":"Texas","lat":"33.62649","fcode":"MT"},{"adminCode1":"MN","lng":"-91.4007","geonameId":5281149,"toponymName":"Queens Bluff","countryId":"6252001","fcl":"T","population":0,"countryCode":"US","name":"Queens Bluff","fclName":"mountain,hill,rock,... ","adminCodes1":{"ISO3166_2":"MN"},"countryName":"United States","fcodeName":"cliff(s)","adminName1":"Minnesota","lat":"43.95719","fcode":"CLF"},{"adminCode1":"VA","lng":"-76.28911","geonameId":4781051,"toponymName":"Rappahannock River","countryId":"6252001","fcl":"H","population":0,"countryCode":"US","name":"Rappahannock River","fclName":"stream, lake, ...","adminCodes1":{"ISO3166_2":"VA"},"countryName":"United States","fcodeName":"stream","adminName1":"Virginia","lat":"37.58763","fcode":"STM"},{"adminCode1":"NY","lng":"-73.91778","geonameId":6352889,"toponymName":"Columbus Triangle","countryId":"6252001","fcl":"L","population":0,"countryCode":"US","name":"Columbus Triangle","fclName":"parks,area, ...","adminCodes1":{"ISO3166_2":"NY"},"countryName":"United States","fcodeName":"park","adminName1":"New York","lat":"40.77","fcode":"PRK"}]}
