{"totalResultsCount":10,"geonames":[{"adminCode1":"CT","lng":"-72.85649","geonameId":4841248,"toponymName":"Quirk Park","countryId":"6252001","fcl":"L","population":0,"countryCode":"US","name":"Quirk Park","fclName":"parks,area, ...","adminCodes1":{"ISO3166_2":"CT"},"countryName":"United States","fcodeName":"park","adminName1":"Connecticut","lat":"41.73177","fcode":"PRK"},{"adminCode1":"OR","lng":"-117.08866","geonameId":5747240,"toponymName":"Quirk Spring","countryId":"6252001","fcl":"H","population":0,"countryCode":"US","name":"Quirk Spring","fclName":"stream, lake, ...","adminCodes1":{"ISO3166_2":"OR"},"countryName":"United States","fcodeName":"spring(s)","adminName1":"Oregon","lat":"45.82655","fcode":"SPNG"},{"adminCode1":"CT","lng":"-72.68204","geonameId":4841247,"toponymName":"Quirk Middle School","countryId":"6252001","fcl":"S","population":0,"countryCode":"US","name":"Quirk Middle School","fclName":"spot, building, farm","adminCodes1":{"ISO3166_2":"CT"},"countryName":"United States","fcodeName":"school","adminName1":"Connecticut","lat":"41.77482","fcode":"SCH"},{"adminCode1":"MI","lng":"-83.4941","geonameId":5006660,"toponymName":"Quirk Road School","countryId":"6252001","fcl":"S","population":0,"countryCode":"US","name":"Quirk Road School","fclName":"spot, building, farm","adminCodes1":{"ISO3166_2":"MI"},"countryName":"United States","fcodeName":"school","adminName1":"Michigan","lat":"42.23032","fcode":"SCH"},{"adminCode1":"IN","lng":"-87.11084","geonameId":4925192,"toponymName":"Quirk Cemetery","countryId":"6252001","fcl":"S","population":0,"countryCode":"US","name":"Quirk Cemetery","fclName":"spot, building, farm","adminCodes1":{"ISO3166_2":"IN"},"countryName":"United States","fcodeName":"cemetery","adminName1":"Indiana","lat":"40.20476","fcode":"CMTY"},{"adminCode1":"MI","lng":"-83.62167","geonameId":8093546,"toponymName":"Quirk Dramatic Arts Building","countryId":"6252001","fcl":"S","population":0,"countryCode":"US","name":"Quirk Dramatic Arts Building","fclName":"spot, building, farm","adminCodes1":{"ISO3166_2":"MI"},"countryName":"United States","fcodeName":"school","adminName1":"Michigan","lat":"42.24944","fcode":"SCH"},{"adminCode1":"RI","lng":"-71.2803","geonameId":7211942,"toponymName":"Mary V Quirk School","countryId":"6252001","fcl":"S","population":0,"countryCode":"US","name":"Mary V Quirk School","fclName":"spot, building, farm","adminCodes1":{"ISO3166_2":"RI"},"countryName":"United States","fcodeName":"school","adminName1":"Rhode Island","lat":"41.7128","fcode":"SCH"},{"adminCode1":"NM","lng":"-107.34893","geonameId":5485702,"toponymName":"Quirk","countryId":"6252001","fcl":"S","population":0,"countryCode":"US","name":"Quirk","fclName":"spot, building, farm","adminCodes1":{"ISO3166_2":"NM"},"countryName":"United States","fcodeName":"","adminName1":"New Mexico","lat":"35.04782"},{"adminCode1":"SD","lng":"-99.35539","geonameId":5230670,"toponymName":"Quirk Dam","countryId":"6252001","fcl":"S","population":0,"countryCode":"US","name":"Quirk Dam","fclName":"spot, building, farm","adminCodes1":{"ISO3166_2":"SD"},"countryName":"United States","fcodeName":"dam","adminName1":"South Dakota","lat":"44.42165","fcode":"DAM"},{"adminCode1":"SD","lng":"-99.38205","geonameId":5228774,"toponymName":"J Quirk Dam","countryId":"6252001","fcl":"S","population":0,"countryCode":"US","name":"J Quirk Dam","fclName":"spot, building, farm","adminCodes1":{"ISO3166_2":"SD"},"countryName":"United States","fcodeName":"dam","adminName1":"South Dakota","lat":"44.33332","fcode":"DAM"}]}
