{"totalResultsCount":24539,"geonames":[{"adminCode1":"TN","lng":"-84.26964","geonameId":4646571,"toponymName":"Oak Ridge","countryId":"6252001","fcl":"P","population":29302,"countryCode":"US","name":"Oak Ridge","fclName":"city, village,...","adminCodes1":{"ISO3166_2":"TN"},"countryName":"United States","fcodeName":"populated place","adminName1":"Tennessee","lat":"36.01036","fcode":"PPL"},{"adminCode1":"IL","lng":"-87.84062","geonameId":4905367,"toponymName":"Park Ridge","countryId":"6252001","fcl":"P","population":37757,"countryCode":"US","name":"Park Ridge","fclName":"city, village,...","adminCodes1":{"ISO3166_2":"IL"},"countryName":"United States","fcodeName":"populated place","adminName1":"Illinois","lat":"42.01114","fcode":"PPL"},{"adminCode1":"IL","lng":"-87.7845","geonameId":4904381,"toponymName":"Oak Park","countryId":"6252001","fcl":"P","population":52287,"countryCode":"US","name":"Oak Park","fclName":"city, village,...","adminCodes1":{"ISO3166_2":"IL"},"countryName":"United States","fcodeName":"populated place","adminName1":"Illinois","lat":"41.88503","fcode":"PPL"},{"adminCode1":"CO","lng":"-105.07721","geonameId":5443948,"toponymName":"Wheat Ridge","countryId":"6252001","fcl":"P","population":31192,"countryCode":"US","name":"Wheat Ridge","fclName":"city, village,...","adminCodes1":{"ISO3166_2":"CO"},"countryName":"United States","fcodeName":"populated place","adminName1":"Colorado","lat":"39.7661","fcode":"PPL"},{"adminCode1":"AR","lng":"-90.92456","geonameId":4135213,"toponymName":"Walnut Ridge Regional Airport","countryId":"6252001","fcl":"S","population":0,"countryCode":"US","name":"Walnut Ridge Regional Airport","fclName":"spot, building, farm","adminCodes1":{"ISO3166_2":"AR"},"countryName":"United States","fcodeName":"airport","adminName1":"Arkansas","lat":"36.12535","fcode":"AIRP"},{"adminCode1":"CA","lng":"-121.62192","geonameId":5381002,"toponymName":"Paradise","countryId":"6252001","fcl":"P","population":26476,"countryCode":"US","name":"Paradise","fclName":"city, village,...","adminCodes1":{"ISO3166_2":"CA"},"countryName":"United States","fcodeName":"populated place","adminName1":"California","lat":"39.75961","fcode":"PPL"},{"adminCode1":"MD","lng":"-76.71358","geonameId":4354256,"toponymName":"Elkridge","countryId":"6252001","fcl":"P","population":15593,"countryCode":"US","name":"Elkridge","fclName":"city, village,...","adminCodes1":{"ISO3166_2":"MD"},"countryName":"United States","fcodeName":"populated place","adminName1":"Maryland","lat":"39.21261","fcode":"PPL"},{"adminCode1":"NJ","lng":"-74.0407","geonameId":5102400,"toponymName":"Park Ridge","countryId":"6252001","fcl":"P","population":8919,"countryCode":"US","name":"Park Ridge","fclName":"city, village,...","adminCodes1":{"ISO3166_2":"NJ"},"countryName":"United States","fcodeName":"populated place","adminName1":"New Jersey","lat":"41.0376","fcode":"PPL"},{"adminCode1":"FL","lng":"-80.3377","geonameId":6332309,"toponymName":"Cutler Bay","countryId":"6252001","fcl":"P","population":44865,"countryCode":"US","name":"Cutler Bay","fclName":"city, village,...","adminCodes1":{"ISO3166_2":"FL"},"countryName":"United States","fcodeName":"populated place","adminName1":"Florida","lat":"25.5783","fcode":"PPL"},{"adminCode1":"AL","lng":"-86.54443","geonameId":4072130,"toponymName":"Leeds","countryId":"6252001","fcl":"P","population":11936,"countryCode":"US","name":"Leeds","fclName":"city, village,...","adminCodes1":{"ISO3166_2":"AL"},"countryName":"United States","fcodeName":"populated place","adminName1":"Alabama","lat":"33.54816","fcode":"PPL"},{"adminCode1":"MI","lng":"-83.56026","geonameId":4984078,"toponymName":"Alpena County Regional Airport","countryId":"6252001","fcl":"S","population":0,"countryCode":"US","name":"Alpena County Regional Airport","fclName":"spot, building, farm","adminCodes1":{"ISO3166_2":"MI"},"countryName":"United States","fcodeName":"airport","adminName1":"Michigan","lat":"45.07807","fcode":"AIRP"},{"adminCode1":"SD","lng":"-102.51776","geonameId":5767941,"toponymName":"Pine Ridge Airport","countryId":"6252001","fcl":"S","population":0,"countryCode":"US","name":"Pine Ridge Airport","fclName":"spot, building, farm","adminCodes1":{"ISO3166_2":"SD"},"countryName":"United States","fcodeName":"airport","adminName1":"South Dakota","lat":"43.02577","fcode":"AIRP"},{"adminCode1":"TN","lng":"-84.95773","geonameId":4665321,"toponymName":"Walden Ridge","countryId":"6252001","fcl":"T","population":0,"countryCode":"US","name":"Walden Ridge","fclName":"mountain,hill,rock,... ","adminCodes1":{"ISO3166_2":"TN"},"countryName":"United States","fcodeName":"ridge(s)","adminName1":"Tennessee","lat":"35.69868","fcode":"RDGE"},{"adminCode1":"TN","lng":"-87.77336","geonameId":4662170,"toponymName":"Tennessee Ridge","countryId":"6252001","fcl":"P","population":1329,"countryCode":"US","name":"Tennessee Ridge","fclName":"city, village,...","adminCodes1":{"ISO3166_2":"TN"},"countryName":"United States","fcodeName":"populated place","adminName1":"Tennessee","lat":"36.312","fcode":"PPL"},{"adminCode1":"MO","lng":"-90.53651","geonameId":4390555,"toponymName":"High Ridge","countryId":"6252001","fcl":"P","population":4305,"countryCode":"US","name":"High Ridge","fclName":"city, village,...","adminCodes1":{"ISO3166_2":"MO"},"countryName":"United States","fcodeName":"populated place","adminName1":"Missouri","lat":"38.45894","fcode":"PPL"},{"adminCode1":"OH","lng":"-83.50715","geonameId":5173160,"toponymName":"Stony Ridge","countryId":"6252001","fcl":"P","population":411,"countryCode":"US","name":"Stony Ridge","fclName":"city, village,...","adminCodes1":{"ISO3166_2":"OH"},"countryName":"United States","fcodeName":"populated place","adminName1":"Ohio","lat":"41.51033","fcode":"PPL"},{"adminCode1":"FL","lng":"-81.42452","geonameId":4166583,"toponymName":"Oak Ridge","countryId":"6252001","fcl":"P","population":22685,"countryCode":"US","name":"Oak Ridge","fclName":"city, village,...","adminCodes1":{"ISO3166_2":"FL"},"countryName":"United States","fcodeName":"populated place","adminName1":"Florida","lat":"28.47112","fcode":"PPL"},{"adminCode1":"KY","lng":"-85.8583","geonameId":4304713,"toponymName":"Pleasure Ridge Park","countryId":"6252001","fcl":"P","population":25813,"countryCode":"US","name":"Pleasure Ridge Park","fclName":"city, village,...","adminCodes1":{"ISO3166_2":"KY"},"countryName":"United States","fcodeName":"section of populated place","adminName1":"Kentucky","lat":"38.14535","fcode":"PPLX"},{"adminCode1":"MI","lng":"-83.14215","geonameId":5006011,"toponymName":"Pleasant Ridge","countryId":"6252001","fcl":"P","population":2556,"countryCode":"US","name":"Pleasant Ridge","fclName":"city, village,...","adminCodes1":{"ISO3166_2":"MI"},"countryName":"United States","fcodeName":"populated place","adminName1":"Michigan","lat":"42.47115","fcode":"PPL"},{"adminCode1":"KY","lng":"-86.13089","geonameId":4299731,"toponymName":"Mammoth Cave National Park","countryId":"6252001","fcl":"L","population":0,"countryCode":"US","name":"Mammoth Cave National Park","fclName":"parks,area, ...","adminCodes1":{"ISO3166_2":"KY"},"countryName":"United States","fcodeName":"park","adminName1":"Kentucky","lat":"37.19758","fcode":"PRK"},{"adminCode1":"GA","lng":"-84.29103","geonameId":4183533,"toponymName":"Blue Ridge Lake Recreation Area","countryId":"6252001","fcl":"L","population":0,"countryCode":"US","name":"Blue Ridge Lake Recreation Area","fclName":"parks,area, ...","adminCodes1":{"ISO3166_2":"GA"},"countryName":"United States","fcodeName":"park","adminName1":"Georgia","lat":"34.84619","fcode":"PRK"},{"adminCode1":"TN","lng":"-85.2519","geonameId":4620131,"toponymName":"East Ridge","countryId":"6252001","fcl":"P","population":20979,"countryCode":"US","name":"East Ridge","fclName":"city, village,...","adminCodes1":{"ISO3166_2":"TN"},"countryName":"United States","fcodeName":"populated place","adminName1":"Tennessee","lat":"35.01424","fcode":"PPL"},{"adminCode1":"AR","lng":"-94.1152","geonameId":4125681,"toponymName":"Pea Ridge","countryId":"6252001","fcl":"P","population":5242,"countryCode":"US","name":"Pea Ridge","fclName":"city, village,...","adminCodes1":{"ISO3166_2":"AR"},"countryName":"United States","fcodeName":"populated place","adminName1":"Arkansas","lat":"36.45396","fcode":"PPL"},{"adminCode1":"AR","lng":"-90.95595","geonameId":4135205,"toponymName":"Walnut Ridge","countryId":"6252001","fcl":"P","population":4673,"countryCode":"US","name":"Walnut Ridge","fclName":"city, village,...","adminCodes1":{"ISO3166_2":"AR"},"countryName":"United States","fcodeName":"seat of a second-order administrative division","adminName1":"Arkansas","lat":"36.0684","fcode":"PPLA2"},{"adminCode1":"FL","lng":"-81.64232","geonameId":4151162,"toponymName":"Citrus Ridge","countryId":"6252001","fcl":"P","population":13285,"countryCode":"US","name":"Citrus Ridge","fclName":"city, village,...","adminCodes1":{"ISO3166_2":"FL"},"countryName":"United States","fcodeName":"populated place","adminName1":"Florida","lat":"28.33385","fcode":"PPL"},{"adminCode1":"OH","lng":"-80.76897","geonameId":5163137,"toponymName":"Mineral Ridge","countryId":"6252001","fcl":"P","population":3892,"countryCode":"US","name":"Mineral Ridge","fclName":"city, village,...","adminCodes1":{"ISO3166_2":"OH"},"countryName":"United States","fcodeName":"populated place","adminName1":"Ohio","lat":"41.14006","fcode":"PPL"},{"adminCode1":"MO","lng":"-90.8868","geonameId":4828696,"toponymName":"Villa Ridge","countryId":"6252001","fcl":"P","population":2636,"countryCode":"US","name":"Villa Ridge","fclName":"city, village,...","adminCodes1":{"ISO3166_2":"MO"},"countryName":"United States","fcodeName":"populated place","adminName1":"Missouri","lat":"38.47255","fcode":"PPL"},{"adminCode1":"VA","lng":"-79.80698","geonameId":4748050,"toponymName":"Blue Ridge","countryId":"6252001","fcl":"P","population":3084,"countryCode":"US","name":"Blue Ridge","fclName":"city, village,...","adminCodes1":{"ISO3166_2":"VA"},"countryName":"United States","fcodeName":"populated place","adminName1":"Virginia","lat":"37.37847","fcode":"PPL"},{"adminCode1":"MO","lng":"-93.40938","geonameId":4388733,"toponymName":"Green Ridge","countryId":"6252001","fcl":"P","population":491,"countryCode":"US","name":"Green Ridge","fclName":"city, village,...","adminCodes1":{"ISO3166_2":"MO"},"countryName":"United States","fcodeName":"populated place","adminName1":"Missouri","lat":"38.62029","fcode":"PPL"},{"adminCode1":"AR","lng":"-90.99651","geonameId":4114553,"toponymName":"Hickory Ridge","countryId":"6252001","fcl":"P","population":261,"countryCode":"US","name":"Hickory Ridge","fclName":"city, village,...","adminCodes1":{"ISO3166_2":"AR"},"countryName":"United States","fcodeName":"populated place","adminName1":"Arkansas","lat":"35.39731","fcode":"PPL"},{"adminCode1":"WI","lng":"-88.5326","geonameId":5257548,"toponymName":"Iron Ridge","countryId":"6252001","fcl":"P","population":904,"countryCode":"US","name":"Iron Ridge","fclName":"city, village,...","adminCodes1":{"ISO3166_2":"WI"},"countryName":"United States","fcodeName":"populated place","adminName1":"Wisconsin","lat":"43.39972","fcode":"PPL"},{"adminCode1":"NJ","lng":"-74.08792","geonameId":5106520,"toponymName":"Wood-Ridge","countryId":"6252001","fcl":"P","population":8249,"countryCode":"US","name":"Wood-Ridge","fclName":"city, village,...","adminCodes1":{"ISO3166_2":"NJ"},"countryName":"United States","fcodeName":"populated place","adminName1":"New Jersey","lat":"40.84566","fcode":"PPL"},{"adminCode1":"MD","lng":"-76.37384","geonameId":4366756,"toponymName":"Ridge","countryId":"6252001","fcl":"P","population":0,"countryCode":"US","name":"Ridge","fclName":"city, village,...","adminCodes1":{"ISO3166_2":"MD"},"countryName":"United States","fcodeName":"populated place","adminName1":"Maryland","lat":"38.11929","fcode":"PPL"},{"adminCode1":"NE","lng":"-103.0838","geonameId":5698336,"toponymName":"Pine Ridge National Recreation Area","countryId":"6252001","fcl":"L","population":0,"countryCode":"US","name":"Pine Ridge National Recreation Area","fclName":"parks,area, ...","adminCodes1":{"ISO3166_2":"NE"},"countryName":"United States","fcodeName":"park","adminName1":"Nebraska","lat":"42.62775","fcode":"PRK"},{"adminCode1":"NV","lng":"-114.24583","geonameId":7309410,"toponymName":"Highland Ridge Wilderness","countryId":"6252001","fcl":"L","population":0,"countryCode":"US","name":"Highland Ridge Wilderness","fclName":"parks,area, ...","adminCodes1":{"ISO3166_2":"NV"},"countryName":"United States","fcodeName":"reserve","adminName1":"Nevada","lat":"38.78639","fcode":"RES"},{"adminCode1":"TN","lng":"-83.92853","geonameId":4606466,"toponymName":"Big Ridge State Park","countryId":"6252001","fcl":"L","population":0,"countryCode":"US","name":"Big Ridge State Park","fclName":"parks,area, ...","adminCodes1":{"ISO3166_2":"TN"},"countryName":"United States","fcodeName":"park","adminName1":"Tennessee","lat":"36.24313","fcode":"PRK"},{"adminCode1":"VA","lng":"-80.01802","geonameId":4748051,"toponymName":"Blue Ridge Airport","countryId":"6252001","fcl":"S","population":0,"countryCode":"US","name":"Blue Ridge Airport","fclName":"spot, building, farm","adminCodes1":{"ISO3166_2":"VA"},"countryName":"United States","fcodeName":"airport","adminName1":"Virginia","lat":"36.63226","fcode":"AIRP"},{"adminCode1":"VA","lng":"-77.29776","geonameId":4768351,"toponymName":"Lake Ridge","countryId":"6252001","fcl":"P","population":41058,"countryCode":"US","name":"Lake Ridge","fclName":"city, village,...","adminCodes1":{"ISO3166_2":"VA"},"countryName":"United States","fcodeName":"populated place","adminName1":"Virginia","lat":"38.68789","fcode":"PPL"},{"adminCode1":"IL","lng":"-88.1531","geonameId":4238953,"toponymName":"Fox Ridge State Park","countryId":"6252001","fcl":"L","population":0,"countryCode":"US","name":"Fox Ridge State Park","fclName":"parks,area, ...","adminCodes1":{"ISO3166_2":"IL"},"countryName":"United States","fcodeName":"park","adminName1":"Illinois","lat":"39.40337","fcode":"PRK"},{"adminCode1":"KY","lng":"-84.58994","geonameId":4290421,"toponymName":"Dry Ridge","countryId":"6252001","fcl":"P","population":2205,"countryCode":"US","name":"Dry Ridge","fclName":"city, village,...","adminCodes1":{"ISO3166_2":"KY"},"countryName":"United States","fcodeName":"populated place","adminName1":"Kentucky","lat":"38.68201","fcode":"PPL"},{"adminCode1":"GA","lng":"-84.32409","geonameId":4183521,"toponymName":"Blue Ridge","countryId":"6252001","fcl":"P","population":1286,"countryCode":"US","name":"Blue Ridge","fclName":"city, village,...","adminCodes1":{"ISO3166_2":"GA"},"countryName":"United States","fcodeName":"seat of a second-order administrative division","adminName1":"Georgia","lat":"34.86397","fcode":"PPLA2"},{"adminCode1":"CO","lng":"-108.93016","geonameId":5414161,"toponymName":"Black Ridge Canyons Wilderness","countryId":"6252001","fcl":"L","population":0,"countryCode":"US","name":"Black Ridge Canyons Wilderness","fclName":"parks,area, ...","adminCodes1":{"ISO3166_2":"CO"},"countryName":"United States","fcodeName":"reserve","adminName1":"Colorado","lat":"39.10536","fcode":"RES"},{"adminCode1":"CO","lng":"-106.64465","geonameId":5422184,"toponymName":"Fossil Ridge Wilderness","countryId":"6252001","fcl":"L","population":0,"countryCode":"US","name":"Fossil Ridge Wilderness","fclName":"parks,area, ...","adminCodes1":{"ISO3166_2":"CO"},"countryName":"United States","fcodeName":"reserve","adminName1":"Colorado","lat":"38.69561","fcode":"RES"},{"adminCode1":"VA","lng":"-79.48413","geonameId":4789539,"toponymName":"Thunder Ridge Wilderness","countryId":"6252001","fcl":"L","population":0,"countryCode":"US","name":"Thunder Ridge Wilderness","fclName":"parks,area, ...","adminCodes1":{"ISO3166_2":"VA"},"countryName":"United States","fcodeName":"reserve","adminName1":"Virginia","lat":"37.54789","fcode":"RES"},{"adminCode1":"IL","lng":"-87.69284","geonameId":4916079,"toponymName":"West Ridge","countryId":"6252001","fcl":"P","population":72211,"countryCode":"US","name":"West Ridge","fclName":"city, village,...","adminCodes1":{"ISO3166_2":"IL"},"countryName":"United States","fcodeName":"section of populated place","adminName1":"Illinois","lat":"41.99975","fcode":"PPLX"},{"adminCode1":"IL","lng":"-87.77922","geonameId":4887492,"toponymName":"Chicago Ridge","countryId":"6252001","fcl":"P","population":14373,"countryCode":"US","name":"Chicago Ridge","fclName":"city, village,...","adminCodes1":{"ISO3166_2":"IL"},"countryName":"United States","fcodeName":"populated place","adminName1":"Illinois","lat":"41.70142","fcode":"PPL"},{"adminCode1":"AK","lng":"-134.41092","geonameId":8114258,"toponymName":"Chicken Ridge Historic District","countryId":"6252001","fcl":"L","population":0,"countryCode":"US","name":"Chicken Ridge Historic District","fclName":"parks,area, ...","adminCodes1":{"ISO3166_2":"AK"},"countryName":"United States","fcodeName":"area","adminName1":"Alaska","lat":"58.30386","fcode":"AREA"},{"adminCode1":"MN","lng":"-96.29213","geonameId":11383036,"toponymName":"Glacial Ridge National Wildlife Refuge","countryId":"6252001","fcl":"L","population":0,"countryCode":"US","name":"Glacial Ridge National Wildlife Refuge","fclName":"parks,area, ...","adminCodes1":{"ISO3166_2":"MN"},"countryName":"United States","fcodeName":"park","adminName1":"Minnesota","lat":"47.71037","fcode":"PRK"},{"adminCode1":"NJ","lng":"-74.20376","geonameId":5098430,"toponymName":"Glen Ridge","countryId":"6252001","fcl":"P","population":7660,"countryCode":"US","name":"Glen Ridge","fclName":"city, village,...","adminCodes1":{"ISO3166_2":"NJ"},"countryName":"United States","fcodeName":"seat of a third-order administrative division","adminName1":"New Jersey","lat":"40.80538","fcode":"PPLA3"},{"adminCode1":"IL","lng":"-88.33337","geonameId":4242077,"toponymName":"Karbers Ridge","countryId":"6252001","fcl":"P","population":0,"countryCode":"US","name":"Karbers Ridge","fclName":"city, village,...","adminCodes1":{"ISO3166_2":"IL"},"countryName":"United States","fcodeName":"populated place","adminName1":"Illinois","lat":"37.57977","fcode":"PPL"},{"adminCode1":"CT","lng":"-73.48623","geonameId":5282996,"toponymName":"Brushy Ridge","countryId":"6252001","fcl":"T","population":0,"countryCode":"US","name":"Brushy Ridge","fclName":"mountain,hill,rock,... ","adminCodes1":{"ISO3166_2":"CT"},"countryName":"United States","fcodeName":"ridge(s)","adminName1":"Connecticut","lat":"41.15815","fcode":"RDGE"},{"adminCode1":"WI","lng":"-90.15485","geonameId":5259970,"toponymName":"Lime Ridge","countryId":"6252001","fcl":"P","population":165,"countryCode":"US","name":"Lime Ridge","fclName":"city, village,...","adminCodes1":{"ISO3166_2":"WI"},"countryName":"United States","fcodeName":"populated place","adminName1":"Wisconsin","lat":"43.46776","fcode":"PPL"},{"adminCode1":"IL","lng":"-87.66672","geonameId":4908033,"toponymName":"Rogers Park","countryId":"6252001","fcl":"P","population":54402,"countryCode":"US","name":"Rogers Park","fclName":"city, village,...","adminCodes1":{"ISO3166_2":"IL"},"countryName":"United States","fcodeName":"section of populated place","adminName1":"Illinois","lat":"42.00864","fcode":"PPLX"},{"adminCode1":"HI","lng":"-159.6138","geonameId":5847908,"toponymName":"Kaluahā\u2018ula Ridge","countryId":"6252001","fcl":"T","population":0,"countryCode":"US","name":"Kaluahā\u2018ula Ridge","fclName":"mountain,hill,rock,... ","adminCodes1":{"ISO3166_2":"HI"},"countryName":"United States","fcodeName":"ridge(s)","adminName1":"Hawaii","lat":"22.07995","fcode":"RDGE"},{"adminCode1":"NC","lng":"-82.26568","geonameId":4456414,"toponymName":"Blue Ridge","countryId":"6252001","fcl":"T","population":0,"countryCode":"US","name":"Blue Ridge","fclName":"mountain,hill,rock,... ","adminCodes1":{"ISO3166_2":"NC"},"countryName":"United States","fcodeName":"mountains","adminName1":"North Carolina","lat":"35.76428","fcode":"MTS"},{"adminCode1":"HI","lng":"-156.8858","geonameId":5853137,"toponymName":"Pu\u2018uhoi Ridge","countryId":"6252001","fcl":"T","population":0,"countryCode":"US","name":"Pu\u2018uhoi Ridge","fclName":"mountain,hill,rock,... ","adminCodes1":{"ISO3166_2":"HI"},"countryName":"United States","fcodeName":"ridge(s)","adminName1":"Hawaii","lat":"21.12918","fcode":"RDGE"},{"adminCode1":"OR","lng":"-117.48024","geonameId":5746785,"toponymName":"Powwatka Ridge Airport","countryId":"6252001","fcl":"S","population":0,"countryCode":"US","name":"Powwatka Ridge Airport","fclName":"spot, building, farm","adminCodes1":{"ISO3166_2":"OR"},"countryName":"United States","fcodeName":"airport","adminName1":"Oregon","lat":"45.85608","fcode":"AIRP"},{"adminCode1":"AR","lng":"-92.56294","geonameId":4105138,"toponymName":"Center Ridge","countryId":"6252001","fcl":"P","population":388,"countryCode":"US","name":"Center Ridge","fclName":"city, village,...","adminCodes1":{"ISO3166_2":"AR"},"countryName":"United States","fcodeName":"populated place","adminName1":"Arkansas","lat":"35.37397","fcode":"PPL"},{"adminCode1":"CT","lng":"-72.69343","geonameId":4841612,"toponymName":"Rock Ridge Park","countryId":"6252001","fcl":"L","population":0,"countryCode":"US","name":"Rock Ridge Park","fclName":"parks,area, ...","adminCodes1":{"ISO3166_2":"CT"},"countryName":"United States","fcodeName":"park","adminName1":"Connecticut","lat":"41.74454","fcode":"PRK"},{"adminCode1":"IL","lng":"-88.83147","geonameId":4894342,"toponymName":"Grand Ridge","countryId":"6252001","fcl":"P","population":532,"countryCode":"US","name":"Grand Ridge","fclName":"city, village,...","adminCodes1":{"ISO3166_2":"IL"},"countryName":"United States","fcodeName":"populated place","adminName1":"Illinois","lat":"41.23698","fcode":"PPL"},{"adminCode1":"NC","lng":"-75.63378","geonameId":4473420,"toponymName":"Jockey's Ridge State Park","countryId":"6252001","fcl":"L","population":0,"countryCode":"US","name":"Jockey's Ridge State Park","fclName":"parks,area, ...","adminCodes1":{"ISO3166_2":"NC"},"countryName":"United States","fcodeName":"park","adminName1":"North Carolina","lat":"35.96211","fcode":"PRK"},{"adminCode1":"WA","lng":"-122.14873","geonameId":5807367,"toponymName":"Prairie Ridge","countryId":"6252001","fcl":"P","population":11464,"countryCode":"US","name":"Prairie Ridge","fclName":"city, village,...","adminCodes1":{"ISO3166_2":"WA"},"countryName":"United States","fcodeName":"populated place","adminName1":"Washington","lat":"47.1376","fcode":"PPL"},{"adminCode1":"LA","lng":"-90.21563","geonameId":4338818,"toponymName":"River Ridge","countryId":"6252001","fcl":"P","population":13494,"countryCode":"US","name":"River Ridge","fclName":"city, village,...","adminCodes1":{"ISO3166_2":"LA"},"countryName":"United States","fcodeName":"populated place","adminName1":"Louisiana","lat":"29.9602","fcode":"PPL"},{"adminCode1":"FL","lng":"-80.38672","geonameId":4155726,"toponymName":"Florida Ridge","countryId":"6252001","fcl":"P","population":18164,"countryCode":"US","name":"Florida Ridge","fclName":"city, village,...","adminCodes1":{"ISO3166_2":"FL"},"countryName":"United States","fcodeName":"populated place","adminName1":"Florida","lat":"27.58031","fcode":"PPL"},{"adminCode1":"CA","lng":"-122.21886","geonameId":5389381,"toponymName":"Russian Ridge Open Space Preserve","countryId":"6252001","fcl":"L","population":0,"countryCode":"US","name":"Russian Ridge Open Space Preserve","fclName":"parks,area, ...","adminCodes1":{"ISO3166_2":"CA"},"countryName":"United States","fcodeName":"park","adminName1":"California","lat":"37.318","fcode":"PRK"},{"adminCode1":"CA","lng":"-122.5022","geonameId":5399613,"toponymName":"Sugarloaf Ridge State Park","countryId":"6252001","fcl":"L","population":0,"countryCode":"US","name":"Sugarloaf Ridge State Park","fclName":"parks,area, ...","adminCodes1":{"ISO3166_2":"CA"},"countryName":"United States","fcodeName":"park","adminName1":"California","lat":"38.44491","fcode":"PRK"},{"adminCode1":"CA","lng":"-122.26469","geonameId":5396889,"toponymName":"Sobrante Ridge Regional Preserve","countryId":"6252001","fcl":"L","population":0,"countryCode":"US","name":"Sobrante Ridge Regional Preserve","fclName":"parks,area, ...","adminCodes1":{"ISO3166_2":"CA"},"countryName":"United States","fcodeName":"park","adminName1":"California","lat":"37.96492","fcode":"PRK"},{"adminCode1":"CA","lng":"-122.22747","geonameId":5360467,"toponymName":"Jasper Ridge Biological Preserve","countryId":"6252001","fcl":"L","population":0,"countryCode":"US","name":"Jasper Ridge Biological Preserve","fclName":"parks,area, ...","adminCodes1":{"ISO3166_2":"CA"},"countryName":"United States","fcodeName":"park","adminName1":"California","lat":"37.40799","fcode":"PRK"},{"adminCode1":"CT","lng":"-72.97205","geonameId":4845478,"toponymName":"West Rock Ridge State Park","countryId":"6252001","fcl":"L","population":0,"countryCode":"US","name":"West Rock Ridge State Park","fclName":"parks,area, ...","adminCodes1":{"ISO3166_2":"CT"},"countryName":"United States","fcodeName":"park","adminName1":"Connecticut","lat":"41.36037","fcode":"PRK"},{"adminCode1":"IL","lng":"-87.91839","geonameId":4886090,"toponymName":"Burr Ridge","countryId":"6252001","fcl":"P","population":10818,"countryCode":"US","name":"Burr Ridge","fclName":"city, village,...","adminCodes1":{"ISO3166_2":"IL"},"countryName":"United States","fcodeName":"populated place","adminName1":"Illinois","lat":"41.74892","fcode":"PPL"},{"adminCode1":"AR","lng":"-90.91289","geonameId":4120684,"toponymName":"Marvell","countryId":"6252001","fcl":"P","population":1047,"countryCode":"US","name":"Marvell","fclName":"city, village,...","adminCodes1":{"ISO3166_2":"AR"},"countryName":"United States","fcodeName":"populated place","adminName1":"Arkansas","lat":"34.55566","fcode":"PPL"},{"adminCode1":"CA","lng":"-122.28997","geonameId":5385149,"toponymName":"Pulgas Ridge Open Space Preserve","countryId":"6252001","fcl":"L","population":0,"countryCode":"US","name":"Pulgas Ridge Open Space Preserve","fclName":"parks,area, ...","adminCodes1":{"ISO3166_2":"CA"},"countryName":"United States","fcodeName":"park","adminName1":"California","lat":"37.47827","fcode":"PRK"},{"adminCode1":"NY","lng":"-72.89594","geonameId":5133832,"toponymName":"Ridge","countryId":"6252001","fcl":"P","population":13336,"countryCode":"US","name":"Ridge","fclName":"city, village,...","adminCodes1":{"ISO3166_2":"NY"},"countryName":"United States","fcodeName":"populated place","adminName1":"New York","lat":"40.89399","fcode":"PPL"},{"adminCode1":"NJ","lng":"-74.54932","geonameId":5095409,"toponymName":"Basking Ridge","countryId":"6252001","fcl":"P","population":0,"countryCode":"US","name":"Basking Ridge","fclName":"city, village,...","adminCodes1":{"ISO3166_2":"NJ"},"countryName":"United States","fcodeName":"populated place","adminName1":"New Jersey","lat":"40.70621","fcode":"PPL"},{"adminCode1":"TN","lng":"-83.23406","geonameId":4645526,"toponymName":"Newman Ridge","countryId":"6252001","fcl":"T","population":0,"countryCode":"US","name":"Newman Ridge","fclName":"mountain,hill,rock,... ","adminCodes1":{"ISO3166_2":"TN"},"countryName":"United States","fcodeName":"ridge(s)","adminName1":"Tennessee","lat":"36.55148","fcode":"RDGE"},{"adminCode1":"NC","lng":"-79.98893","geonameId":4482941,"toponymName":"Oak Ridge","countryId":"6252001","fcl":"P","population":6671,"countryCode":"US","name":"Oak Ridge","fclName":"city, village,...","adminCodes1":{"ISO3166_2":"NC"},"countryName":"United States","fcodeName":"populated place","adminName1":"North Carolina","lat":"36.17347","fcode":"PPL"},{"adminCode1":"NY","lng":"-73.57485","geonameId":5132152,"toponymName":"Pound Ridge","countryId":"6252001","fcl":"P","population":5104,"countryCode":"US","name":"Pound Ridge","fclName":"city, village,...","adminCodes1":{"ISO3166_2":"NY"},"countryName":"United States","fcodeName":"populated place","adminName1":"New York","lat":"41.20871","fcode":"PPL"},{"adminCode1":"OR","lng":"-123.06537","geonameId":8093387,"toponymName":"Ribbon Ridge Airport","countryId":"6252001","fcl":"S","population":0,"countryCode":"US","name":"Ribbon Ridge Airport","fclName":"spot, building, farm","adminCodes1":{"ISO3166_2":"OR"},"countryName":"United States","fcodeName":"airport","adminName1":"Oregon","lat":"45.36853","fcode":"AIRP"},{"adminCode1":"HI","lng":"-157.71552","geonameId":5850958,"toponymName":"Mauna\u2018ōhi Ridge","countryId":"6252001","fcl":"T","population":0,"countryCode":"US","name":"Mauna\u2018ōhi Ridge","fclName":"mountain,hill,rock,... ","adminCodes1":{"ISO3166_2":"HI"},"countryName":"United States","fcodeName":"ridge(s)","adminName1":"Hawaii","lat":"21.30761","fcode":"RDGE"},{"adminCode1":"PA","lng":"-75.25365","geonameId":5184003,"toponymName":"Cherry Ridge Airport","countryId":"6252001","fcl":"S","population":0,"countryCode":"US","name":"Cherry Ridge Airport","fclName":"spot, building, farm","adminCodes1":{"ISO3166_2":"PA"},"countryName":"United States","fcodeName":"airport","adminName1":"Pennsylvania","lat":"41.51573","fcode":"AIRP"},{"adminCode1":"GA","lng":"-83.86879","geonameId":4185516,"toponymName":"Buzzard Roost Ridge","countryId":"6252001","fcl":"T","population":0,"countryCode":"US","name":"Buzzard Roost Ridge","fclName":"mountain,hill,rock,... ","adminCodes1":{"ISO3166_2":"GA"},"countryName":"United States","fcodeName":"ridge(s)","adminName1":"Georgia","lat":"34.87009","fcode":"RDGE"},{"adminCode1":"AK","lng":"-149.18007","geonameId":5864015,"toponymName":"High Ridge Lake","countryId":"6252001","fcl":"H","population":0,"countryCode":"US","name":"High Ridge Lake","fclName":"stream, lake, ...","adminCodes1":{"ISO3166_2":"AK"},"countryName":"United States","fcodeName":"lake","adminName1":"Alaska","lat":"61.57747","fcode":"LK"},{"adminCode1":"MD","lng":"-77.31748","geonameId":4367226,"toponymName":"Rocky Ridge","countryId":"6252001","fcl":"P","population":0,"countryCode":"US","name":"Rocky Ridge","fclName":"city, village,...","adminCodes1":{"ISO3166_2":"MD"},"countryName":"United States","fcodeName":"populated place","adminName1":"Maryland","lat":"39.6051","fcode":"PPL"},{"adminCode1":"TX","lng":"-96.40165","geonameId":4675153,"toponymName":"Blue Ridge","countryId":"6252001","fcl":"P","population":850,"countryCode":"US","name":"Blue Ridge","fclName":"city, village,...","adminCodes1":{"ISO3166_2":"TX"},"countryName":"United States","fcodeName":"populated place","adminName1":"Texas","lat":"33.29789","fcode":"PPL"},{"adminCode1":"OH","lng":"-84.61911","geonameId":4510329,"toponymName":"Dry Ridge","countryId":"6252001","fcl":"P","population":2782,"countryCode":"US","name":"Dry Ridge","fclName":"city, village,...","adminCodes1":{"ISO3166_2":"OH"},"countryName":"United States","fcodeName":"populated place","adminName1":"Ohio","lat":"39.25922","fcode":"PPL"},{"adminCode1":"AR","lng":"-92.1907","geonameId":4112871,"toponymName":"Gravel Ridge","countryId":"6252001","fcl":"P","population":2902,"countryCode":"US","name":"Gravel Ridge","fclName":"city, village,...","adminCodes1":{"ISO3166_2":"AR"},"countryName":"United States","fcodeName":"populated place","adminName1":"Arkansas","lat":"34.86842","fcode":"PPL"},{"adminCode1":"IL","lng":"-89.1948","geonameId":4252046,"toponymName":"Villa Ridge","countryId":"6252001","fcl":"P","population":0,"countryCode":"US","name":"Villa Ridge","fclName":"city, village,...","adminCodes1":{"ISO3166_2":"IL"},"countryName":"United States","fcodeName":"populated place","adminName1":"Illinois","lat":"37.15866","fcode":"PPL"},{"adminCode1":"OH","lng":"-83.21242","geonameId":5168488,"toponymName":"Rocky Ridge","countryId":"6252001","fcl":"P","population":409,"countryCode":"US","name":"Rocky Ridge","fclName":"city, village,...","adminCodes1":{"ISO3166_2":"OH"},"countryName":"United States","fcodeName":"populated place","adminName1":"Ohio","lat":"41.53338","fcode":"PPL"},{"adminCode1":"OH","lng":"-83.7941","geonameId":5147089,"toponymName":"Benton Ridge","countryId":"6252001","fcl":"P","population":304,"countryCode":"US","name":"Benton Ridge","fclName":"city, village,...","adminCodes1":{"ISO3166_2":"OH"},"countryName":"United States","fcodeName":"populated place","adminName1":"Ohio","lat":"41.00478","fcode":"PPL"},{"adminCode1":"TN","lng":"-84.08547","geonameId":4667112,"toponymName":"Whigg Ridge","countryId":"6252001","fcl":"T","population":0,"countryCode":"US","name":"Whigg Ridge","fclName":"mountain,hill,rock,... ","adminCodes1":{"ISO3166_2":"TN"},"countryName":"United States","fcodeName":"ridge(s)","adminName1":"Tennessee","lat":"35.30508","fcode":"RDGE"},{"adminCode1":"CT","lng":"-73.4079","geonameId":4843857,"toponymName":"Sturges Ridge","countryId":"6252001","fcl":"T","population":0,"countryCode":"US","name":"Sturges Ridge","fclName":"mountain,hill,rock,... ","adminCodes1":{"ISO3166_2":"CT"},"countryName":"United States","fcodeName":"ridge(s)","adminName1":"Connecticut","lat":"41.21176","fcode":"RDGE"},{"adminCode1":"VA","lng":"-83.05795","geonameId":4791998,"toponymName":"Wallen Ridge","countryId":"6252001","fcl":"T","population":0,"countryCode":"US","name":"Wallen Ridge","fclName":"mountain,hill,rock,... ","adminCodes1":{"ISO3166_2":"VA"},"countryName":"United States","fcodeName":"ridge(s)","adminName1":"Virginia","lat":"36.66676","fcode":"RDGE"},{"adminCode1":"GA","lng":"-83.48099","geonameId":4197917,"toponymName":"Grassy Ridge","countryId":"6252001","fcl":"T","population":0,"countryCode":"US","name":"Grassy Ridge","fclName":"mountain,hill,rock,... ","adminCodes1":{"ISO3166_2":"GA"},"countryName":"United States","fcodeName":"ridge(s)","adminName1":"Georgia","lat":"34.98093","fcode":"RDGE"},{"adminCode1":"GA","lng":"-83.80907","geonameId":4231685,"toponymName":"Wolfpen Ridge","countryId":"6252001","fcl":"T","population":0,"countryCode":"US","name":"Wolfpen Ridge","fclName":"mountain,hill,rock,... ","adminCodes1":{"ISO3166_2":"GA"},"countryName":"United States","fcodeName":"ridge(s)","adminName1":"Georgia","lat":"34.86342","fcode":"RDGE"},{"adminCode1":"SD","lng":"-102.55627","geonameId":5767939,"toponymName":"Pine Ridge","countryId":"6252001","fcl":"P","population":3308,"countryCode":"US","name":"Pine Ridge","fclName":"city, village,...","adminCodes1":{"ISO3166_2":"SD"},"countryName":"United States","fcodeName":"populated place","adminName1":"South Dakota","lat":"43.02554","fcode":"PPL"},{"adminCode1":"WA","lng":"-121.45124","geonameId":5796231,"toponymName":"Green Ridge Lake","countryId":"6252001","fcl":"H","population":0,"countryCode":"US","name":"Green Ridge Lake","fclName":"stream, lake, ...","adminCodes1":{"ISO3166_2":"WA"},"countryName":"United States","fcodeName":"lake","adminName1":"Washington","lat":"47.54012","fcode":"LK"},{"adminCode1":"PA","lng":"-75.42548","geonameId":7259124,"toponymName":"Village Green-Green Ridge","countryId":"6252001","fcl":"P","population":7822,"countryCode":"US","name":"Village Green-Green Ridge","fclName":"city, village,...","adminCodes1":{"ISO3166_2":"PA"},"countryName":"United States","fcodeName":"populated place","adminName1":"Pennsylvania","lat":"39.86363","fcode":"PPL"},{"adminCode1":"HI","lng":"-159.63714","geonameId":5851284,"toponymName":"Nāhaleoko\u2018o Ridge","countryId":"6252001","fcl":"T","population":0,"countryCode":"US","name":"Nāhaleoko\u2018o Ridge","fclName":"mountain,hill,rock,... ","adminCodes1":{"ISO3166_2":"HI"},"countryName":"United States","fcodeName":"ridge(s)","adminName1":"Hawaii","lat":"21.9951","fcode":"RDGE"},{"adminCode1":"HI","lng":"-159.71838","geonameId":5852730,"toponymName":"Pu\u2018lehu Ridge","countryId":"6252001","fcl":"T","population":0,"countryCode":"US","name":"Pu\u2018lehu Ridge","fclName":"mountain,hill,rock,... ","adminCodes1":{"ISO3166_2":"HI"},"countryName":"United States","fcodeName":"ridge(s)","adminName1":"Hawaii","lat":"22.01583","fcode":"RDGE"},{"adminCode1":"PA","lng":"-77.18971","geonameId":5189607,"toponymName":"Firestone Ridge","countryId":"6252001","fcl":"T","population":0,"countryCode":"US","name":"Firestone Ridge","fclName":"mountain,hill,rock,... ","adminCodes1":{"ISO3166_2":"PA"},"countryName":"United States","fcodeName":"ridge(s)","adminName1":"Pennsylvania","lat":"40.7573","fcode":"RDGE"}]}
