{"totalResultsCount":118,"geonames":[{"adminCode1":"WY","lng":"-110.84559","geonameId":5836631,"toponymName":"Rimrock Lake","countryId":"6252001","fcl":"H","population":0,"countryCode":"US","name":"Rimrock Lake","fclName":"stream, lake, ...","adminCodes1":{"ISO3166_2":"WY"},"countryName":"United States","fcodeName":"lake","adminName1":"Wyoming","lat":"43.65518","fcode":"LK"},{"adminCode1":"CA","lng":"-117.25532","geonameId":5375091,"toponymName":"Motte Rimrock Reserve","countryId":"6252001","fcl":"L","population":0,"countryCode":"US","name":"Motte Rimrock Reserve","fclName":"parks,area, ...","adminCodes1":{"ISO3166_2":"CA"},"countryName":"United States","fcodeName":"park","adminName1":"California","lat":"33.80057","fcode":"PRK"},{"adminCode1":"AZ","lng":"-111.74571","geonameId":5311354,"toponymName":"Rimrock","countryId":"6252001","fcl":"P","population":0,"countryCode":"US","name":"Rimrock","fclName":"city, village,...","adminCodes1":{"ISO3166_2":"AZ"},"countryName":"United States","fcodeName":"populated place","adminName1":"Arizona","lat":"34.65058","fcode":"PPL"},{"adminCode1":"MT","lng":"-108.70292","geonameId":5673940,"toponymName":"Rimrock","countryId":"6252001","fcl":"P","population":0,"countryCode":"US","name":"Rimrock","fclName":"city, village,...","adminCodes1":{"ISO3166_2":"MT"},"countryName":"United States","fcodeName":"populated place","adminName1":"Montana","lat":"45.80217","fcode":"PPL"},{"adminCode1":"WA","lng":"-121.12508","geonameId":5808345,"toponymName":"Rimrock","countryId":"6252001","fcl":"P","population":0,"countryCode":"US","name":"Rimrock","fclName":"city, village,...","adminCodes1":{"ISO3166_2":"WA"},"countryName":"United States","fcodeName":"populated place","adminName1":"Washington","lat":"46.66428","fcode":"PPL"},{"adminCode1":"OR","lng":"-121.82005","geonameId":5748348,"toponymName":"Rimrock Lake","countryId":"6252001","fcl":"H","population":0,"countryCode":"US","name":"Rimrock Lake","fclName":"stream, lake, ...","adminCodes1":{"ISO3166_2":"OR"},"countryName":"United States","fcodeName":"lake","adminName1":"Oregon","lat":"44.80982","fcode":"LK"},{"adminCode1":"OR","lng":"-121.04976","geonameId":5748363,"toponymName":"Rimrock Springs Wildlife Management Area","countryId":"6252001","fcl":"L","population":0,"countryCode":"US","name":"Rimrock Springs Wildlife Management Area","fclName":"parks,area, ...","adminCodes1":{"ISO3166_2":"OR"},"countryName":"United States","fcodeName":"park","adminName1":"Oregon","lat":"44.4929","fcode":"PRK"},{"adminCode1":"MT","lng":"-109.68773","geonameId":5673945,"toponymName":"Rimrock Lake","countryId":"6252001","fcl":"H","population":0,"countryCode":"US","name":"Rimrock Lake","fclName":"stream, lake, ...","adminCodes1":{"ISO3166_2":"MT"},"countryName":"United States","fcodeName":"lake","adminName1":"Montana","lat":"45.14446","fcode":"LK"},{"adminCode1":"OR","lng":"-120.84889","geonameId":6348977,"toponymName":"Rimrock Park","countryId":"6252001","fcl":"L","population":0,"countryCode":"US","name":"Rimrock Park","fclName":"parks,area, ...","adminCodes1":{"ISO3166_2":"OR"},"countryName":"United States","fcodeName":"park","adminName1":"Oregon","lat":"44.29556","fcode":"PRK"},{"adminCode1":"KS","lng":"-96.85029","geonameId":4278073,"toponymName":"Rimrock Park","countryId":"6252001","fcl":"L","population":0,"countryCode":"US","name":"Rimrock Park","fclName":"parks,area, ...","adminCodes1":{"ISO3166_2":"KS"},"countryName":"United States","fcodeName":"park","adminName1":"Kansas","lat":"39.02083","fcode":"PRK"},{"adminCode1":"NV","lng":"-115.42447","geonameId":5511189,"toponymName":"Rimrock Canyon","countryId":"6252001","fcl":"T","population":0,"countryCode":"US","name":"Rimrock Canyon","fclName":"mountain,hill,rock,... ","adminCodes1":{"ISO3166_2":"NV"},"countryName":"United States","fcodeName":"valley","adminName1":"Nevada","lat":"38.21106","fcode":"VAL"},{"adminCode1":"WA","lng":"-119.52783","geonameId":5808356,"toponymName":"Rimrock Lake","countryId":"6252001","fcl":"H","population":0,"countryCode":"US","name":"Rimrock Lake","fclName":"stream, lake, ...","adminCodes1":{"ISO3166_2":"WA"},"countryName":"United States","fcodeName":"lake","adminName1":"Washington","lat":"48.2721","fcode":"LK"},{"adminCode1":"CA","lng":"-121.2001","geonameId":5570291,"toponymName":"Rimrock Lake","countryId":"6252001","fcl":"H","population":0,"countryCode":"US","name":"Rimrock Lake","fclName":"stream, lake, ...","adminCodes1":{"ISO3166_2":"CA"},"countryName":"United States","fcodeName":"lake","adminName1":"California","lat":"41.70719","fcode":"LK"},{"adminCode1":"NM","lng":"-105.06971","geonameId":5487591,"toponymName":"Rimrock Lake","countryId":"6252001","fcl":"H","population":0,"countryCode":"US","name":"Rimrock Lake","fclName":"stream, lake, ...","adminCodes1":{"ISO3166_2":"NM"},"countryName":"United States","fcodeName":"lake","adminName1":"New Mexico","lat":"36.36044","fcode":"LK"},{"adminCode1":"WA","lng":"-121.17882","geonameId":5808348,"toponymName":"Rimrock Lake","countryId":"6252001","fcl":"H","population":0,"countryCode":"US","name":"Rimrock Lake","fclName":"stream, lake, ...","adminCodes1":{"ISO3166_2":"WA"},"countryName":"United States","fcodeName":"reservoir(s)","adminName1":"Washington","lat":"46.63936","fcode":"RSV"},{"adminCode1":"MT","lng":"-111.14245","geonameId":5673950,"toponymName":"Rimrock Ridge","countryId":"6252001","fcl":"T","population":0,"countryCode":"US","name":"Rimrock Ridge","fclName":"mountain,hill,rock,... ","adminCodes1":{"ISO3166_2":"MT"},"countryName":"United States","fcodeName":"ridge(s)","adminName1":"Montana","lat":"46.90523","fcode":"RDGE"},{"adminCode1":"AZ","lng":"-111.78593","geonameId":5311355,"toponymName":"Rimrock Airport","countryId":"6252001","fcl":"S","population":0,"countryCode":"US","name":"Rimrock Airport","fclName":"spot, building, farm","adminCodes1":{"ISO3166_2":"AZ"},"countryName":"United States","fcodeName":"airport","adminName1":"Arizona","lat":"34.65226","fcode":"AIRP"},{"adminCode1":"WA","lng":"-121.00011","geonameId":5808354,"toponymName":"Rimrock Ridge","countryId":"6252001","fcl":"T","population":0,"countryCode":"US","name":"Rimrock Ridge","fclName":"mountain,hill,rock,... ","adminCodes1":{"ISO3166_2":"WA"},"countryName":"United States","fcodeName":"ridge(s)","adminName1":"Washington","lat":"48.37207","fcode":"RDGE"},{"adminCode1":"WA","lng":"-119.73644","geonameId":5808351,"toponymName":"Rimrock Meadows Airport","countryId":"6252001","fcl":"S","population":0,"countryCode":"US","name":"Rimrock Meadows Airport","fclName":"spot, building, farm","adminCodes1":{"ISO3166_2":"WA"},"countryName":"United States","fcodeName":"airport","adminName1":"Washington","lat":"47.51597","fcode":"AIRP"},{"adminCode1":"UT","lng":"-113.02577","geonameId":5545816,"toponymName":"Rimrock Spring","countryId":"6252001","fcl":"H","population":0,"countryCode":"US","name":"Rimrock Spring","fclName":"stream, lake, ...","adminCodes1":{"ISO3166_2":"UT"},"countryName":"United States","fcodeName":"spring(s)","adminName1":"Utah","lat":"37.15082","fcode":"SPNG"},{"adminCode1":"OR","lng":"-118.10911","geonameId":5748352,"toponymName":"Rimrock Ridge","countryId":"6252001","fcl":"T","population":0,"countryCode":"US","name":"Rimrock Ridge","fclName":"mountain,hill,rock,... ","adminCodes1":{"ISO3166_2":"OR"},"countryName":"United States","fcodeName":"ridge(s)","adminName1":"Oregon","lat":"45.83097","fcode":"RDGE"},{"adminCode1":"OR","lng":"-121.10638","geonameId":5748369,"toponymName":"Rimrock Point","countryId":"6252001","fcl":"T","population":0,"countryCode":"US","name":"Rimrock Point","fclName":"mountain,hill,rock,... ","adminCodes1":{"ISO3166_2":"OR"},"countryName":"United States","fcodeName":"ridge(s)","adminName1":"Oregon","lat":"42.57293","fcode":"RDGE"},{"adminCode1":"MT","lng":"-112.7748","geonameId":5673941,"toponymName":"Rimrock Butte","countryId":"6252001","fcl":"T","population":0,"countryCode":"US","name":"Rimrock Butte","fclName":"mountain,hill,rock,... ","adminCodes1":{"ISO3166_2":"MT"},"countryName":"United States","fcodeName":"mountain","adminName1":"Montana","lat":"48.70998","fcode":"MT"},{"adminCode1":"MT","lng":"-110.6027","geonameId":5673943,"toponymName":"Rimrock Divide","countryId":"6252001","fcl":"T","population":0,"countryCode":"US","name":"Rimrock Divide","fclName":"mountain,hill,rock,... ","adminCodes1":{"ISO3166_2":"MT"},"countryName":"United States","fcodeName":"ridge(s)","adminName1":"Montana","lat":"46.29661","fcode":"RDGE"},{"adminCode1":"MT","lng":"-110.6477","geonameId":5673948,"toponymName":"Rimrock Reefs","countryId":"6252001","fcl":"T","population":0,"countryCode":"US","name":"Rimrock Reefs","fclName":"mountain,hill,rock,... ","adminCodes1":{"ISO3166_2":"MT"},"countryName":"United States","fcodeName":"ridge(s)","adminName1":"Montana","lat":"46.33244","fcode":"RDGE"},{"adminCode1":"MT","lng":"-110.62159","geonameId":5673952,"toponymName":"The Rimrock","countryId":"6252001","fcl":"T","population":0,"countryCode":"US","name":"The Rimrock","fclName":"mountain,hill,rock,... ","adminCodes1":{"ISO3166_2":"MT"},"countryName":"United States","fcodeName":"ridge(s)","adminName1":"Montana","lat":"46.26994","fcode":"RDGE"},{"adminCode1":"ID","lng":"-116.73297","geonameId":5605383,"toponymName":"Rimrock","countryId":"6252001","fcl":"T","population":0,"countryCode":"US","name":"Rimrock","fclName":"mountain,hill,rock,... ","adminCodes1":{"ISO3166_2":"ID"},"countryName":"United States","fcodeName":"mountain","adminName1":"Idaho","lat":"47.85852","fcode":"MT"},{"adminCode1":"WY","lng":"-108.70985","geonameId":5836613,"toponymName":"Rimrock Basin","countryId":"6252001","fcl":"T","population":0,"countryCode":"US","name":"Rimrock Basin","fclName":"mountain,hill,rock,... ","adminCodes1":{"ISO3166_2":"WY"},"countryName":"United States","fcodeName":"depression(s)","adminName1":"Wyoming","lat":"44.22662","fcode":"DPR"},{"adminCode1":"WY","lng":"-107.25035","geonameId":5836614,"toponymName":"Rimrock Draw","countryId":"6252001","fcl":"T","population":0,"countryCode":"US","name":"Rimrock Draw","fclName":"mountain,hill,rock,... ","adminCodes1":{"ISO3166_2":"WY"},"countryName":"United States","fcodeName":"valley","adminName1":"Wyoming","lat":"43.82024","fcode":"VAL"},{"adminCode1":"CO","lng":"-108.26676","geonameId":5581394,"toponymName":"Rimrock Gulch","countryId":"6252001","fcl":"T","population":0,"countryCode":"US","name":"Rimrock Gulch","fclName":"mountain,hill,rock,... ","adminCodes1":{"ISO3166_2":"CO"},"countryName":"United States","fcodeName":"valley","adminName1":"Colorado","lat":"40.23914","fcode":"VAL"},{"adminCode1":"WA","lng":"-119.75783","geonameId":5801900,"toponymName":"Lower Rimrock Dam","countryId":"6252001","fcl":"S","population":0,"countryCode":"US","name":"Lower Rimrock Dam","fclName":"spot, building, farm","adminCodes1":{"ISO3166_2":"WA"},"countryName":"United States","fcodeName":"dam","adminName1":"Washington","lat":"47.49319","fcode":"DAM"},{"adminCode1":"CA","lng":"-120.59107","geonameId":5570293,"toponymName":"Rimrock Valley","countryId":"6252001","fcl":"T","population":0,"countryCode":"US","name":"Rimrock Valley","fclName":"mountain,hill,rock,... ","adminCodes1":{"ISO3166_2":"CA"},"countryName":"United States","fcodeName":"valley","adminName1":"California","lat":"41.78933","fcode":"VAL"},{"adminCode1":"CA","lng":"-116.55446","geonameId":5387582,"toponymName":"Rimrock","countryId":"6252001","fcl":"P","population":0,"countryCode":"US","name":"Rimrock","fclName":"city, village,...","adminCodes1":{"ISO3166_2":"CA"},"countryName":"United States","fcodeName":"populated place","adminName1":"California","lat":"34.19806","fcode":"PPL"},{"adminCode1":"TX","lng":"-106.07942","geonameId":5529270,"toponymName":"Rimrock","countryId":"6252001","fcl":"T","population":0,"countryCode":"US","name":"Rimrock","fclName":"mountain,hill,rock,... ","adminCodes1":{"ISO3166_2":"TX"},"countryName":"United States","fcodeName":"cliff(s)","adminName1":"Texas","lat":"31.57401","fcode":"CLF"},{"adminCode1":"NM","lng":"-108.8795","geonameId":5487590,"toponymName":"Rimrock","countryId":"6252001","fcl":"T","population":0,"countryCode":"US","name":"Rimrock","fclName":"mountain,hill,rock,... ","adminCodes1":{"ISO3166_2":"NM"},"countryName":"United States","fcodeName":"mountain","adminName1":"New Mexico","lat":"32.64452","fcode":"MT"},{"adminCode1":"NM","lng":"-108.72672","geonameId":5487592,"toponymName":"Rimrock Mountain","countryId":"6252001","fcl":"T","population":0,"countryCode":"US","name":"Rimrock Mountain","fclName":"mountain,hill,rock,... ","adminCodes1":{"ISO3166_2":"NM"},"countryName":"United States","fcodeName":"mountain","adminName1":"New Mexico","lat":"32.20508","fcode":"MT"},{"adminCode1":"OR","lng":"-118.4054","geonameId":5748353,"toponymName":"Rimrock Spring","countryId":"6252001","fcl":"H","population":0,"countryCode":"US","name":"Rimrock Spring","fclName":"stream, lake, ...","adminCodes1":{"ISO3166_2":"OR"},"countryName":"United States","fcodeName":"spring(s)","adminName1":"Oregon","lat":"44.13358","fcode":"SPNG"},{"adminCode1":"NV","lng":"-115.59589","geonameId":5707810,"toponymName":"Rimrock Spring","countryId":"6252001","fcl":"H","population":0,"countryCode":"US","name":"Rimrock Spring","fclName":"stream, lake, ...","adminCodes1":{"ISO3166_2":"NV"},"countryName":"United States","fcodeName":"spring(s)","adminName1":"Nevada","lat":"41.46588","fcode":"SPNG"},{"adminCode1":"NV","lng":"-119.20732","geonameId":5707812,"toponymName":"Rimrock Spring","countryId":"6252001","fcl":"H","population":0,"countryCode":"US","name":"Rimrock Spring","fclName":"stream, lake, ...","adminCodes1":{"ISO3166_2":"NV"},"countryName":"United States","fcodeName":"spring(s)","adminName1":"Nevada","lat":"41.6744","fcode":"SPNG"},{"adminCode1":"PA","lng":"-78.94476","geonameId":5208364,"toponymName":"Rimrock Picnic Area","countryId":"6252001","fcl":"S","population":0,"countryCode":"US","name":"Rimrock Picnic Area","fclName":"spot, building, farm","adminCodes1":{"ISO3166_2":"PA"},"countryName":"United States","fcodeName":"","adminName1":"Pennsylvania","lat":"41.84478"},{"adminCode1":"PA","lng":"-78.92115","geonameId":5208365,"toponymName":"Rimrock Trail Morrison Trail","countryId":"6252001","fcl":"R","population":0,"countryCode":"US","name":"Rimrock Trail Morrison Trail","fclName":"road, railroad ","adminCodes1":{"ISO3166_2":"PA"},"countryName":"United States","fcodeName":"trail","adminName1":"Pennsylvania","lat":"41.83812","fcode":"TRL"},{"adminCode1":"OR","lng":"-121.54313","geonameId":5748364,"toponymName":"Rimrock Trail","countryId":"6252001","fcl":"R","population":0,"countryCode":"US","name":"Rimrock Trail","fclName":"road, railroad ","adminCodes1":{"ISO3166_2":"OR"},"countryName":"United States","fcodeName":"trail","adminName1":"Oregon","lat":"45.15484","fcode":"TRL"},{"adminCode1":"PA","lng":"-78.94476","geonameId":5208363,"toponymName":"Rimrock Overlook","countryId":"6252001","fcl":"S","population":0,"countryCode":"US","name":"Rimrock Overlook","fclName":"spot, building, farm","adminCodes1":{"ISO3166_2":"PA"},"countryName":"United States","fcodeName":"","adminName1":"Pennsylvania","lat":"41.84478"},{"adminCode1":"MT","lng":"-108.92015","geonameId":5670636,"toponymName":"Park City","countryId":"6252001","fcl":"S","population":0,"countryCode":"US","name":"Park City","fclName":"spot, building, farm","adminCodes1":{"ISO3166_2":"MT"},"countryName":"United States","fcodeName":"","adminName1":"Montana","lat":"45.63217"},{"adminCode1":"WA","lng":"-121.13","geonameId":7308237,"toponymName":"Rimrock Tunnel","countryId":"6252001","fcl":"R","population":0,"countryCode":"US","name":"Rimrock Tunnel","fclName":"road, railroad ","adminCodes1":{"ISO3166_2":"WA"},"countryName":"United States","fcodeName":"tunnel","adminName1":"Washington","lat":"46.65694","fcode":"TNL"},{"adminCode1":"SD","lng":"-103.11073","geonameId":5768437,"toponymName":"Rimrock Trail","countryId":"6252001","fcl":"R","population":0,"countryCode":"US","name":"Rimrock Trail","fclName":"road, railroad ","adminCodes1":{"ISO3166_2":"SD"},"countryName":"United States","fcodeName":"trail","adminName1":"South Dakota","lat":"45.35638","fcode":"TRL"},{"adminCode1":"CO","lng":"-108.00925","geonameId":5436440,"toponymName":"Rim Rock Lake","countryId":"6252001","fcl":"H","population":0,"countryCode":"US","name":"Rim Rock Lake","fclName":"stream, lake, ...","adminCodes1":{"ISO3166_2":"CO"},"countryName":"United States","fcodeName":"reservoir(s)","adminName1":"Colorado","lat":"39.02281","fcode":"RSV"},{"adminCode1":"NV","lng":"-115.4528","geonameId":5503264,"toponymName":"Dry Wash","countryId":"6252001","fcl":"H","population":0,"countryCode":"US","name":"Dry Wash","fclName":"stream, lake, ...","adminCodes1":{"ISO3166_2":"NV"},"countryName":"United States","fcodeName":"stream","adminName1":"Nevada","lat":"38.21411","fcode":"STM"},{"adminCode1":"ID","lng":"-115.98954","geonameId":5605386,"toponymName":"Rimrock Junior-Senior High School","countryId":"6252001","fcl":"S","population":0,"countryCode":"US","name":"Rimrock Junior-Senior High School","fclName":"spot, building, farm","adminCodes1":{"ISO3166_2":"ID"},"countryName":"United States","fcodeName":"school","adminName1":"Idaho","lat":"42.9335","fcode":"SCH"},{"adminCode1":"OR","lng":"-122.15841","geonameId":5748344,"toponymName":"Rimrock Creek","countryId":"6252001","fcl":"H","population":0,"countryCode":"US","name":"Rimrock Creek","fclName":"stream, lake, ...","adminCodes1":{"ISO3166_2":"OR"},"countryName":"United States","fcodeName":"stream","adminName1":"Oregon","lat":"45.13318","fcode":"STM"},{"adminCode1":"OR","lng":"-120.39276","geonameId":5748346,"toponymName":"Rimrock Creek","countryId":"6252001","fcl":"H","population":0,"countryCode":"US","name":"Rimrock Creek","fclName":"stream, lake, ...","adminCodes1":{"ISO3166_2":"OR"},"countryName":"United States","fcodeName":"stream","adminName1":"Oregon","lat":"43.74708","fcode":"STM"},{"adminCode1":"OR","lng":"-120.18394","geonameId":5748349,"toponymName":"Rimrock Reservoir","countryId":"6252001","fcl":"H","population":0,"countryCode":"US","name":"Rimrock Reservoir","fclName":"stream, lake, ...","adminCodes1":{"ISO3166_2":"OR"},"countryName":"United States","fcodeName":"reservoir(s)","adminName1":"Oregon","lat":"44.23523","fcode":"RSV"},{"adminCode1":"OR","lng":"-118.53741","geonameId":5748350,"toponymName":"Rimrock Reservoir","countryId":"6252001","fcl":"H","population":0,"countryCode":"US","name":"Rimrock Reservoir","fclName":"stream, lake, ...","adminCodes1":{"ISO3166_2":"OR"},"countryName":"United States","fcodeName":"reservoir(s)","adminName1":"Oregon","lat":"43.75753","fcode":"RSV"},{"adminCode1":"OR","lng":"-117.26921","geonameId":5748351,"toponymName":"Rimrock Reservoir","countryId":"6252001","fcl":"H","population":0,"countryCode":"US","name":"Rimrock Reservoir","fclName":"stream, lake, ...","adminCodes1":{"ISO3166_2":"OR"},"countryName":"United States","fcodeName":"reservoir(s)","adminName1":"Oregon","lat":"42.69553","fcode":"RSV"},{"adminCode1":"OR","lng":"-119.54841","geonameId":5748354,"toponymName":"Rimrock Spring","countryId":"6252001","fcl":"H","population":0,"countryCode":"US","name":"Rimrock Spring","fclName":"stream, lake, ...","adminCodes1":{"ISO3166_2":"OR"},"countryName":"United States","fcodeName":"spring(s)","adminName1":"Oregon","lat":"44.66563","fcode":"SPNG"},{"adminCode1":"OR","lng":"-119.13586","geonameId":5748355,"toponymName":"Rimrock Spring","countryId":"6252001","fcl":"H","population":0,"countryCode":"US","name":"Rimrock Spring","fclName":"stream, lake, ...","adminCodes1":{"ISO3166_2":"OR"},"countryName":"United States","fcodeName":"spring(s)","adminName1":"Oregon","lat":"43.6077","fcode":"SPNG"},{"adminCode1":"OR","lng":"-119.64938","geonameId":5748356,"toponymName":"Rimrock Spring","countryId":"6252001","fcl":"H","population":0,"countryCode":"US","name":"Rimrock Spring","fclName":"stream, lake, ...","adminCodes1":{"ISO3166_2":"OR"},"countryName":"United States","fcodeName":"spring(s)","adminName1":"Oregon","lat":"43.94479","fcode":"SPNG"},{"adminCode1":"OR","lng":"-118.46688","geonameId":5748357,"toponymName":"Rimrock Spring","countryId":"6252001","fcl":"H","population":0,"countryCode":"US","name":"Rimrock Spring","fclName":"stream, lake, ...","adminCodes1":{"ISO3166_2":"OR"},"countryName":"United States","fcodeName":"spring(s)","adminName1":"Oregon","lat":"43.89608","fcode":"SPNG"},{"adminCode1":"OR","lng":"-119.10716","geonameId":5748358,"toponymName":"Rimrock Spring","countryId":"6252001","fcl":"H","population":0,"countryCode":"US","name":"Rimrock Spring","fclName":"stream, lake, ...","adminCodes1":{"ISO3166_2":"OR"},"countryName":"United States","fcodeName":"spring(s)","adminName1":"Oregon","lat":"43.83921","fcode":"SPNG"},{"adminCode1":"OR","lng":"-121.01359","geonameId":5748359,"toponymName":"Rimrock Spring","countryId":"6252001","fcl":"H","population":0,"countryCode":"US","name":"Rimrock Spring","fclName":"stream, lake, ...","adminCodes1":{"ISO3166_2":"OR"},"countryName":"United States","fcodeName":"spring(s)","adminName1":"Oregon","lat":"42.07627","fcode":"SPNG"},{"adminCode1":"OR","lng":"-117.88537","geonameId":5748360,"toponymName":"Rimrock Spring","countryId":"6252001","fcl":"H","population":0,"countryCode":"US","name":"Rimrock Spring","fclName":"stream, lake, ...","adminCodes1":{"ISO3166_2":"OR"},"countryName":"United States","fcodeName":"spring(s)","adminName1":"Oregon","lat":"43.87513","fcode":"SPNG"},{"adminCode1":"OR","lng":"-117.85798","geonameId":5748361,"toponymName":"Rimrock Spring","countryId":"6252001","fcl":"H","population":0,"countryCode":"US","name":"Rimrock Spring","fclName":"stream, lake, ...","adminCodes1":{"ISO3166_2":"OR"},"countryName":"United States","fcodeName":"spring(s)","adminName1":"Oregon","lat":"43.82628","fcode":"SPNG"},{"adminCode1":"OR","lng":"-119.97776","geonameId":5748362,"toponymName":"Rimrock Spring","countryId":"6252001","fcl":"H","population":0,"countryCode":"US","name":"Rimrock Spring","fclName":"stream, lake, ...","adminCodes1":{"ISO3166_2":"OR"},"countryName":"United States","fcodeName":"spring(s)","adminName1":"Oregon","lat":"44.75633","fcode":"SPNG"},{"adminCode1":"OR","lng":"-119.23937","geonameId":5748365,"toponymName":"Rimrock Waterhole","countryId":"6252001","fcl":"H","population":0,"countryCode":"US","name":"Rimrock Waterhole","fclName":"stream, lake, ...","adminCodes1":{"ISO3166_2":"OR"},"countryName":"United States","fcodeName":"reservoir(s)","adminName1":"Oregon","lat":"42.40412","fcode":"RSV"},{"adminCode1":"OR","lng":"-119.18489","geonameId":5734706,"toponymName":"Keg Springs Rimrock Reservoir","countryId":"6252001","fcl":"H","population":0,"countryCode":"US","name":"Keg Springs Rimrock Reservoir","fclName":"stream, lake, ...","adminCodes1":{"ISO3166_2":"OR"},"countryName":"United States","fcodeName":"reservoir(s)","adminName1":"Oregon","lat":"42.91935","fcode":"RSV"},{"adminCode1":"MT","lng":"-112.09671","geonameId":5673942,"toponymName":"Rimrock Colony School","countryId":"6252001","fcl":"S","population":0,"countryCode":"US","name":"Rimrock Colony School","fclName":"spot, building, farm","adminCodes1":{"ISO3166_2":"MT"},"countryName":"United States","fcodeName":"school","adminName1":"Montana","lat":"48.89444","fcode":"SCH"},{"adminCode1":"MT","lng":"-108.35207","geonameId":5673944,"toponymName":"Rimrock Hospital (historical)","countryId":"6252001","fcl":"S","population":0,"countryCode":"US","name":"Rimrock Hospital (historical)","fclName":"spot, building, farm","adminCodes1":{"ISO3166_2":"MT"},"countryName":"United States","fcodeName":"hospital","adminName1":"Montana","lat":"47.00276","fcode":"HSP"},{"adminCode1":"MT","lng":"-106.74672","geonameId":5673946,"toponymName":"Rimrock Ranch","countryId":"6252001","fcl":"S","population":0,"countryCode":"US","name":"Rimrock Ranch","fclName":"spot, building, farm","adminCodes1":{"ISO3166_2":"MT"},"countryName":"United States","fcodeName":"","adminName1":"Montana","lat":"47.2125"},{"adminCode1":"MT","lng":"-112.78397","geonameId":5673947,"toponymName":"Rimrock Ranch","countryId":"6252001","fcl":"S","population":0,"countryCode":"US","name":"Rimrock Ranch","fclName":"spot, building, farm","adminCodes1":{"ISO3166_2":"MT"},"countryName":"United States","fcodeName":"","adminName1":"Montana","lat":"48.84832"},{"adminCode1":"MT","lng":"-105.86375","geonameId":5673949,"toponymName":"Rimrock Reservoir","countryId":"6252001","fcl":"H","population":0,"countryCode":"US","name":"Rimrock Reservoir","fclName":"stream, lake, ...","adminCodes1":{"ISO3166_2":"MT"},"countryName":"United States","fcodeName":"reservoir(s)","adminName1":"Montana","lat":"45.24732","fcode":"RSV"},{"adminCode1":"MT","lng":"-108.54986","geonameId":5673951,"toponymName":"Rimrock School","countryId":"6252001","fcl":"S","population":0,"countryCode":"US","name":"Rimrock School","fclName":"spot, building, farm","adminCodes1":{"ISO3166_2":"MT"},"countryName":"United States","fcodeName":"school","adminName1":"Montana","lat":"45.79801","fcode":"SCH"},{"adminCode1":"MT","lng":"-108.55903","geonameId":5669925,"toponymName":"Old Rimrock School","countryId":"6252001","fcl":"S","population":0,"countryCode":"US","name":"Old Rimrock School","fclName":"spot, building, farm","adminCodes1":{"ISO3166_2":"MT"},"countryName":"United States","fcodeName":"school","adminName1":"Montana","lat":"45.79829","fcode":"SCH"},{"adminCode1":"ID","lng":"-116.76452","geonameId":5605384,"toponymName":"Rimrock Cemetery","countryId":"6252001","fcl":"S","population":0,"countryCode":"US","name":"Rimrock Cemetery","fclName":"spot, building, farm","adminCodes1":{"ISO3166_2":"ID"},"countryName":"United States","fcodeName":"cemetery","adminName1":"Idaho","lat":"47.8246","fcode":"CMTY"},{"adminCode1":"ID","lng":"-114.45171","geonameId":5605387,"toponymName":"Rimrock Spring","countryId":"6252001","fcl":"H","population":0,"countryCode":"US","name":"Rimrock Spring","fclName":"stream, lake, ...","adminCodes1":{"ISO3166_2":"ID"},"countryName":"United States","fcodeName":"spring(s)","adminName1":"Idaho","lat":"42.29712","fcode":"SPNG"},{"adminCode1":"WY","lng":"-106.64531","geonameId":5836616,"toponymName":"Rimrock Mine","countryId":"6252001","fcl":"S","population":0,"countryCode":"US","name":"Rimrock Mine","fclName":"spot, building, farm","adminCodes1":{"ISO3166_2":"WY"},"countryName":"United States","fcodeName":"mine(s)","adminName1":"Wyoming","lat":"41.90552","fcode":"MN"},{"adminCode1":"WY","lng":"-106.64781","geonameId":5836617,"toponymName":"Rimrock Number One Mine","countryId":"6252001","fcl":"S","population":0,"countryCode":"US","name":"Rimrock Number One Mine","fclName":"spot, building, farm","adminCodes1":{"ISO3166_2":"WY"},"countryName":"United States","fcodeName":"mine(s)","adminName1":"Wyoming","lat":"41.89024","fcode":"MN"},{"adminCode1":"WY","lng":"-106.64781","geonameId":5836618,"toponymName":"Rimrock Number Two Mine","countryId":"6252001","fcl":"S","population":0,"countryCode":"US","name":"Rimrock Number Two Mine","fclName":"spot, building, farm","adminCodes1":{"ISO3166_2":"WY"},"countryName":"United States","fcodeName":"mine(s)","adminName1":"Wyoming","lat":"41.89024","fcode":"MN"},{"adminCode1":"WY","lng":"-110.64214","geonameId":5836619,"toponymName":"Rimrock Ranch","countryId":"6252001","fcl":"S","population":0,"countryCode":"US","name":"Rimrock Ranch","fclName":"spot, building, farm","adminCodes1":{"ISO3166_2":"WY"},"countryName":"United States","fcodeName":"","adminName1":"Wyoming","lat":"43.23215"},{"adminCode1":"WY","lng":"-109.52572","geonameId":5836620,"toponymName":"Rimrock Ranch","countryId":"6252001","fcl":"S","population":0,"countryCode":"US","name":"Rimrock Ranch","fclName":"spot, building, farm","adminCodes1":{"ISO3166_2":"WY"},"countryName":"United States","fcodeName":"","adminName1":"Wyoming","lat":"44.45078"},{"adminCode1":"NV","lng":"-116.58399","geonameId":5707808,"toponymName":"Rimrock Mine","countryId":"6252001","fcl":"S","population":0,"countryCode":"US","name":"Rimrock Mine","fclName":"spot, building, farm","adminCodes1":{"ISO3166_2":"NV"},"countryName":"United States","fcodeName":"mine(s)","adminName1":"Nevada","lat":"41.17296","fcode":"MN"},{"adminCode1":"NV","lng":"-117.27201","geonameId":5707809,"toponymName":"Rimrock Reservoir","countryId":"6252001","fcl":"H","population":0,"countryCode":"US","name":"Rimrock Reservoir","fclName":"stream, lake, ...","adminCodes1":{"ISO3166_2":"NV"},"countryName":"United States","fcodeName":"reservoir(s)","adminName1":"Nevada","lat":"41.62024","fcode":"RSV"},{"adminCode1":"NV","lng":"-116.50258","geonameId":5707811,"toponymName":"Rimrock Spring","countryId":"6252001","fcl":"H","population":0,"countryCode":"US","name":"Rimrock Spring","fclName":"stream, lake, ...","adminCodes1":{"ISO3166_2":"NV"},"countryName":"United States","fcodeName":"spring(s)","adminName1":"Nevada","lat":"40.15409","fcode":"SPNG"},{"adminCode1":"NV","lng":"-119.96152","geonameId":5707813,"toponymName":"Rimrock Spring","countryId":"6252001","fcl":"H","population":0,"countryCode":"US","name":"Rimrock Spring","fclName":"stream, lake, ...","adminCodes1":{"ISO3166_2":"NV"},"countryName":"United States","fcodeName":"spring(s)","adminName1":"Nevada","lat":"41.44383","fcode":"SPNG"},{"adminCode1":"NV","lng":"-119.86854","geonameId":5707814,"toponymName":"Rimrock Spring","countryId":"6252001","fcl":"H","population":0,"countryCode":"US","name":"Rimrock Spring","fclName":"stream, lake, ...","adminCodes1":{"ISO3166_2":"NV"},"countryName":"United States","fcodeName":"spring(s)","adminName1":"Nevada","lat":"40.66823","fcode":"SPNG"},{"adminCode1":"NV","lng":"-116.52703","geonameId":5707815,"toponymName":"Rimrock Springs","countryId":"6252001","fcl":"H","population":0,"countryCode":"US","name":"Rimrock Springs","fclName":"stream, lake, ...","adminCodes1":{"ISO3166_2":"NV"},"countryName":"United States","fcodeName":"spring(s)","adminName1":"Nevada","lat":"40.14798","fcode":"SPNG"},{"adminCode1":"AK","lng":"-149.63083","geonameId":5872759,"toponymName":"Rimrock Creek","countryId":"6252001","fcl":"H","population":0,"countryCode":"US","name":"Rimrock Creek","fclName":"stream, lake, ...","adminCodes1":{"ISO3166_2":"AK"},"countryName":"United States","fcodeName":"stream","adminName1":"Alaska","lat":"60.84278","fcode":"STM"},{"adminCode1":"WY","lng":"-106.63167","geonameId":6333115,"toponymName":"Rimrock Pit Number Three","countryId":"6252001","fcl":"S","population":0,"countryCode":"US","name":"Rimrock Pit Number Three","fclName":"spot, building, farm","adminCodes1":{"ISO3166_2":"WY"},"countryName":"United States","fcodeName":"mine(s)","adminName1":"Wyoming","lat":"41.89667","fcode":"MN"},{"adminCode1":"WY","lng":"-106.38389","geonameId":6332865,"toponymName":"Boels-Rimrock Pit","countryId":"6252001","fcl":"S","population":0,"countryCode":"US","name":"Boels-Rimrock Pit","fclName":"spot, building, farm","adminCodes1":{"ISO3166_2":"WY"},"countryName":"United States","fcodeName":"mine(s)","adminName1":"Wyoming","lat":"42.84222","fcode":"MN"},{"adminCode1":"AZ","lng":"-111.78464","geonameId":7240507,"toponymName":"Rimrock Public High School","countryId":"6252001","fcl":"S","population":0,"countryCode":"US","name":"Rimrock Public High School","fclName":"spot, building, farm","adminCodes1":{"ISO3166_2":"AZ"},"countryName":"United States","fcodeName":"school","adminName1":"Arizona","lat":"34.64516","fcode":"SCH"},{"adminCode1":"KS","lng":"-96.85057","geonameId":4278072,"toponymName":"Rimrock Dam","countryId":"6252001","fcl":"S","population":0,"countryCode":"US","name":"Rimrock Dam","fclName":"spot, building, farm","adminCodes1":{"ISO3166_2":"KS"},"countryName":"United States","fcodeName":"dam","adminName1":"Kansas","lat":"39.02222","fcode":"DAM"},{"adminCode1":"CO","lng":"-105.41694","geonameId":5436454,"toponymName":"Rimrock Campground","countryId":"6252001","fcl":"S","population":0,"countryCode":"US","name":"Rimrock Campground","fclName":"spot, building, farm","adminCodes1":{"ISO3166_2":"CO"},"countryName":"United States","fcodeName":"camp(s)","adminName1":"Colorado","lat":"39.86415","fcode":"CMP"},{"adminCode1":"CO","lng":"-105.42944","geonameId":5436455,"toponymName":"Rimrock Creek","countryId":"6252001","fcl":"H","population":0,"countryCode":"US","name":"Rimrock Creek","fclName":"stream, lake, ...","adminCodes1":{"ISO3166_2":"CO"},"countryName":"United States","fcodeName":"stream","adminName1":"Colorado","lat":"38.92083","fcode":"STM"},{"adminCode1":"CO","lng":"-108.00896","geonameId":5436457,"toponymName":"Rimrock Lake","countryId":"6252001","fcl":"H","population":0,"countryCode":"US","name":"Rimrock Lake","fclName":"stream, lake, ...","adminCodes1":{"ISO3166_2":"CO"},"countryName":"United States","fcodeName":"reservoir(s)","adminName1":"Colorado","lat":"39.02331","fcode":"RSV"},{"adminCode1":"CO","lng":"-107.48506","geonameId":5436458,"toponymName":"Rimrock School","countryId":"6252001","fcl":"S","population":0,"countryCode":"US","name":"Rimrock School","fclName":"spot, building, farm","adminCodes1":{"ISO3166_2":"CO"},"countryName":"United States","fcodeName":"","adminName1":"Colorado","lat":"38.38943"},{"adminCode1":"CO","lng":"-108.86649","geonameId":5436460,"toponymName":"Rimrock Group Mine","countryId":"6252001","fcl":"S","population":0,"countryCode":"US","name":"Rimrock Group Mine","fclName":"spot, building, farm","adminCodes1":{"ISO3166_2":"CO"},"countryName":"United States","fcodeName":"mine(s)","adminName1":"Colorado","lat":"38.15527","fcode":"MN"},{"adminCode1":"AZ","lng":"-111.78493","geonameId":5311356,"toponymName":"Rimrock Post Office","countryId":"6252001","fcl":"S","population":0,"countryCode":"US","name":"Rimrock Post Office","fclName":"spot, building, farm","adminCodes1":{"ISO3166_2":"AZ"},"countryName":"United States","fcodeName":"post office","adminName1":"Arizona","lat":"34.64521","fcode":"PO"},{"adminCode1":"AZ","lng":"-111.77043","geonameId":5311357,"toponymName":"Rimrock Ranch","countryId":"6252001","fcl":"S","population":0,"countryCode":"US","name":"Rimrock Ranch","fclName":"spot, building, farm","adminCodes1":{"ISO3166_2":"AZ"},"countryName":"United States","fcodeName":"","adminName1":"Arizona","lat":"34.64891"},{"adminCode1":"AZ","lng":"-113.22784","geonameId":5311358,"toponymName":"Rimrock Tank","countryId":"6252001","fcl":"H","population":0,"countryCode":"US","name":"Rimrock Tank","fclName":"stream, lake, ...","adminCodes1":{"ISO3166_2":"AZ"},"countryName":"United States","fcodeName":"water tank","adminName1":"Arizona","lat":"34.91111","fcode":"RSVT"},{"adminCode1":"VA","lng":"-82.68925","geonameId":4781872,"toponymName":"Rimrock Lake","countryId":"6252001","fcl":"H","population":0,"countryCode":"US","name":"Rimrock Lake","fclName":"stream, lake, ...","adminCodes1":{"ISO3166_2":"VA"},"countryName":"United States","fcodeName":"reservoir(s)","adminName1":"Virginia","lat":"36.91272","fcode":"RSV"},{"adminCode1":"VA","lng":"-82.68821","geonameId":4781873,"toponymName":"Rimrock Lake Dam","countryId":"6252001","fcl":"S","population":0,"countryCode":"US","name":"Rimrock Lake Dam","fclName":"spot, building, farm","adminCodes1":{"ISO3166_2":"VA"},"countryName":"United States","fcodeName":"dam","adminName1":"Virginia","lat":"36.91343","fcode":"DAM"}]}
