{"totalResultsCount":16,"geonames":[{"adminCode1":"085","lng":"-65.84327","geonameId":7268367,"toponymName":"El Río Barrio","countryId":"4566966","fcl":"A","population":0,"countryCode":"PR","name":"El Río Barrio","fclName":"country, state, region,...","adminCodes1":{},"countryName":"Puerto Rico","fcodeName":"second-order administrative division","adminName1":"Las Piedras","lat":"18.23881","fcode":"ADM2"},{"adminCode1":"127","lng":"-66.04989","geonameId":4829037,"toponymName":"Rio Piedras","countryId":"4566966","fcl":"P","population":0,"countryCode":"PR","name":"Rio Piedras","fclName":"city, village,...","adminCodes1":{},"countryName":"Puerto Rico","fcodeName":"populated place","adminName1":"San Juan","lat":"18.39745","fcode":"PPL"},{"adminCode1":"127","lng":"-66.04994","geonameId":7268915,"toponymName":"Río Piedras Antiguo Subbarrio","countryId":"4566966","fcl":"A","population":0,"countryCode":"PR","name":"Río Piedras Antiguo Subbarrio","fclName":"country, state, region,...","adminCodes1":{},"countryName":"Puerto Rico","fcodeName":"third-order administrative division","adminName1":"San Juan","lat":"18.39982","fcode":"ADM3"},{"adminCode1":"141","lng":"-66.83018","geonameId":4567898,"toponymName":"Río Piedras","countryId":"4566966","fcl":"H","population":0,"countryCode":"PR","name":"Río Piedras","fclName":"stream, lake, ...","adminCodes1":{},"countryName":"Puerto Rico","fcodeName":"stream","adminName1":"Utuado","lat":"18.27801","fcode":"STM"},{"adminCode1":"085","lng":"-65.91961","geonameId":4567934,"toponymName":"Río Valenciano","countryId":"4566966","fcl":"H","population":0,"countryCode":"PR","name":"Río Valenciano","fclName":"stream, lake, ...","adminCodes1":{},"countryName":"Puerto Rico","fcodeName":"stream","adminName1":"Las Piedras","lat":"18.23746","fcode":"STM"},{"adminCode1":"085","lng":"-65.86157","geonameId":7274982,"toponymName":"Pueblito Del Río Comunidad","countryId":"4566966","fcl":"P","population":0,"countryCode":"PR","name":"Pueblito Del Río Comunidad","fclName":"city, village,...","adminCodes1":{},"countryName":"Puerto Rico","fcodeName":"populated place","adminName1":"Las Piedras","lat":"18.22802","fcode":"PPL"},{"adminCode1":"085","lng":"-65.86294","geonameId":4566913,"toponymName":"Pueblito del Rio","countryId":"4566966","fcl":"P","population":1481,"countryCode":"PR","name":"Pueblito del Rio","fclName":"city, village,...","adminCodes1":{},"countryName":"Puerto Rico","fcodeName":"populated place","adminName1":"Las Piedras","lat":"18.22801","fcode":"PPL"},{"adminCode1":"127","lng":"-66.05044","geonameId":4568475,"toponymName":"Universidad De Puerto Rico","countryId":"4566966","fcl":"S","population":0,"countryCode":"PR","name":"Universidad De Puerto Rico","fclName":"spot, building, farm","adminCodes1":{},"countryName":"Puerto Rico","fcodeName":"school","adminName1":"San Juan","lat":"18.403","fcode":"SCH"},{"adminCode1":"085","lng":"-65.85877","geonameId":4567730,"toponymName":"Río","countryId":"4566966","fcl":"P","population":0,"countryCode":"PR","name":"Río","fclName":"city, village,...","adminCodes1":{},"countryName":"Puerto Rico","fcodeName":"populated place","adminName1":"Las Piedras","lat":"18.22801","fcode":"PPL"},{"adminCode1":"127","lng":"-66.04517","geonameId":4566153,"toponymName":"Mansiones de Rio Piedras","countryId":"4566966","fcl":"P","population":0,"countryCode":"PR","name":"Mansiones de Rio Piedras","fclName":"city, village,...","adminCodes1":{},"countryName":"Puerto Rico","fcodeName":"populated place","adminName1":"San Juan","lat":"18.36884","fcode":"PPL"},{"adminCode1":"011","lng":"-67.10962","geonameId":4567896,"toponymName":"Río Piedras","countryId":"4566966","fcl":"H","population":0,"countryCode":"PR","name":"Río Piedras","fclName":"stream, lake, ...","adminCodes1":{},"countryName":"Puerto Rico","fcodeName":"stream","adminName1":"Añasco","lat":"18.29301","fcode":"STM"},{"adminCode1":"127","lng":"-66.08128","geonameId":4567897,"toponymName":"Río Piedras","countryId":"4566966","fcl":"H","population":0,"countryCode":"PR","name":"Río Piedras","fclName":"stream, lake, ...","adminCodes1":{},"countryName":"Puerto Rico","fcodeName":"stream","adminName1":"San Juan","lat":"18.42217","fcode":"STM"},{"adminCode1":"007","lng":"-66.08433","geonameId":4568777,"toponymName":"WFID-FM (Rio Piedras)","countryId":"4566966","fcl":"S","population":0,"countryCode":"PR","name":"WFID-FM (Rio Piedras)","fclName":"spot, building, farm","adminCodes1":{},"countryName":"Puerto Rico","fcodeName":"tower","adminName1":"Aguas Buenas","lat":"18.26468","fcode":"TOWR"},{"adminCode1":"085","lng":"-65.831","geonameId":4564438,"toponymName":"Escuela García","countryId":"4566966","fcl":"S","population":0,"countryCode":"PR","name":"Escuela García","fclName":"spot, building, farm","adminCodes1":{},"countryName":"Puerto Rico","fcodeName":"school","adminName1":"Las Piedras","lat":"18.24551","fcode":"SCH"},{"adminCode1":"085","lng":"-65.83711","geonameId":4564508,"toponymName":"Escuela Juan Resto","countryId":"4566966","fcl":"S","population":0,"countryCode":"PR","name":"Escuela Juan Resto","fclName":"spot, building, farm","adminCodes1":{},"countryName":"Puerto Rico","fcodeName":"school","adminName1":"Las Piedras","lat":"18.22746","fcode":"SCH"},{"adminCode1":"085","lng":"-65.85155","geonameId":4564648,"toponymName":"Escuela Quebrada Grande","countryId":"4566966","fcl":"S","population":0,"countryCode":"PR","name":"Escuela Quebrada Grande","fclName":"spot, building, farm","adminCodes1":{},"countryName":"Puerto Rico","fcodeName":"school","adminName1":"Las Piedras","lat":"18.24079","fcode":"SCH"}]}
