{"totalResultsCount":30,"geonames":[{"adminCode1":"MA","lng":"-71.67813","geonameId":4948825,"toponymName":"Robbs Hill","countryId":"6252001","fcl":"T","population":0,"countryCode":"US","name":"Robbs Hill","fclName":"mountain,hill,rock,... ","adminCodes1":{"ISO3166_2":"MA"},"countryName":"United States","fcodeName":"mountain","adminName1":"Massachusetts","lat":"42.55842","fcode":"MT"},{"adminCode1":"CA","lng":"-120.40353","geonameId":5388074,"toponymName":"Robbs Peak","countryId":"6252001","fcl":"T","population":0,"countryCode":"US","name":"Robbs Peak","fclName":"mountain,hill,rock,... ","adminCodes1":{"ISO3166_2":"CA"},"countryName":"United States","fcodeName":"mountain","adminName1":"California","lat":"38.92463","fcode":"MT"},{"adminCode1":"MS","lng":"-89.20701","geonameId":4443455,"toponymName":"Robbs","countryId":"6252001","fcl":"P","population":0,"countryCode":"US","name":"Robbs","fclName":"city, village,...","adminCodes1":{"ISO3166_2":"MS"},"countryName":"United States","fcodeName":"populated place","adminName1":"Mississippi","lat":"34.1015","fcode":"PPL"},{"adminCode1":"IL","lng":"-88.69978","geonameId":4248228,"toponymName":"Robbs","countryId":"6252001","fcl":"P","population":0,"countryCode":"US","name":"Robbs","fclName":"city, village,...","adminCodes1":{"ISO3166_2":"IL"},"countryName":"United States","fcodeName":"populated place","adminName1":"Illinois","lat":"37.45894","fcode":"PPL"},{"adminCode1":"IL","lng":"-89.60564","geonameId":4248229,"toponymName":"Robbs Mound","countryId":"6252001","fcl":"T","population":0,"countryCode":"US","name":"Robbs Mound","fclName":"mountain,hill,rock,... ","adminCodes1":{"ISO3166_2":"IL"},"countryName":"United States","fcodeName":"mountain","adminName1":"Illinois","lat":"39.00671","fcode":"MT"},{"adminCode1":"NY","lng":"-74.2857","geonameId":5134029,"toponymName":"Robbs Creek","countryId":"6252001","fcl":"H","population":0,"countryCode":"US","name":"Robbs Creek","fclName":"stream, lake, ...","adminCodes1":{"ISO3166_2":"NY"},"countryName":"United States","fcodeName":"stream","adminName1":"New York","lat":"43.50868","fcode":"STM"},{"adminCode1":"CA","lng":"-117.85395","geonameId":5388021,"toponymName":"Robbs Gulch","countryId":"6252001","fcl":"T","population":0,"countryCode":"US","name":"Robbs Gulch","fclName":"mountain,hill,rock,... ","adminCodes1":{"ISO3166_2":"CA"},"countryName":"United States","fcodeName":"valley","adminName1":"California","lat":"34.22112","fcode":"VAL"},{"adminCode1":"CA","lng":"-120.37742","geonameId":5388025,"toponymName":"Robbs Valley","countryId":"6252001","fcl":"T","population":0,"countryCode":"US","name":"Robbs Valley","fclName":"mountain,hill,rock,... ","adminCodes1":{"ISO3166_2":"CA"},"countryName":"United States","fcodeName":"plain(s)","adminName1":"California","lat":"38.92824","fcode":"PLN"},{"adminCode1":"AR","lng":"-90.40371","geonameId":4128576,"toponymName":"Robbs Chapel Baptist Church","countryId":"6252001","fcl":"S","population":0,"countryCode":"US","name":"Robbs Chapel Baptist Church","fclName":"spot, building, farm","adminCodes1":{"ISO3166_2":"AR"},"countryName":"United States","fcodeName":"church","adminName1":"Arkansas","lat":"36.03729","fcode":"CH"},{"adminCode1":"SD","lng":"-101.36126","geonameId":5768468,"toponymName":"Robbs Draw","countryId":"6252001","fcl":"T","population":0,"countryCode":"US","name":"Robbs Draw","fclName":"mountain,hill,rock,... ","adminCodes1":{"ISO3166_2":"SD"},"countryName":"United States","fcodeName":"valley","adminName1":"South Dakota","lat":"44.64526","fcode":"VAL"},{"adminCode1":"SD","lng":"-101.32543","geonameId":5768488,"toponymName":"Robbs Flat","countryId":"6252001","fcl":"T","population":0,"countryCode":"US","name":"Robbs Flat","fclName":"mountain,hill,rock,... ","adminCodes1":{"ISO3166_2":"SD"},"countryName":"United States","fcodeName":"plain(s)","adminName1":"South Dakota","lat":"44.61304","fcode":"PLN"},{"adminCode1":"MS","lng":"-89.20674","geonameId":4443458,"toponymName":"Robbs United Methodist Church","countryId":"6252001","fcl":"S","population":0,"countryCode":"US","name":"Robbs United Methodist Church","fclName":"spot, building, farm","adminCodes1":{"ISO3166_2":"MS"},"countryName":"United States","fcodeName":"church","adminName1":"Mississippi","lat":"34.10705","fcode":"CH"},{"adminCode1":"OH","lng":"-83.88354","geonameId":4516504,"toponymName":"Levanna Branch","countryId":"6252001","fcl":"H","population":0,"countryCode":"US","name":"Levanna Branch","fclName":"stream, lake, ...","adminCodes1":{"ISO3166_2":"OH"},"countryName":"United States","fcodeName":"stream","adminName1":"Ohio","lat":"38.76563","fcode":"STM"},{"adminCode1":"TX","lng":"-95.63217","geonameId":4721195,"toponymName":"Rabbs Bayou","countryId":"6252001","fcl":"H","population":0,"countryCode":"US","name":"Rabbs Bayou","fclName":"stream, lake, ...","adminCodes1":{"ISO3166_2":"TX"},"countryName":"United States","fcodeName":"stream","adminName1":"Texas","lat":"29.42552","fcode":"STM"},{"adminCode1":"ID","lng":"-116.32432","geonameId":5586400,"toponymName":"Bobs Creek","countryId":"6252001","fcl":"H","population":0,"countryCode":"US","name":"Bobs Creek","fclName":"stream, lake, ...","adminCodes1":{"ISO3166_2":"ID"},"countryName":"United States","fcodeName":"stream","adminName1":"Idaho","lat":"46.85685","fcode":"STM"},{"adminCode1":"OR","lng":"-118.15383","geonameId":5748633,"toponymName":"Robbs Creek","countryId":"6252001","fcl":"H","population":0,"countryCode":"US","name":"Robbs Creek","fclName":"stream, lake, ...","adminCodes1":{"ISO3166_2":"OR"},"countryName":"United States","fcodeName":"stream","adminName1":"Oregon","lat":"45.34708","fcode":"STM"},{"adminCode1":"ID","lng":"-116.20207","geonameId":5605489,"toponymName":"Robbs Creek","countryId":"6252001","fcl":"H","population":0,"countryCode":"US","name":"Robbs Creek","fclName":"stream, lake, ...","adminCodes1":{"ISO3166_2":"ID"},"countryName":"United States","fcodeName":"stream","adminName1":"Idaho","lat":"43.89767","fcode":"STM"},{"adminCode1":"MS","lng":"-89.20535","geonameId":4443456,"toponymName":"Robbs Chapel","countryId":"6252001","fcl":"S","population":0,"countryCode":"US","name":"Robbs Chapel","fclName":"spot, building, farm","adminCodes1":{"ISO3166_2":"MS"},"countryName":"United States","fcodeName":"church","adminName1":"Mississippi","lat":"34.099","fcode":"CH"},{"adminCode1":"MS","lng":"-89.20563","geonameId":4443457,"toponymName":"Robbs Chapel School (historical)","countryId":"6252001","fcl":"S","population":0,"countryCode":"US","name":"Robbs Chapel School (historical)","fclName":"spot, building, farm","adminCodes1":{"ISO3166_2":"MS"},"countryName":"United States","fcodeName":"school","adminName1":"Mississippi","lat":"34.09928","fcode":"SCH"},{"adminCode1":"IL","lng":"-88.69978","geonameId":4248230,"toponymName":"Robbs Post Office","countryId":"6252001","fcl":"S","population":0,"countryCode":"US","name":"Robbs Post Office","fclName":"spot, building, farm","adminCodes1":{"ISO3166_2":"IL"},"countryName":"United States","fcodeName":"post office","adminName1":"Illinois","lat":"37.45922","fcode":"PO"},{"adminCode1":"MN","lng":"-93.87937","geonameId":5043441,"toponymName":"Robbs Rapids","countryId":"6252001","fcl":"H","population":0,"countryCode":"US","name":"Robbs Rapids","fclName":"stream, lake, ...","adminCodes1":{"ISO3166_2":"MN"},"countryName":"United States","fcodeName":"rapids","adminName1":"Minnesota","lat":"47.75856","fcode":"RPDS"},{"adminCode1":"MI","lng":"-83.77054","geonameId":5007352,"toponymName":"Robbs Creek","countryId":"6252001","fcl":"H","population":0,"countryCode":"US","name":"Robbs Creek","fclName":"stream, lake, ...","adminCodes1":{"ISO3166_2":"MI"},"countryName":"United States","fcodeName":"stream","adminName1":"Michigan","lat":"44.83529","fcode":"STM"},{"adminCode1":"CA","lng":"-120.39103","geonameId":5388023,"toponymName":"Robbs Peak 1009-006 Dam","countryId":"6252001","fcl":"S","population":0,"countryCode":"US","name":"Robbs Peak 1009-006 Dam","fclName":"spot, building, farm","adminCodes1":{"ISO3166_2":"CA"},"countryName":"United States","fcodeName":"dam","adminName1":"California","lat":"38.94824","fcode":"DAM"},{"adminCode1":"CA","lng":"-120.3802","geonameId":5388024,"toponymName":"Robbs Peak Powerhouse","countryId":"6252001","fcl":"S","population":0,"countryCode":"US","name":"Robbs Peak Powerhouse","fclName":"spot, building, farm","adminCodes1":{"ISO3166_2":"CA"},"countryName":"United States","fcodeName":"","adminName1":"California","lat":"38.89713"},{"adminCode1":"PA","lng":"-79.03308","geonameId":5208582,"toponymName":"Robbs School","countryId":"6252001","fcl":"S","population":0,"countryCode":"US","name":"Robbs School","fclName":"spot, building, farm","adminCodes1":{"ISO3166_2":"PA"},"countryName":"United States","fcodeName":"school","adminName1":"Pennsylvania","lat":"40.3959","fcode":"SCH"},{"adminCode1":"SD","lng":"-101.31709","geonameId":5768470,"toponymName":"Robbs Flat Cemetery","countryId":"6252001","fcl":"S","population":0,"countryCode":"US","name":"Robbs Flat Cemetery","fclName":"spot, building, farm","adminCodes1":{"ISO3166_2":"SD"},"countryName":"United States","fcodeName":"cemetery","adminName1":"South Dakota","lat":"44.61137","fcode":"CMTY"},{"adminCode1":"SD","lng":"-101.31654","geonameId":5768471,"toponymName":"Robbs Flat School","countryId":"6252001","fcl":"S","population":0,"countryCode":"US","name":"Robbs Flat School","fclName":"spot, building, farm","adminCodes1":{"ISO3166_2":"SD"},"countryName":"United States","fcodeName":"school","adminName1":"South Dakota","lat":"44.61832","fcode":"SCH"},{"adminCode1":"SC","lng":"-81.70871","geonameId":4593058,"toponymName":"Robbs Cemetery","countryId":"6252001","fcl":"S","population":0,"countryCode":"US","name":"Robbs Cemetery","fclName":"spot, building, farm","adminCodes1":{"ISO3166_2":"SC"},"countryName":"United States","fcodeName":"cemetery","adminName1":"South Carolina","lat":"35.1579","fcode":"CMTY"},{"adminCode1":"SC","lng":"-81.69732","geonameId":4593059,"toponymName":"Robbs School (historical)","countryId":"6252001","fcl":"S","population":0,"countryCode":"US","name":"Robbs School (historical)","fclName":"spot, building, farm","adminCodes1":{"ISO3166_2":"SC"},"countryName":"United States","fcodeName":"school","adminName1":"South Carolina","lat":"35.16179","fcode":"SCH"},{"adminCode1":"NY","lng":"-77.87222","geonameId":8124859,"toponymName":"Robbs Farm","countryId":"6252001","fcl":"S","population":0,"countryCode":"US","name":"Robbs Farm","fclName":"spot, building, farm","adminCodes1":{"ISO3166_2":"NY"},"countryName":"United States","fcodeName":"farm","adminName1":"New York","lat":"43.19667","fcode":"FRM"}]}
