{"totalResultsCount":13,"geonames":[{"adminCode1":"ME","lng":"-67.10943","geonameId":4976705,"toponymName":"Robbinston","countryId":"6252001","fcl":"P","population":546,"countryCode":"US","name":"Robbinston","fclName":"city, village,...","adminCodes1":{"ISO3166_2":"ME"},"countryName":"United States","fcodeName":"populated place","adminName1":"Maine","lat":"45.07813","fcode":"PPL"},{"adminCode1":"ME","lng":"-67.15983","geonameId":4976707,"toponymName":"Town of Robbinston","countryId":"6252001","fcl":"A","population":551,"countryCode":"US","name":"Town of Robbinston","fclName":"country, state, region,...","adminCodes1":{"ISO3166_2":"ME"},"countryName":"United States","fcodeName":"third-order administrative division","adminName1":"Maine","lat":"45.06584","fcode":"ADM3"},{"adminCode1":"ME","lng":"-67.20131","geonameId":4960234,"toponymName":"Carlisle Mountain","countryId":"6252001","fcl":"T","population":0,"countryCode":"US","name":"Carlisle Mountain","fclName":"mountain,hill,rock,... ","adminCodes1":{"ISO3166_2":"ME"},"countryName":"United States","fcodeName":"mountain","adminName1":"Maine","lat":"45.03092","fcode":"MT"},{"adminCode1":"ME","lng":"-67.11998","geonameId":4979257,"toponymName":"South Robbinston","countryId":"6252001","fcl":"P","population":0,"countryCode":"US","name":"South Robbinston","fclName":"city, village,...","adminCodes1":{"ISO3166_2":"ME"},"countryName":"United States","fcodeName":"populated place","adminName1":"Maine","lat":"45.0573","fcode":"PPL"},{"adminCode1":"ME","lng":"-67.15294","geonameId":4981109,"toponymName":"Trimble Mountain","countryId":"6252001","fcl":"T","population":0,"countryCode":"US","name":"Trimble Mountain","fclName":"mountain,hill,rock,... ","adminCodes1":{"ISO3166_2":"ME"},"countryName":"United States","fcodeName":"mountain","adminName1":"Maine","lat":"45.09058","fcode":"MT"},{"adminCode1":"ME","lng":"-68.75109","geonameId":11378357,"toponymName":"Brewer Post Office","countryId":"6252001","fcl":"S","population":0,"countryCode":"US","name":"Brewer Post Office","fclName":"spot, building, farm","adminCodes1":{"ISO3166_2":"ME"},"countryName":"United States","fcodeName":"post office","adminName1":"Maine","lat":"44.78207","fcode":"PO"},{"adminCode1":"ME","lng":"-67.11435","geonameId":7305319,"toponymName":"Robbinston Volunteer Fire Department","countryId":"6252001","fcl":"S","population":0,"countryCode":"US","name":"Robbinston Volunteer Fire Department","fclName":"spot, building, farm","adminCodes1":{"ISO3166_2":"ME"},"countryName":"United States","fcodeName":"building(s)","adminName1":"Maine","lat":"45.06335","fcode":"BLDG"},{"adminCode1":"ME","lng":"-67.14637","geonameId":4976706,"toponymName":"Robbinston Ridge Church","countryId":"6252001","fcl":"S","population":0,"countryCode":"US","name":"Robbinston Ridge Church","fclName":"spot, building, farm","adminCodes1":{"ISO3166_2":"ME"},"countryName":"United States","fcodeName":"church","adminName1":"Maine","lat":"45.04563","fcode":"CH"},{"adminCode1":"ME","lng":"-67.14026","geonameId":4979258,"toponymName":"South Robbinston Ridge School","countryId":"6252001","fcl":"S","population":0,"countryCode":"US","name":"South Robbinston Ridge School","fclName":"spot, building, farm","adminCodes1":{"ISO3166_2":"ME"},"countryName":"United States","fcodeName":"school","adminName1":"Maine","lat":"45.04952","fcode":"SCH"},{"adminCode1":"ME","lng":"-67.11539","geonameId":9679716,"toponymName":"Robbinston Grade School","countryId":"6252001","fcl":"S","population":0,"countryCode":"US","name":"Robbinston Grade School","fclName":"spot, building, farm","adminCodes1":{"ISO3166_2":"ME"},"countryName":"United States","fcodeName":"school","adminName1":"Maine","lat":"45.06273","fcode":"SCH"},{"adminCode1":"ME","lng":"-67.14415","geonameId":4967198,"toponymName":"Hilltop Campground","countryId":"6252001","fcl":"S","population":0,"countryCode":"US","name":"Hilltop Campground","fclName":"spot, building, farm","adminCodes1":{"ISO3166_2":"ME"},"countryName":"United States","fcodeName":"camp(s)","adminName1":"Maine","lat":"45.04591","fcode":"CMP"},{"adminCode1":"ME","lng":"-67.14137","geonameId":4963958,"toponymName":"Fairview Cemetery","countryId":"6252001","fcl":"S","population":0,"countryCode":"US","name":"Fairview Cemetery","fclName":"spot, building, farm","adminCodes1":{"ISO3166_2":"ME"},"countryName":"United States","fcodeName":"cemetery","adminName1":"Maine","lat":"45.0473","fcode":"CMTY"},{"adminCode1":"ME","lng":"-67.12193","geonameId":4959236,"toponymName":"Brewer Cemetery","countryId":"6252001","fcl":"S","population":0,"countryCode":"US","name":"Brewer Cemetery","fclName":"spot, building, farm","adminCodes1":{"ISO3166_2":"ME"},"countryName":"United States","fcodeName":"cemetery","adminName1":"Maine","lat":"45.08091","fcode":"CMTY"}]}
