{"totalResultsCount":7,"geonames":[{"adminCode1":"CO","lng":"-105.68364","geonameId":5581493,"toponymName":"Rocky Mountain National Park","countryId":"6252001","fcl":"L","population":0,"countryCode":"US","name":"Rocky Mountain National Park","fclName":"parks,area, ...","adminCodes1":{"ISO3166_2":"CO"},"countryName":"United States","fcodeName":"park","adminName1":"Colorado","lat":"40.34281","fcode":"PRK"},{"adminCode1":"CO","lng":"-105.20398","geonameId":11383191,"toponymName":"Rocky Flats National Wildlife Refuge","countryId":"6252001","fcl":"L","population":0,"countryCode":"US","name":"Rocky Flats National Wildlife Refuge","fclName":"parks,area, ...","adminCodes1":{"ISO3166_2":"CO"},"countryName":"United States","fcodeName":"park","adminName1":"Colorado","lat":"39.8769","fcode":"PRK"},{"adminCode1":"CO","lng":"-105.56102","geonameId":7305863,"toponymName":"Rocky Mountain National Park Administration Building","countryId":"6252001","fcl":"L","population":0,"countryCode":"US","name":"Rocky Mountain National Park Administration Building","fclName":"parks,area, ...","adminCodes1":{"ISO3166_2":"CO"},"countryName":"United States","fcodeName":"park","adminName1":"Colorado","lat":"40.36628","fcode":"PRK"},{"adminCode1":"CO","lng":"-105.70048","geonameId":11380323,"toponymName":"Rocky Mountain National Park Wilderness","countryId":"6252001","fcl":"L","population":0,"countryCode":"US","name":"Rocky Mountain National Park Wilderness","fclName":"parks,area, ...","adminCodes1":{"ISO3166_2":"CO"},"countryName":"United States","fcodeName":"reserve","adminName1":"Colorado","lat":"40.35734","fcode":"RES"},{"adminCode1":"CO","lng":"-104.81871","geonameId":11383192,"toponymName":"Rocky Mountain Arsenal National Wildlife Refuge","countryId":"6252001","fcl":"L","population":0,"countryCode":"US","name":"Rocky Mountain Arsenal National Wildlife Refuge","fclName":"parks,area, ...","adminCodes1":{"ISO3166_2":"CO"},"countryName":"United States","fcodeName":"park","adminName1":"Colorado","lat":"39.83455","fcode":"PRK"},{"adminCode1":"CO","lng":"-105.83501","geonameId":5577534,"toponymName":"Grand Lake Entrance Rocky Mountain National Park","countryId":"6252001","fcl":"S","population":0,"countryCode":"US","name":"Grand Lake Entrance Rocky Mountain National Park","fclName":"spot, building, farm","adminCodes1":{"ISO3166_2":"CO"},"countryName":"United States","fcodeName":"","adminName1":"Colorado","lat":"40.25915"},{"adminCode1":"CO","lng":"-105.83779","geonameId":5574151,"toponymName":"Administrative Site Rocky Mountain National Park","countryId":"6252001","fcl":"S","population":0,"countryCode":"US","name":"Administrative Site Rocky Mountain National Park","fclName":"spot, building, farm","adminCodes1":{"ISO3166_2":"CO"},"countryName":"United States","fcodeName":"","adminName1":"Colorado","lat":"40.26665"}]}
