{"totalResultsCount":90,"geonames":[{"adminCode1":"DE","lng":"-75.54687","geonameId":4144371,"toponymName":"Rodney Square","countryId":"6252001","fcl":"L","population":0,"countryCode":"US","name":"Rodney Square","fclName":"parks,area, ...","adminCodes1":{"ISO3166_2":"DE"},"countryName":"United States","fcodeName":"park","adminName1":"Delaware","lat":"39.74595","fcode":"PRK"},{"adminCode1":"DE","lng":"-75.53242","geonameId":4144366,"toponymName":"Rodney Village","countryId":"6252001","fcl":"P","population":1487,"countryCode":"US","name":"Rodney Village","fclName":"city, village,...","adminCodes1":{"ISO3166_2":"DE"},"countryName":"United States","fcodeName":"populated place","adminName1":"Delaware","lat":"39.13206","fcode":"PPL"},{"adminCode1":"IA","lng":"-95.95251","geonameId":4873464,"toponymName":"Rodney","countryId":"6252001","fcl":"P","population":58,"countryCode":"US","name":"Rodney","fclName":"city, village,...","adminCodes1":{"ISO3166_2":"IA"},"countryName":"United States","fcodeName":"populated place","adminName1":"Iowa","lat":"42.20555","fcode":"PPL"},{"adminCode1":"MS","lng":"-91.19983","geonameId":4443710,"toponymName":"Rodney","countryId":"6252001","fcl":"P","population":0,"countryCode":"US","name":"Rodney","fclName":"city, village,...","adminCodes1":{"ISO3166_2":"MS"},"countryName":"United States","fcodeName":"populated place","adminName1":"Mississippi","lat":"31.86127","fcode":"PPL"},{"adminCode1":"AK","lng":"-166.40306","geonameId":5872905,"toponymName":"Cape Rodney","countryId":"6252001","fcl":"T","population":0,"countryCode":"US","name":"Cape Rodney","fclName":"mountain,hill,rock,... ","adminCodes1":{"ISO3166_2":"AK"},"countryName":"United States","fcodeName":"cape","adminName1":"Alaska","lat":"64.64861","fcode":"CAPE"},{"adminCode1":"OK","lng":"-95.64108","geonameId":4549630,"toponymName":"Rodney Mountain","countryId":"6252001","fcl":"T","population":0,"countryCode":"US","name":"Rodney Mountain","fclName":"mountain,hill,rock,... ","adminCodes1":{"ISO3166_2":"OK"},"countryName":"United States","fcodeName":"mountain","adminName1":"Oklahoma","lat":"34.29843","fcode":"MT"},{"adminCode1":"OH","lng":"-82.30404","geonameId":4522783,"toponymName":"Rodney","countryId":"6252001","fcl":"P","population":0,"countryCode":"US","name":"Rodney","fclName":"city, village,...","adminCodes1":{"ISO3166_2":"OH"},"countryName":"United States","fcodeName":"populated place","adminName1":"Ohio","lat":"38.84925","fcode":"PPL"},{"adminCode1":"LA","lng":"-91.27039","geonameId":4339031,"toponymName":"Rodney Island","countryId":"6252001","fcl":"T","population":0,"countryCode":"US","name":"Rodney Island","fclName":"mountain,hill,rock,... ","adminCodes1":{"ISO3166_2":"LA"},"countryName":"United States","fcodeName":"island","adminName1":"Louisiana","lat":"31.83127","fcode":"ISL"},{"adminCode1":"MN","lng":"-92.35194","geonameId":6348732,"toponymName":"J Rodney Paine Historical Marker","countryId":"6252001","fcl":"L","population":0,"countryCode":"US","name":"J Rodney Paine Historical Marker","fclName":"parks,area, ...","adminCodes1":{"ISO3166_2":"MN"},"countryName":"United States","fcodeName":"park","adminName1":"Minnesota","lat":"46.65472","fcode":"PRK"},{"adminCode1":"IA","lng":"-95.9507","geonameId":7317330,"toponymName":"City of Rodney","countryId":"6252001","fcl":"A","population":60,"countryCode":"US","name":"City of Rodney","fclName":"country, state, region,...","adminCodes1":{"ISO3166_2":"IA"},"countryName":"United States","fcodeName":"administrative division","adminName1":"Iowa","lat":"42.20476","fcode":"ADMD"},{"adminCode1":"MS","lng":"-91.23206","geonameId":4443715,"toponymName":"Rodney Island Oil Field","countryId":"6252001","fcl":"L","population":0,"countryCode":"US","name":"Rodney Island Oil Field","fclName":"parks,area, ...","adminCodes1":{"ISO3166_2":"MS"},"countryName":"United States","fcodeName":"oilfield","adminName1":"Mississippi","lat":"31.86405","fcode":"OILF"},{"adminCode1":"MS","lng":"-91.26872","geonameId":4443716,"toponymName":"Rodney Lake","countryId":"6252001","fcl":"H","population":0,"countryCode":"US","name":"Rodney Lake","fclName":"stream, lake, ...","adminCodes1":{"ISO3166_2":"MS"},"countryName":"United States","fcodeName":"lake","adminName1":"Mississippi","lat":"31.80905","fcode":"LK"},{"adminCode1":"MS","lng":"-91.20122","geonameId":4443717,"toponymName":"Rodney Lake (historical)","countryId":"6252001","fcl":"H","population":0,"countryCode":"US","name":"Rodney Lake (historical)","fclName":"stream, lake, ...","adminCodes1":{"ISO3166_2":"MS"},"countryName":"United States","fcodeName":"lake","adminName1":"Mississippi","lat":"31.8771","fcode":"LK"},{"adminCode1":"MS","lng":"-91.18622","geonameId":4443720,"toponymName":"Rodney Oil Field","countryId":"6252001","fcl":"L","population":0,"countryCode":"US","name":"Rodney Oil Field","fclName":"parks,area, ...","adminCodes1":{"ISO3166_2":"MS"},"countryName":"United States","fcodeName":"oilfield","adminName1":"Mississippi","lat":"31.83738","fcode":"OILF"},{"adminCode1":"LA","lng":"-91.26817","geonameId":4339032,"toponymName":"Rodney Island Oil Field","countryId":"6252001","fcl":"L","population":0,"countryCode":"US","name":"Rodney Island Oil Field","fclName":"parks,area, ...","adminCodes1":{"ISO3166_2":"LA"},"countryName":"United States","fcodeName":"oilfield","adminName1":"Louisiana","lat":"31.85044","fcode":"OILF"},{"adminCode1":"LA","lng":"-91.2815","geonameId":4339033,"toponymName":"Rodney Lake","countryId":"6252001","fcl":"H","population":0,"countryCode":"US","name":"Rodney Lake","fclName":"stream, lake, ...","adminCodes1":{"ISO3166_2":"LA"},"countryName":"United States","fcodeName":"lake","adminName1":"Louisiana","lat":"31.81433","fcode":"LK"},{"adminCode1":"MD","lng":"-75.10491","geonameId":4367244,"toponymName":"Rodney Pond","countryId":"6252001","fcl":"H","population":0,"countryCode":"US","name":"Rodney Pond","fclName":"stream, lake, ...","adminCodes1":{"ISO3166_2":"MD"},"countryName":"United States","fcodeName":"lake","adminName1":"Maryland","lat":"38.439","fcode":"LK"},{"adminCode1":"TN","lng":"-89.9837","geonameId":4654196,"toponymName":"Rodney Baber Park","countryId":"6252001","fcl":"L","population":0,"countryCode":"US","name":"Rodney Baber Park","fclName":"parks,area, ...","adminCodes1":{"ISO3166_2":"TN"},"countryName":"United States","fcodeName":"park","adminName1":"Tennessee","lat":"35.1962","fcode":"PRK"},{"adminCode1":"DE","lng":"-75.54159","geonameId":4141733,"toponymName":"Caesar Rodney School District","countryId":"6252001","fcl":"A","population":0,"countryCode":"US","name":"Caesar Rodney School District","fclName":"country, state, region,...","adminCodes1":{"ISO3166_2":"DE"},"countryName":"United States","fcodeName":"administrative division","adminName1":"Delaware","lat":"39.119","fcode":"ADMD"},{"adminCode1":"IA","lng":"-95.94334","geonameId":4873467,"toponymName":"Rodney Pits Recreation Area","countryId":"6252001","fcl":"L","population":0,"countryCode":"US","name":"Rodney Pits Recreation Area","fclName":"parks,area, ...","adminCodes1":{"ISO3166_2":"IA"},"countryName":"United States","fcodeName":"park","adminName1":"Iowa","lat":"42.19999","fcode":"PRK"},{"adminCode1":"ME","lng":"-70.22644","geonameId":4976898,"toponymName":"Rodney Bonney Memorial Park","countryId":"6252001","fcl":"L","population":0,"countryCode":"US","name":"Rodney Bonney Memorial Park","fclName":"parks,area, ...","adminCodes1":{"ISO3166_2":"ME"},"countryName":"United States","fcodeName":"park","adminName1":"Maine","lat":"44.09202","fcode":"PRK"},{"adminCode1":"NY","lng":"-73.95528","geonameId":7161257,"toponymName":"Rodney Playground North","countryId":"6252001","fcl":"L","population":0,"countryCode":"US","name":"Rodney Playground North","fclName":"parks,area, ...","adminCodes1":{"ISO3166_2":"NY"},"countryName":"United States","fcodeName":"park","adminName1":"New York","lat":"40.71111","fcode":"PRK"},{"adminCode1":"NY","lng":"-73.95556","geonameId":7161258,"toponymName":"Rodney Playground Center","countryId":"6252001","fcl":"L","population":0,"countryCode":"US","name":"Rodney Playground Center","fclName":"parks,area, ...","adminCodes1":{"ISO3166_2":"NY"},"countryName":"United States","fcodeName":"park","adminName1":"New York","lat":"40.71028","fcode":"PRK"},{"adminCode1":"NY","lng":"-73.95583","geonameId":7161259,"toponymName":"Rodney Playground South","countryId":"6252001","fcl":"L","population":0,"countryCode":"US","name":"Rodney Playground South","fclName":"parks,area, ...","adminCodes1":{"ISO3166_2":"NY"},"countryName":"United States","fcodeName":"park","adminName1":"New York","lat":"40.70972","fcode":"PRK"},{"adminCode1":"NY","lng":"-73.95639","geonameId":7161263,"toponymName":"Rodney Park North","countryId":"6252001","fcl":"L","population":0,"countryCode":"US","name":"Rodney Park North","fclName":"parks,area, ...","adminCodes1":{"ISO3166_2":"NY"},"countryName":"United States","fcodeName":"park","adminName1":"New York","lat":"40.70917","fcode":"PRK"},{"adminCode1":"NY","lng":"-73.95694","geonameId":7161264,"toponymName":"Rodney Park Center","countryId":"6252001","fcl":"L","population":0,"countryCode":"US","name":"Rodney Park Center","fclName":"parks,area, ...","adminCodes1":{"ISO3166_2":"NY"},"countryName":"United States","fcodeName":"park","adminName1":"New York","lat":"40.70833","fcode":"PRK"},{"adminCode1":"NY","lng":"-73.95722","geonameId":7161265,"toponymName":"Rodney Park South","countryId":"6252001","fcl":"L","population":0,"countryCode":"US","name":"Rodney Park South","fclName":"parks,area, ...","adminCodes1":{"ISO3166_2":"NY"},"countryName":"United States","fcodeName":"park","adminName1":"New York","lat":"40.7075","fcode":"PRK"},{"adminCode1":"DE","lng":"-75.54111","geonameId":4141731,"toponymName":"Caesar Rodney High School","countryId":"6252001","fcl":"S","population":0,"countryCode":"US","name":"Caesar Rodney High School","fclName":"spot, building, farm","adminCodes1":{"ISO3166_2":"DE"},"countryName":"United States","fcodeName":"school","adminName1":"Delaware","lat":"39.11808","fcode":"SCH"},{"adminCode1":"MI","lng":"-85.32837","geonameId":5007467,"toponymName":"Rodney","countryId":"6252001","fcl":"P","population":0,"countryCode":"US","name":"Rodney","fclName":"city, village,...","adminCodes1":{"ISO3166_2":"MI"},"countryName":"United States","fcodeName":"populated place","adminName1":"Michigan","lat":"43.67364","fcode":"PPL"},{"adminCode1":"DE","lng":"-75.68993","geonameId":4144162,"toponymName":"Porter","countryId":"6252001","fcl":"P","population":0,"countryCode":"US","name":"Porter","fclName":"city, village,...","adminCodes1":{"ISO3166_2":"DE"},"countryName":"United States","fcodeName":"populated place","adminName1":"Delaware","lat":"39.60039","fcode":"PPL"},{"adminCode1":"MO","lng":"-93.0852","geonameId":5054903,"toponymName":"Enterprise","countryId":"6252001","fcl":"P","population":0,"countryCode":"US","name":"Enterprise","fclName":"city, village,...","adminCodes1":{"ISO3166_2":"MO"},"countryName":"United States","fcodeName":"populated place","adminName1":"Missouri","lat":"40.02447","fcode":"PPL"},{"adminCode1":"ID","lng":"-116.50184","geonameId":5605740,"toponymName":"Rodney Draw","countryId":"6252001","fcl":"T","population":0,"countryCode":"US","name":"Rodney Draw","fclName":"mountain,hill,rock,... ","adminCodes1":{"ISO3166_2":"ID"},"countryName":"United States","fcodeName":"valley","adminName1":"Idaho","lat":"47.60713","fcode":"VAL"},{"adminCode1":"AK","lng":"-165.9","geonameId":5872907,"toponymName":"Rodney Mountain","countryId":"6252001","fcl":"T","population":0,"countryCode":"US","name":"Rodney Mountain","fclName":"mountain,hill,rock,... ","adminCodes1":{"ISO3166_2":"AK"},"countryName":"United States","fcodeName":"mountain","adminName1":"Alaska","lat":"64.55","fcode":"MT"},{"adminCode1":"MS","lng":"-91.29317","geonameId":4443714,"toponymName":"Rodney Island Bar","countryId":"6252001","fcl":"T","population":0,"countryCode":"US","name":"Rodney Island Bar","fclName":"mountain,hill,rock,... ","adminCodes1":{"ISO3166_2":"MS"},"countryName":"United States","fcodeName":"bar","adminName1":"Mississippi","lat":"31.85849","fcode":"BAR"},{"adminCode1":"MD","lng":"-76.49579","geonameId":4367243,"toponymName":"Rodney Point","countryId":"6252001","fcl":"T","population":0,"countryCode":"US","name":"Rodney Point","fclName":"mountain,hill,rock,... ","adminCodes1":{"ISO3166_2":"MD"},"countryName":"United States","fcodeName":"cape","adminName1":"Maryland","lat":"38.3904","fcode":"CAPE"},{"adminCode1":"TX","lng":"-96.61165","geonameId":4723640,"toponymName":"Rodney","countryId":"6252001","fcl":"P","population":0,"countryCode":"US","name":"Rodney","fclName":"city, village,...","adminCodes1":{"ISO3166_2":"TX"},"countryName":"United States","fcodeName":"populated place","adminName1":"Texas","lat":"31.82183","fcode":"PPL"},{"adminCode1":"AR","lng":"-92.16127","geonameId":4128887,"toponymName":"Rodney","countryId":"6252001","fcl":"P","population":0,"countryCode":"US","name":"Rodney","fclName":"city, village,...","adminCodes1":{"ISO3166_2":"AR"},"countryName":"United States","fcodeName":"populated place","adminName1":"Arkansas","lat":"36.24285","fcode":"PPL"},{"adminCode1":"KS","lng":"-96.74667","geonameId":4278336,"toponymName":"Rodney Hill","countryId":"6252001","fcl":"T","population":0,"countryCode":"US","name":"Rodney Hill","fclName":"mountain,hill,rock,... ","adminCodes1":{"ISO3166_2":"KS"},"countryName":"United States","fcodeName":"mountain","adminName1":"Kansas","lat":"39.11194","fcode":"MT"},{"adminCode1":"CA","lng":"-122.77278","geonameId":7236206,"toponymName":"Rodney's Mobile Park","countryId":"6252001","fcl":"P","population":0,"countryCode":"US","name":"Rodney's Mobile Park","fclName":"city, village,...","adminCodes1":{"ISO3166_2":"CA"},"countryName":"United States","fcodeName":"populated place","adminName1":"California","lat":"41.3075","fcode":"PPL"},{"adminCode1":"PA","lng":"-79.41642","geonameId":5208861,"toponymName":"Rodney","countryId":"6252001","fcl":"P","population":0,"countryCode":"US","name":"Rodney","fclName":"city, village,...","adminCodes1":{"ISO3166_2":"PA"},"countryName":"United States","fcodeName":"populated place","adminName1":"Pennsylvania","lat":"40.15257","fcode":"PPL"},{"adminCode1":"MD","lng":"-75.98328","geonameId":4350255,"toponymName":"Camp Rodney","countryId":"6252001","fcl":"S","population":0,"countryCode":"US","name":"Camp Rodney","fclName":"spot, building, farm","adminCodes1":{"ISO3166_2":"MD"},"countryName":"United States","fcodeName":"camp(s)","adminName1":"Maryland","lat":"39.51206","fcode":"CMP"},{"adminCode1":"DE","lng":"-75.55076","geonameId":4141732,"toponymName":"Caesar Rodney Junior High School","countryId":"6252001","fcl":"S","population":0,"countryCode":"US","name":"Caesar Rodney Junior High School","fclName":"spot, building, farm","adminCodes1":{"ISO3166_2":"DE"},"countryName":"United States","fcodeName":"school","adminName1":"Delaware","lat":"39.11595","fcode":"SCH"},{"adminCode1":"WI","lng":"-89.12845","geonameId":5269384,"toponymName":"Rodney (historical)","countryId":"6252001","fcl":"P","population":0,"countryCode":"US","name":"Rodney (historical)","fclName":"city, village,...","adminCodes1":{"ISO3166_2":"WI"},"countryName":"United States","fcodeName":"abandoned populated place","adminName1":"Wisconsin","lat":"43.98526","fcode":"PPLQ"},{"adminCode1":"AK","lng":"-165.84389","geonameId":5872903,"toponymName":"Rodney Creek","countryId":"6252001","fcl":"H","population":0,"countryCode":"US","name":"Rodney Creek","fclName":"stream, lake, ...","adminCodes1":{"ISO3166_2":"AK"},"countryName":"United States","fcodeName":"stream","adminName1":"Alaska","lat":"64.54056","fcode":"STM"},{"adminCode1":"AR","lng":"-92.3919","geonameId":6477027,"toponymName":"La Quinta Inn Little Rock at Rodney Parham Road","countryId":"6252001","fcl":"S","population":0,"countryCode":"US","name":"La Quinta Inn Little Rock at Rodney Parham Road","fclName":"spot, building, farm","adminCodes1":{"ISO3166_2":"AR"},"countryName":"United States","fcodeName":"hotel","adminName1":"Arkansas","lat":"34.7631","fcode":"HTL"},{"adminCode1":"AR","lng":"-92.16074","geonameId":7128667,"toponymName":"Rodney Volunteer Fire Department Station 1","countryId":"6252001","fcl":"S","population":0,"countryCode":"US","name":"Rodney Volunteer Fire Department Station 1","fclName":"spot, building, farm","adminCodes1":{"ISO3166_2":"AR"},"countryName":"United States","fcodeName":"building(s)","adminName1":"Arkansas","lat":"36.23951","fcode":"BLDG"},{"adminCode1":"AR","lng":"-92.1845","geonameId":7128668,"toponymName":"Rodney Volunteer Fire Department Station 2","countryId":"6252001","fcl":"S","population":0,"countryCode":"US","name":"Rodney Volunteer Fire Department Station 2","fclName":"spot, building, farm","adminCodes1":{"ISO3166_2":"AR"},"countryName":"United States","fcodeName":"building(s)","adminName1":"Arkansas","lat":"36.23102","fcode":"BLDG"},{"adminCode1":"FL","lng":"-80.75711","geonameId":7190050,"toponymName":"Brevard Community College Cocoa Campus Rodney S Ketcham Business Center","countryId":"6252001","fcl":"S","population":0,"countryCode":"US","name":"Brevard Community College Cocoa Campus Rodney S Ketcham Business Center","fclName":"spot, building, farm","adminCodes1":{"ISO3166_2":"FL"},"countryName":"United States","fcodeName":"school","adminName1":"Florida","lat":"28.38318","fcode":"SCH"},{"adminCode1":"MI","lng":"-85.32778","geonameId":7238212,"toponymName":"Rodney Post Office","countryId":"6252001","fcl":"S","population":0,"countryCode":"US","name":"Rodney Post Office","fclName":"spot, building, farm","adminCodes1":{"ISO3166_2":"MI"},"countryName":"United States","fcodeName":"post office","adminName1":"Michigan","lat":"43.67361","fcode":"PO"},{"adminCode1":"MI","lng":"-85.32556","geonameId":7238237,"toponymName":"Rodney Cemetery","countryId":"6252001","fcl":"S","population":0,"countryCode":"US","name":"Rodney Cemetery","fclName":"spot, building, farm","adminCodes1":{"ISO3166_2":"MI"},"countryName":"United States","fcodeName":"cemetery","adminName1":"Michigan","lat":"43.67","fcode":"CMTY"},{"adminCode1":"MI","lng":"-85.32556","geonameId":7272176,"toponymName":"Rodney Station (historical)","countryId":"6252001","fcl":"S","population":0,"countryCode":"US","name":"Rodney Station (historical)","fclName":"spot, building, farm","adminCodes1":{"ISO3166_2":"MI"},"countryName":"United States","fcodeName":"","adminName1":"Michigan","lat":"43.67167"},{"adminCode1":"MS","lng":"-91.20122","geonameId":4443711,"toponymName":"Rodney Baptist Church","countryId":"6252001","fcl":"S","population":0,"countryCode":"US","name":"Rodney Baptist Church","fclName":"spot, building, farm","adminCodes1":{"ISO3166_2":"MS"},"countryName":"United States","fcodeName":"church","adminName1":"Mississippi","lat":"31.86127","fcode":"CH"},{"adminCode1":"MS","lng":"-91.26678","geonameId":4443712,"toponymName":"Rodney Bend","countryId":"6252001","fcl":"H","population":0,"countryCode":"US","name":"Rodney Bend","fclName":"stream, lake, ...","adminCodes1":{"ISO3166_2":"MS"},"countryName":"United States","fcodeName":"stream bend","adminName1":"Mississippi","lat":"31.80905","fcode":"STMB"},{"adminCode1":"MS","lng":"-91.19872","geonameId":4443713,"toponymName":"Rodney Cemetery","countryId":"6252001","fcl":"S","population":0,"countryCode":"US","name":"Rodney Cemetery","fclName":"spot, building, farm","adminCodes1":{"ISO3166_2":"MS"},"countryName":"United States","fcodeName":"cemetery","adminName1":"Mississippi","lat":"31.86266","fcode":"CMTY"},{"adminCode1":"MS","lng":"-91.24456","geonameId":4443718,"toponymName":"Rodney Landing","countryId":"6252001","fcl":"S","population":0,"countryCode":"US","name":"Rodney Landing","fclName":"spot, building, farm","adminCodes1":{"ISO3166_2":"MS"},"countryName":"United States","fcodeName":"","adminName1":"Mississippi","lat":"31.82183"},{"adminCode1":"MS","lng":"-89.68508","geonameId":4443719,"toponymName":"Rodney Mortimer Lake Dam","countryId":"6252001","fcl":"S","population":0,"countryCode":"US","name":"Rodney Mortimer Lake Dam","fclName":"spot, building, farm","adminCodes1":{"ISO3166_2":"MS"},"countryName":"United States","fcodeName":"dam","adminName1":"Mississippi","lat":"33.49179","fcode":"DAM"},{"adminCode1":"MS","lng":"-91.19928","geonameId":4443721,"toponymName":"Rodney Sacred Heart Catholic Church","countryId":"6252001","fcl":"S","population":0,"countryCode":"US","name":"Rodney Sacred Heart Catholic Church","fclName":"spot, building, farm","adminCodes1":{"ISO3166_2":"MS"},"countryName":"United States","fcodeName":"church","adminName1":"Mississippi","lat":"31.85766","fcode":"CH"},{"adminCode1":"MS","lng":"-91.19983","geonameId":4443722,"toponymName":"Rodney School (historical)","countryId":"6252001","fcl":"S","population":0,"countryCode":"US","name":"Rodney School (historical)","fclName":"spot, building, farm","adminCodes1":{"ISO3166_2":"MS"},"countryName":"United States","fcodeName":"school","adminName1":"Mississippi","lat":"31.86349","fcode":"SCH"},{"adminCode1":"MS","lng":"-91.19928","geonameId":4439791,"toponymName":"Old Rodney Presbyterian Church","countryId":"6252001","fcl":"S","population":0,"countryCode":"US","name":"Old Rodney Presbyterian Church","fclName":"spot, building, farm","adminCodes1":{"ISO3166_2":"MS"},"countryName":"United States","fcodeName":"church","adminName1":"Mississippi","lat":"31.86266","fcode":"CH"},{"adminCode1":"LA","lng":"-91.26206","geonameId":4339029,"toponymName":"Rodney Bend","countryId":"6252001","fcl":"H","population":0,"countryCode":"US","name":"Rodney Bend","fclName":"stream, lake, ...","adminCodes1":{"ISO3166_2":"LA"},"countryName":"United States","fcodeName":"stream bend","adminName1":"Louisiana","lat":"31.80988","fcode":"STMB"},{"adminCode1":"LA","lng":"-91.27956","geonameId":4339030,"toponymName":"Rodney Cutoff","countryId":"6252001","fcl":"H","population":0,"countryCode":"US","name":"Rodney Cutoff","fclName":"stream, lake, ...","adminCodes1":{"ISO3166_2":"LA"},"countryName":"United States","fcodeName":"stream bend","adminName1":"Louisiana","lat":"31.86572","fcode":"STMB"},{"adminCode1":"OH","lng":"-82.30543","geonameId":4522773,"toponymName":"Rodney United Methodist Church","countryId":"6252001","fcl":"S","population":0,"countryCode":"US","name":"Rodney United Methodist Church","fclName":"spot, building, farm","adminCodes1":{"ISO3166_2":"OH"},"countryName":"United States","fcodeName":"church","adminName1":"Ohio","lat":"38.84952","fcode":"CH"},{"adminCode1":"MO","lng":"-89.2348","geonameId":4406248,"toponymName":"Rodney","countryId":"6252001","fcl":"S","population":0,"countryCode":"US","name":"Rodney","fclName":"spot, building, farm","adminCodes1":{"ISO3166_2":"MO"},"countryName":"United States","fcodeName":"","adminName1":"Missouri","lat":"36.95727"},{"adminCode1":"AL","lng":"-85.8566","geonameId":4086866,"toponymName":"Rodney Branch","countryId":"6252001","fcl":"H","population":0,"countryCode":"US","name":"Rodney Branch","fclName":"stream, lake, ...","adminCodes1":{"ISO3166_2":"AL"},"countryName":"United States","fcodeName":"stream","adminName1":"Alabama","lat":"31.26406","fcode":"STM"},{"adminCode1":"DE","lng":"-75.50492","geonameId":4141730,"toponymName":"Caesar Rodney Helistop","countryId":"6252001","fcl":"S","population":0,"countryCode":"US","name":"Caesar Rodney Helistop","fclName":"spot, building, farm","adminCodes1":{"ISO3166_2":"DE"},"countryName":"United States","fcodeName":"heliport","adminName1":"Delaware","lat":"39.14956","fcode":"AIRH"},{"adminCode1":"DE","lng":"-75.52881","geonameId":4144367,"toponymName":"Rodney Village Shopping Center","countryId":"6252001","fcl":"S","population":0,"countryCode":"US","name":"Rodney Village Shopping Center","fclName":"spot, building, farm","adminCodes1":{"ISO3166_2":"DE"},"countryName":"United States","fcodeName":"mall","adminName1":"Delaware","lat":"39.13956","fcode":"MALL"},{"adminCode1":"IN","lng":"-85.53469","geonameId":4263865,"toponymName":"Rodney Branch","countryId":"6252001","fcl":"H","population":0,"countryCode":"US","name":"Rodney Branch","fclName":"stream, lake, ...","adminCodes1":{"ISO3166_2":"IN"},"countryName":"United States","fcodeName":"stream","adminName1":"Indiana","lat":"39.20005","fcode":"STM"},{"adminCode1":"IN","lng":"-85.52219","geonameId":4263867,"toponymName":"Rodney Church","countryId":"6252001","fcl":"S","population":0,"countryCode":"US","name":"Rodney Church","fclName":"spot, building, farm","adminCodes1":{"ISO3166_2":"IN"},"countryName":"United States","fcodeName":"church","adminName1":"Indiana","lat":"39.20838","fcode":"CH"},{"adminCode1":"IN","lng":"-85.52358","geonameId":4263869,"toponymName":"Rodney Cemetery","countryId":"6252001","fcl":"S","population":0,"countryCode":"US","name":"Rodney Cemetery","fclName":"spot, building, farm","adminCodes1":{"ISO3166_2":"IN"},"countryName":"United States","fcodeName":"cemetery","adminName1":"Indiana","lat":"39.1995","fcode":"CMTY"},{"adminCode1":"VA","lng":"-77.46084","geonameId":4782763,"toponymName":"Rodney Thompson Middle School","countryId":"6252001","fcl":"S","population":0,"countryCode":"US","name":"Rodney Thompson Middle School","fclName":"spot, building, farm","adminCodes1":{"ISO3166_2":"VA"},"countryName":"United States","fcodeName":"school","adminName1":"Virginia","lat":"38.45061","fcode":"SCH"},{"adminCode1":"CO","lng":"-107.31117","geonameId":5436855,"toponymName":"Rodney Number One Mine","countryId":"6252001","fcl":"S","population":0,"countryCode":"US","name":"Rodney Number One Mine","fclName":"spot, building, farm","adminCodes1":{"ISO3166_2":"CO"},"countryName":"United States","fcodeName":"mine(s)","adminName1":"Colorado","lat":"38.03083","fcode":"MN"},{"adminCode1":"IA","lng":"-95.9489","geonameId":4873465,"toponymName":"Rodney (historical)","countryId":"6252001","fcl":"S","population":0,"countryCode":"US","name":"Rodney (historical)","fclName":"spot, building, farm","adminCodes1":{"ISO3166_2":"IA"},"countryName":"United States","fcodeName":"","adminName1":"Iowa","lat":"42.20416"},{"adminCode1":"IA","lng":"-95.95251","geonameId":4873466,"toponymName":"Rodney City Hall","countryId":"6252001","fcl":"S","population":0,"countryCode":"US","name":"Rodney City Hall","fclName":"spot, building, farm","adminCodes1":{"ISO3166_2":"IA"},"countryName":"United States","fcodeName":"building(s)","adminName1":"Iowa","lat":"42.20555","fcode":"BLDG"},{"adminCode1":"IA","lng":"-95.95251","geonameId":4873468,"toponymName":"Rodney Post Office","countryId":"6252001","fcl":"S","population":0,"countryCode":"US","name":"Rodney Post Office","fclName":"spot, building, farm","adminCodes1":{"ISO3166_2":"IA"},"countryName":"United States","fcodeName":"post office","adminName1":"Iowa","lat":"42.20555","fcode":"PO"},{"adminCode1":"MN","lng":"-95.90333","geonameId":5043600,"toponymName":"Rodney A Briggs Library","countryId":"6252001","fcl":"S","population":0,"countryCode":"US","name":"Rodney A Briggs Library","fclName":"spot, building, farm","adminCodes1":{"ISO3166_2":"MN"},"countryName":"United States","fcodeName":"library","adminName1":"Minnesota","lat":"45.58917","fcode":"LIBR"},{"adminCode1":"OH","lng":"-81.6279","geonameId":5168519,"toponymName":"Rodney Run","countryId":"6252001","fcl":"H","population":0,"countryCode":"US","name":"Rodney Run","fclName":"stream, lake, ...","adminCodes1":{"ISO3166_2":"OH"},"countryName":"United States","fcodeName":"stream","adminName1":"Ohio","lat":"40.29174","fcode":"STM"},{"adminCode1":"AR","lng":"-92.38972","geonameId":9851878,"toponymName":"La Quinta Inn Little Rock At Rodney Parham Rd","countryId":"6252001","fcl":"S","population":0,"countryCode":"US","name":"La Quinta Inn Little Rock At Rodney Parham Rd","fclName":"spot, building, farm","adminCodes1":{"ISO3166_2":"AR"},"countryName":"United States","fcodeName":"hotel","adminName1":"Arkansas","lat":"34.76401","fcode":"HTL"},{"adminCode1":"WA","lng":"-122.01446","geonameId":5808715,"toponymName":"Rodney Falls","countryId":"6252001","fcl":"H","population":0,"countryCode":"US","name":"Rodney Falls","fclName":"stream, lake, ...","adminCodes1":{"ISO3166_2":"WA"},"countryName":"United States","fcodeName":"overfalls","adminName1":"Washington","lat":"45.64338","fcode":"OVF"},{"adminCode1":"DE","lng":"-75.76","geonameId":7160256,"toponymName":"University of Delaware Caesar Rodney Complex Hall B","countryId":"6252001","fcl":"S","population":0,"countryCode":"US","name":"University of Delaware Caesar Rodney Complex Hall B","fclName":"spot, building, farm","adminCodes1":{"ISO3166_2":"DE"},"countryName":"United States","fcodeName":"school","adminName1":"Delaware","lat":"39.68148","fcode":"SCH"},{"adminCode1":"DE","lng":"-75.75991","geonameId":7160257,"toponymName":"University of Delaware Caesar Rodney Complex Hall C","countryId":"6252001","fcl":"S","population":0,"countryCode":"US","name":"University of Delaware Caesar Rodney Complex Hall C","fclName":"spot, building, farm","adminCodes1":{"ISO3166_2":"DE"},"countryName":"United States","fcodeName":"school","adminName1":"Delaware","lat":"39.68187","fcode":"SCH"},{"adminCode1":"DE","lng":"-75.75984","geonameId":7160259,"toponymName":"University of Delaware Caesar Rodney Complex Hall A","countryId":"6252001","fcl":"S","population":0,"countryCode":"US","name":"University of Delaware Caesar Rodney Complex Hall A","fclName":"spot, building, farm","adminCodes1":{"ISO3166_2":"DE"},"countryName":"United States","fcodeName":"school","adminName1":"Delaware","lat":"39.6812","fcode":"SCH"},{"adminCode1":"DE","lng":"-75.75955","geonameId":7160261,"toponymName":"University of Delaware Caesar Rodney Complex Hall D","countryId":"6252001","fcl":"S","population":0,"countryCode":"US","name":"University of Delaware Caesar Rodney Complex Hall D","fclName":"spot, building, farm","adminCodes1":{"ISO3166_2":"DE"},"countryName":"United States","fcodeName":"school","adminName1":"Delaware","lat":"39.68197","fcode":"SCH"},{"adminCode1":"DE","lng":"-75.7595","geonameId":7160262,"toponymName":"University of Delaware Caesar Rodney Complex","countryId":"6252001","fcl":"S","population":0,"countryCode":"US","name":"University of Delaware Caesar Rodney Complex","fclName":"spot, building, farm","adminCodes1":{"ISO3166_2":"DE"},"countryName":"United States","fcodeName":"school","adminName1":"Delaware","lat":"39.6817","fcode":"SCH"},{"adminCode1":"DE","lng":"-75.7593","geonameId":7160263,"toponymName":"University of Delaware Caesar Rodney Complex Hall E","countryId":"6252001","fcl":"S","population":0,"countryCode":"US","name":"University of Delaware Caesar Rodney Complex Hall E","fclName":"spot, building, farm","adminCodes1":{"ISO3166_2":"DE"},"countryName":"United States","fcodeName":"school","adminName1":"Delaware","lat":"39.6819","fcode":"SCH"},{"adminCode1":"DE","lng":"-75.7589","geonameId":7160264,"toponymName":"University of Delaware Caesar Rodney Complex Hall F","countryId":"6252001","fcl":"S","population":0,"countryCode":"US","name":"University of Delaware Caesar Rodney Complex Hall F","fclName":"spot, building, farm","adminCodes1":{"ISO3166_2":"DE"},"countryName":"United States","fcodeName":"school","adminName1":"Delaware","lat":"39.6817","fcode":"SCH"},{"adminCode1":"DE","lng":"-75.58139","geonameId":7266680,"toponymName":"Battery Rodney (historical)","countryId":"6252001","fcl":"S","population":0,"countryCode":"US","name":"Battery Rodney (historical)","fclName":"spot, building, farm","adminCodes1":{"ISO3166_2":"DE"},"countryName":"United States","fcodeName":"military installation","adminName1":"Delaware","lat":"39.57111","fcode":"INSM"},{"adminCode1":"CA","lng":"-122.84666","geonameId":5388513,"toponymName":"Rodney Strong Vineyards","countryId":"6252001","fcl":"S","population":0,"countryCode":"US","name":"Rodney Strong Vineyards","fclName":"spot, building, farm","adminCodes1":{"ISO3166_2":"CA"},"countryName":"United States","fcodeName":"","adminName1":"California","lat":"38.58102"},{"adminCode1":"LA","lng":"-91.19372","geonameId":7708191,"toponymName":"Southern University Baton Rouge Campus Rodney G Higgins Hall","countryId":"6252001","fcl":"S","population":0,"countryCode":"US","name":"Southern University Baton Rouge Campus Rodney G Higgins Hall","fclName":"spot, building, farm","adminCodes1":{"ISO3166_2":"LA"},"countryName":"United States","fcodeName":"school","adminName1":"Louisiana","lat":"30.52373","fcode":"SCH"},{"adminCode1":"SD","lng":"-103.4888","geonameId":5768528,"toponymName":"Rodney Winkler Dam Number 1","countryId":"6252001","fcl":"S","population":0,"countryCode":"US","name":"Rodney Winkler Dam Number 1","fclName":"spot, building, farm","adminCodes1":{"ISO3166_2":"SD"},"countryName":"United States","fcodeName":"dam","adminName1":"South Dakota","lat":"44.84499","fcode":"DAM"},{"adminCode1":"WV","lng":"-81.775","geonameId":8093981,"toponymName":"Rodney Staton Memorial Bridge","countryId":"6252001","fcl":"S","population":0,"countryCode":"US","name":"Rodney Staton Memorial Bridge","fclName":"spot, building, farm","adminCodes1":{"ISO3166_2":"WV"},"countryName":"United States","fcodeName":"bridge","adminName1":"West Virginia","lat":"37.59639","fcode":"BDG"}]}
