{"totalResultsCount":155,"geonames":[{"adminCode1":"NE","lng":"-98.55923","geonameId":5076525,"toponymName":"Roseland","countryId":"6252001","fcl":"P","population":254,"countryCode":"US","name":"Roseland","fclName":"city, village,...","adminCodes1":{"ISO3166_2":"NE"},"countryName":"United States","fcodeName":"populated place","adminName1":"Nebraska","lat":"40.47029","fcode":"PPL"},{"adminCode1":"LA","lng":"-90.51176","geonameId":4339148,"toponymName":"Roseland","countryId":"6252001","fcl":"P","population":1203,"countryCode":"US","name":"Roseland","fclName":"city, village,...","adminCodes1":{"ISO3166_2":"LA"},"countryName":"United States","fcodeName":"populated place","adminName1":"Louisiana","lat":"30.76491","fcode":"PPL"},{"adminCode1":"VA","lng":"-78.97586","geonameId":4782921,"toponymName":"Roseland","countryId":"6252001","fcl":"P","population":0,"countryCode":"US","name":"Roseland","fclName":"city, village,...","adminCodes1":{"ISO3166_2":"VA"},"countryName":"United States","fcodeName":"populated place","adminName1":"Virginia","lat":"37.74764","fcode":"PPL"},{"adminCode1":"NJ","lng":"-74.29376","geonameId":5103497,"toponymName":"Roseland","countryId":"6252001","fcl":"P","population":5876,"countryCode":"US","name":"Roseland","fclName":"city, village,...","adminCodes1":{"ISO3166_2":"NJ"},"countryName":"United States","fcodeName":"populated place","adminName1":"New Jersey","lat":"40.82066","fcode":"PPL"},{"adminCode1":"MN","lng":"-95.10556","geonameId":5043770,"toponymName":"Roseland","countryId":"6252001","fcl":"P","population":0,"countryCode":"US","name":"Roseland","fclName":"city, village,...","adminCodes1":{"ISO3166_2":"MN"},"countryName":"United States","fcodeName":"populated place","adminName1":"Minnesota","lat":"44.94246","fcode":"PPL"},{"adminCode1":"FL","lng":"-80.49311","geonameId":4170520,"toponymName":"Roseland","countryId":"6252001","fcl":"P","population":1472,"countryCode":"US","name":"Roseland","fclName":"city, village,...","adminCodes1":{"ISO3166_2":"FL"},"countryName":"United States","fcodeName":"populated place","adminName1":"Florida","lat":"27.83586","fcode":"PPL"},{"adminCode1":"IN","lng":"-86.25251","geonameId":4925589,"toponymName":"Roseland","countryId":"6252001","fcl":"P","population":628,"countryCode":"US","name":"Roseland","fclName":"city, village,...","adminCodes1":{"ISO3166_2":"IN"},"countryName":"United States","fcodeName":"populated place","adminName1":"Indiana","lat":"41.71616","fcode":"PPL"},{"adminCode1":"LA","lng":"-91.16765","geonameId":4339154,"toponymName":"Roseland Terrace Historic District","countryId":"6252001","fcl":"L","population":0,"countryCode":"US","name":"Roseland Terrace Historic District","fclName":"parks,area, ...","adminCodes1":{"ISO3166_2":"LA"},"countryName":"United States","fcodeName":"park","adminName1":"Louisiana","lat":"30.44119","fcode":"PRK"},{"adminCode1":"MT","lng":"-105.42416","geonameId":5674732,"toponymName":"Roseland Park","countryId":"6252001","fcl":"L","population":0,"countryCode":"US","name":"Roseland Park","fclName":"parks,area, ...","adminCodes1":{"ISO3166_2":"MT"},"countryName":"United States","fcodeName":"park","adminName1":"Montana","lat":"48.78947","fcode":"PRK"},{"adminCode1":"CT","lng":"-71.95137","geonameId":4841715,"toponymName":"Roseland Lake","countryId":"6252001","fcl":"H","population":0,"countryCode":"US","name":"Roseland Lake","fclName":"stream, lake, ...","adminCodes1":{"ISO3166_2":"CT"},"countryName":"United States","fcodeName":"lake","adminName1":"Connecticut","lat":"41.95064","fcode":"LK"},{"adminCode1":"MN","lng":"-95.06518","geonameId":5043774,"toponymName":"Township of Roseland","countryId":"6252001","fcl":"A","population":0,"countryCode":"US","name":"Roseland Township","fclName":"country, state, region,...","adminCodes1":{"ISO3166_2":"MN"},"countryName":"United States","fcodeName":"third-order administrative division","adminName1":"Minnesota","lat":"44.93512","fcode":"ADM3"},{"adminCode1":"NE","lng":"-98.55345","geonameId":5076532,"toponymName":"Township of Roseland","countryId":"6252001","fcl":"A","population":0,"countryCode":"US","name":"Roseland Township","fclName":"country, state, region,...","adminCodes1":{"ISO3166_2":"NE"},"countryName":"United States","fcodeName":"third-order administrative division","adminName1":"Nebraska","lat":"40.48085","fcode":"ADM3"},{"adminCode1":"MO","lng":"-93.54243","geonameId":4406402,"toponymName":"Roseland","countryId":"6252001","fcl":"P","population":0,"countryCode":"US","name":"Roseland","fclName":"city, village,...","adminCodes1":{"ISO3166_2":"MO"},"countryName":"United States","fcodeName":"populated place","adminName1":"Missouri","lat":"38.39335","fcode":"PPL"},{"adminCode1":"KS","lng":"-94.85052","geonameId":4278378,"toponymName":"Roseland","countryId":"6252001","fcl":"P","population":74,"countryCode":"US","name":"Roseland","fclName":"city, village,...","adminCodes1":{"ISO3166_2":"KS"},"countryName":"United States","fcodeName":"populated place","adminName1":"Kansas","lat":"37.28117","fcode":"PPL"},{"adminCode1":"IN","lng":"-86.25065","geonameId":7164853,"toponymName":"Town of Roseland","countryId":"6252001","fcl":"A","population":630,"countryCode":"US","name":"Town of Roseland","fclName":"country, state, region,...","adminCodes1":{"ISO3166_2":"IN"},"countryName":"United States","fcodeName":"administrative division","adminName1":"Indiana","lat":"41.71769","fcode":"ADMD"},{"adminCode1":"SD","lng":"-99.6815","geonameId":5228284,"toponymName":"Hamill","countryId":"6252001","fcl":"P","population":11,"countryCode":"US","name":"Hamill","fclName":"city, village,...","adminCodes1":{"ISO3166_2":"SD"},"countryName":"United States","fcodeName":"populated place","adminName1":"South Dakota","lat":"43.59472","fcode":"PPL"},{"adminCode1":"IL","lng":"-87.62588","geonameId":4908162,"toponymName":"Roseland","countryId":"6252001","fcl":"P","population":0,"countryCode":"US","name":"Roseland","fclName":"city, village,...","adminCodes1":{"ISO3166_2":"IL"},"countryName":"United States","fcodeName":"section of populated place","adminName1":"Illinois","lat":"41.70198","fcode":"PPLX"},{"adminCode1":"NE","lng":"-98.57229","geonameId":5063269,"toponymName":"Assumption","countryId":"6252001","fcl":"P","population":0,"countryCode":"US","name":"Assumption","fclName":"city, village,...","adminCodes1":{"ISO3166_2":"NE"},"countryName":"United States","fcodeName":"populated place","adminName1":"Nebraska","lat":"40.51001","fcode":"PPL"},{"adminCode1":"CA","lng":"-122.72804","geonameId":5388858,"toponymName":"Roseland","countryId":"6252001","fcl":"P","population":6325,"countryCode":"US","name":"Roseland","fclName":"city, village,...","adminCodes1":{"ISO3166_2":"CA"},"countryName":"United States","fcodeName":"section of populated place","adminName1":"California","lat":"38.42213","fcode":"PPLX"},{"adminCode1":"KS","lng":"-94.84409","geonameId":7164477,"toponymName":"City of Roseland","countryId":"6252001","fcl":"A","population":77,"countryCode":"US","name":"City of Roseland","fclName":"country, state, region,...","adminCodes1":{"ISO3166_2":"KS"},"countryName":"United States","fcodeName":"administrative division","adminName1":"Kansas","lat":"37.28033","fcode":"ADMD"},{"adminCode1":"NE","lng":"-98.55848","geonameId":7166797,"toponymName":"Village of Roseland","countryId":"6252001","fcl":"A","population":235,"countryCode":"US","name":"Village of Roseland","fclName":"country, state, region,...","adminCodes1":{"ISO3166_2":"NE"},"countryName":"United States","fcodeName":"administrative division","adminName1":"Nebraska","lat":"40.46985","fcode":"ADMD"},{"adminCode1":"LA","lng":"-90.51142","geonameId":7172458,"toponymName":"Town of Roseland","countryId":"6252001","fcl":"A","population":1123,"countryCode":"US","name":"Town of Roseland","fclName":"country, state, region,...","adminCodes1":{"ISO3166_2":"LA"},"countryName":"United States","fcodeName":"administrative division","adminName1":"Louisiana","lat":"30.7646","fcode":"ADMD"},{"adminCode1":"LA","lng":"-91.55623","geonameId":4339151,"toponymName":"Roseland Oil Field","countryId":"6252001","fcl":"L","population":0,"countryCode":"US","name":"Roseland Oil Field","fclName":"parks,area, ...","adminCodes1":{"ISO3166_2":"LA"},"countryName":"United States","fcodeName":"oilfield","adminName1":"Louisiana","lat":"31.30545","fcode":"OILF"},{"adminCode1":"TX","lng":"-94.94437","geonameId":4723892,"toponymName":"Roseland Park","countryId":"6252001","fcl":"L","population":0,"countryCode":"US","name":"Roseland Park","fclName":"parks,area, ...","adminCodes1":{"ISO3166_2":"TX"},"countryName":"United States","fcodeName":"park","adminName1":"Texas","lat":"29.72328","fcode":"PRK"},{"adminCode1":"MI","lng":"-83.17585","geonameId":8095211,"toponymName":"Roseland Park Mausoleum Historical Marker","countryId":"6252001","fcl":"L","population":0,"countryCode":"US","name":"Roseland Park Mausoleum Historical Marker","fclName":"parks,area, ...","adminCodes1":{"ISO3166_2":"MI"},"countryName":"United States","fcodeName":"park","adminName1":"Michigan","lat":"42.50427","fcode":"PRK"},{"adminCode1":"ND","lng":"-102.29903","geonameId":5691388,"toponymName":"Township of Roseland","countryId":"6252001","fcl":"A","population":0,"countryCode":"US","name":"Roseland Township","fclName":"country, state, region,...","adminCodes1":{"ISO3166_2":"ND"},"countryName":"United States","fcodeName":"third-order administrative division","adminName1":"North Dakota","lat":"48.67676","fcode":"ADM3"},{"adminCode1":"SD","lng":"-99.68314","geonameId":5230949,"toponymName":"Township of Roseland","countryId":"6252001","fcl":"A","population":0,"countryCode":"US","name":"Roseland Township","fclName":"country, state, region,...","adminCodes1":{"ISO3166_2":"SD"},"countryName":"United States","fcodeName":"third-order administrative division","adminName1":"South Dakota","lat":"43.63021","fcode":"ADM3"},{"adminCode1":"NJ","lng":"-74.30855","geonameId":5103499,"toponymName":"Borough of Roseland","countryId":"6252001","fcl":"A","population":5819,"countryCode":"US","name":"Borough of Roseland","fclName":"country, state, region,...","adminCodes1":{"ISO3166_2":"NJ"},"countryName":"United States","fcodeName":"third-order administrative division","adminName1":"New Jersey","lat":"40.82074","fcode":"ADM3"},{"adminCode1":"AR","lng":"-90.1012","geonameId":4129056,"toponymName":"Roseland","countryId":"6252001","fcl":"P","population":0,"countryCode":"US","name":"Roseland","fclName":"city, village,...","adminCodes1":{"ISO3166_2":"AR"},"countryName":"United States","fcodeName":"populated place","adminName1":"Arkansas","lat":"35.84646","fcode":"PPL"},{"adminCode1":"CT","lng":"-71.9773","geonameId":4841714,"toponymName":"Roseland Cottage","countryId":"6252001","fcl":"S","population":0,"countryCode":"US","name":"Roseland Cottage","fclName":"spot, building, farm","adminCodes1":{"ISO3166_2":"CT"},"countryName":"United States","fcodeName":"building(s)","adminName1":"Connecticut","lat":"41.9501","fcode":"BLDG"},{"adminCode1":"LA","lng":"-91.53889","geonameId":11862460,"toponymName":"Roseland","countryId":"6252001","fcl":"S","population":0,"countryCode":"US","name":"Roseland","fclName":"spot, building, farm","adminCodes1":{"ISO3166_2":"LA"},"countryName":"United States","fcodeName":"house(s)","adminName1":"Louisiana","lat":"31.6201","fcode":"HSE"},{"adminCode1":"NY","lng":"-79.24394","geonameId":5134400,"toponymName":"Roseland Park","countryId":"6252001","fcl":"L","population":0,"countryCode":"US","name":"Roseland Park","fclName":"parks,area, ...","adminCodes1":{"ISO3166_2":"NY"},"countryName":"United States","fcodeName":"park","adminName1":"New York","lat":"42.112","fcode":"PRK"},{"adminCode1":"NJ","lng":"-74.32959","geonameId":5095501,"toponymName":"Beaufort","countryId":"6252001","fcl":"P","population":0,"countryCode":"US","name":"Beaufort","fclName":"city, village,...","adminCodes1":{"ISO3166_2":"NJ"},"countryName":"United States","fcodeName":"populated place","adminName1":"New Jersey","lat":"40.81788","fcode":"PPL"},{"adminCode1":"GA","lng":"-84.37882","geonameId":4219872,"toponymName":"Roseland","countryId":"6252001","fcl":"P","population":0,"countryCode":"US","name":"Roseland","fclName":"city, village,...","adminCodes1":{"ISO3166_2":"GA"},"countryName":"United States","fcodeName":"populated place","adminName1":"Georgia","lat":"33.71594","fcode":"PPL"},{"adminCode1":"MN","lng":"-95.10528","geonameId":5043769,"toponymName":"Roseland","countryId":"6252001","fcl":"P","population":0,"countryCode":"US","name":"Roseland","fclName":"city, village,...","adminCodes1":{"ISO3166_2":"MN"},"countryName":"United States","fcodeName":"populated place","adminName1":"Minnesota","lat":"44.93524","fcode":"PPL"},{"adminCode1":"MD","lng":"-75.87629","geonameId":8081465,"toponymName":"Roseland Airport","countryId":"6252001","fcl":"S","population":0,"countryCode":"US","name":"Roseland Airport","fclName":"spot, building, farm","adminCodes1":{"ISO3166_2":"MD"},"countryName":"United States","fcodeName":"airport","adminName1":"Maryland","lat":"39.18915","fcode":"AIRP"},{"adminCode1":"CA","lng":"-122.73304","geonameId":5397932,"toponymName":"Southwest Community Park","countryId":"6252001","fcl":"L","population":0,"countryCode":"US","name":"Southwest Community Park","fclName":"parks,area, ...","adminCodes1":{"ISO3166_2":"CA"},"countryName":"United States","fcodeName":"park","adminName1":"California","lat":"38.41241","fcode":"PRK"},{"adminCode1":"FL","lng":"-82.1192","geonameId":7218612,"toponymName":"Roseland Park","countryId":"6252001","fcl":"P","population":0,"countryCode":"US","name":"Roseland Park","fclName":"city, village,...","adminCodes1":{"ISO3166_2":"FL"},"countryName":"United States","fcodeName":"populated place","adminName1":"Florida","lat":"28.0015","fcode":"PPL"},{"adminCode1":"IL","lng":"-87.63227","geonameId":4916085,"toponymName":"West Roseland","countryId":"6252001","fcl":"P","population":0,"countryCode":"US","name":"West Roseland","fclName":"city, village,...","adminCodes1":{"ISO3166_2":"IL"},"countryName":"United States","fcodeName":"section of populated place","adminName1":"Illinois","lat":"41.69309","fcode":"PPLX"},{"adminCode1":"NC","lng":"-81.27591","geonameId":4488987,"toponymName":"Roseland","countryId":"6252001","fcl":"P","population":0,"countryCode":"US","name":"Roseland","fclName":"city, village,...","adminCodes1":{"ISO3166_2":"NC"},"countryName":"United States","fcodeName":"populated place","adminName1":"North Carolina","lat":"35.44486","fcode":"PPL"},{"adminCode1":"TX","lng":"-94.947","geonameId":7208584,"toponymName":"Roseland Manor","countryId":"6252001","fcl":"P","population":0,"countryCode":"US","name":"Roseland Manor","fclName":"city, village,...","adminCodes1":{"ISO3166_2":"TX"},"countryName":"United States","fcodeName":"populated place","adminName1":"Texas","lat":"29.7333","fcode":"PPL"},{"adminCode1":"OH","lng":"-82.91657","geonameId":4522866,"toponymName":"Roseland","countryId":"6252001","fcl":"P","population":0,"countryCode":"US","name":"Roseland","fclName":"city, village,...","adminCodes1":{"ISO3166_2":"OH"},"countryName":"United States","fcodeName":"populated place","adminName1":"Ohio","lat":"39.9834","fcode":"PPL"},{"adminCode1":"FL","lng":"-81.24645","geonameId":4170523,"toponymName":"Roseland Park","countryId":"6252001","fcl":"P","population":0,"countryCode":"US","name":"Roseland Park","fclName":"city, village,...","adminCodes1":{"ISO3166_2":"FL"},"countryName":"United States","fcodeName":"populated place","adminName1":"Florida","lat":"28.79638","fcode":"PPL"},{"adminCode1":"CT","lng":"-71.95618","geonameId":4841716,"toponymName":"Roseland Park","countryId":"6252001","fcl":"P","population":0,"countryCode":"US","name":"Roseland Park","fclName":"city, village,...","adminCodes1":{"ISO3166_2":"CT"},"countryName":"United States","fcodeName":"populated place","adminName1":"Connecticut","lat":"41.95038","fcode":"PPL"},{"adminCode1":"OH","lng":"-82.54267","geonameId":5168640,"toponymName":"Roseland","countryId":"6252001","fcl":"P","population":0,"countryCode":"US","name":"Roseland","fclName":"city, village,...","adminCodes1":{"ISO3166_2":"OH"},"countryName":"United States","fcodeName":"populated place","adminName1":"Ohio","lat":"40.78867","fcode":"PPL"},{"adminCode1":"OH","lng":"-81.8975","geonameId":11377527,"toponymName":"Roseland","countryId":"6252001","fcl":"P","population":0,"countryCode":"US","name":"Roseland","fclName":"city, village,...","adminCodes1":{"ISO3166_2":"OH"},"countryName":"United States","fcodeName":"populated place","adminName1":"Ohio","lat":"41.4638","fcode":"PPL"},{"adminCode1":"OH","lng":"-82.55267","geonameId":5168641,"toponymName":"Roseland Elementary School","countryId":"6252001","fcl":"S","population":0,"countryCode":"US","name":"Roseland Elementary School","fclName":"spot, building, farm","adminCodes1":{"ISO3166_2":"OH"},"countryName":"United States","fcodeName":"school","adminName1":"Ohio","lat":"40.78033","fcode":"SCH"},{"adminCode1":"IL","lng":"-87.62476","geonameId":4908166,"toponymName":"Roseland Community Hospital","countryId":"6252001","fcl":"S","population":0,"countryCode":"US","name":"Roseland Community Hospital","fclName":"spot, building, farm","adminCodes1":{"ISO3166_2":"IL"},"countryName":"United States","fcodeName":"hospital","adminName1":"Illinois","lat":"41.69236","fcode":"HSP"},{"adminCode1":"IN","lng":"-86.24657","geonameId":11381322,"toponymName":"Roseland Police Dept","countryId":"6252001","fcl":"S","population":0,"countryCode":"US","name":"Roseland Police Dept","fclName":"spot, building, farm","adminCodes1":{"ISO3166_2":"IN"},"countryName":"United States","fcodeName":"building(s)","adminName1":"Indiana","lat":"41.71525","fcode":"BLDG"},{"adminCode1":"SC","lng":"-81.67455","geonameId":4593486,"toponymName":"Roseland","countryId":"6252001","fcl":"P","population":0,"countryCode":"US","name":"Roseland","fclName":"city, village,...","adminCodes1":{"ISO3166_2":"SC"},"countryName":"United States","fcodeName":"populated place","adminName1":"South Carolina","lat":"33.54347","fcode":"PPL"},{"adminCode1":"NC","lng":"-78.83947","geonameId":4488986,"toponymName":"Roseland","countryId":"6252001","fcl":"P","population":0,"countryCode":"US","name":"Roseland","fclName":"city, village,...","adminCodes1":{"ISO3166_2":"NC"},"countryName":"United States","fcodeName":"populated place","adminName1":"North Carolina","lat":"34.23267","fcode":"PPL"},{"adminCode1":"NC","lng":"-79.5092","geonameId":4488988,"toponymName":"Roseland","countryId":"6252001","fcl":"P","population":0,"countryCode":"US","name":"Roseland","fclName":"city, village,...","adminCodes1":{"ISO3166_2":"NC"},"countryName":"United States","fcodeName":"populated place","adminName1":"North Carolina","lat":"35.13516","fcode":"PPL"},{"adminCode1":"NY","lng":"-77.38638","geonameId":5134399,"toponymName":"Roseland","countryId":"6252001","fcl":"P","population":0,"countryCode":"US","name":"Roseland","fclName":"city, village,...","adminCodes1":{"ISO3166_2":"NY"},"countryName":"United States","fcodeName":"populated place","adminName1":"New York","lat":"43.18145","fcode":"PPL"},{"adminCode1":"NY","lng":"-77.25109","geonameId":5134401,"toponymName":"Roseland Park","countryId":"6252001","fcl":"P","population":0,"countryCode":"US","name":"Roseland Park","fclName":"city, village,...","adminCodes1":{"ISO3166_2":"NY"},"countryName":"United States","fcodeName":"populated place","adminName1":"New York","lat":"42.87256","fcode":"PPL"},{"adminCode1":"IL","lng":"-87.62116","geonameId":4897841,"toponymName":"Jehovahs Witnesses Roseland Unit","countryId":"6252001","fcl":"S","population":0,"countryCode":"US","name":"Jehovahs Witnesses Roseland Unit","fclName":"spot, building, farm","adminCodes1":{"ISO3166_2":"IL"},"countryName":"United States","fcodeName":"church","adminName1":"Illinois","lat":"41.68781","fcode":"CH"},{"adminCode1":"LA","lng":"-91.16923","geonameId":11873909,"toponymName":"Reiley-Reeves House","countryId":"6252001","fcl":"S","population":0,"countryCode":"US","name":"Reiley-Reeves House","fclName":"spot, building, farm","adminCodes1":{"ISO3166_2":"LA"},"countryName":"United States","fcodeName":"house(s)","adminName1":"Louisiana","lat":"30.44089","fcode":"HSE"},{"adminCode1":"IL","lng":"-88.95371","geonameId":6354860,"toponymName":"Roseland Cemetery","countryId":"6252001","fcl":"S","population":0,"countryCode":"US","name":"Roseland Cemetery","fclName":"spot, building, farm","adminCodes1":{"ISO3166_2":"IL"},"countryName":"United States","fcodeName":"cemetery","adminName1":"Illinois","lat":"42.10891","fcode":"CMTY"},{"adminCode1":"WI","lng":"-88.64316","geonameId":5269530,"toponymName":"Roseland Cemetery","countryId":"6252001","fcl":"S","population":0,"countryCode":"US","name":"Roseland Cemetery","fclName":"spot, building, farm","adminCodes1":{"ISO3166_2":"WI"},"countryName":"United States","fcodeName":"cemetery","adminName1":"Wisconsin","lat":"45.39302","fcode":"CMTY"},{"adminCode1":"LA","lng":"-90.51119","geonameId":7137336,"toponymName":"Roseland Volunteer Fire Department","countryId":"6252001","fcl":"S","population":0,"countryCode":"US","name":"Roseland Volunteer Fire Department","fclName":"spot, building, farm","adminCodes1":{"ISO3166_2":"LA"},"countryName":"United States","fcodeName":"building(s)","adminName1":"Louisiana","lat":"30.76326","fcode":"BLDG"},{"adminCode1":"CA","lng":"-122.72869","geonameId":7237376,"toponymName":"Roseland Charter Middle School","countryId":"6252001","fcl":"S","population":0,"countryCode":"US","name":"Roseland Charter Middle School","fclName":"spot, building, farm","adminCodes1":{"ISO3166_2":"CA"},"countryName":"United States","fcodeName":"school","adminName1":"California","lat":"38.42005","fcode":"SCH"},{"adminCode1":"CA","lng":"-122.72161","geonameId":7237386,"toponymName":"Roseland University Preparatory High School","countryId":"6252001","fcl":"S","population":0,"countryCode":"US","name":"Roseland University Preparatory High School","fclName":"spot, building, farm","adminCodes1":{"ISO3166_2":"CA"},"countryName":"United States","fcodeName":"school","adminName1":"California","lat":"38.43064","fcode":"SCH"},{"adminCode1":"CA","lng":"-122.73048","geonameId":5388859,"toponymName":"Roseland Elementary School","countryId":"6252001","fcl":"S","population":0,"countryCode":"US","name":"Roseland Elementary School","fclName":"spot, building, farm","adminCodes1":{"ISO3166_2":"CA"},"countryName":"United States","fcodeName":"school","adminName1":"California","lat":"38.42819","fcode":"SCH"},{"adminCode1":"ND","lng":"-102.30439","geonameId":5690206,"toponymName":"Little Butte","countryId":"6252001","fcl":"T","population":0,"countryCode":"US","name":"Little Butte","fclName":"mountain,hill,rock,... ","adminCodes1":{"ISO3166_2":"ND"},"countryName":"United States","fcodeName":"mountain","adminName1":"North Dakota","lat":"48.64303","fcode":"MT"},{"adminCode1":"ND","lng":"-102.32741","geonameId":5692799,"toponymName":"Ward Hill","countryId":"6252001","fcl":"T","population":0,"countryCode":"US","name":"Ward Hill","fclName":"mountain,hill,rock,... ","adminCodes1":{"ISO3166_2":"ND"},"countryName":"United States","fcodeName":"mountain","adminName1":"North Dakota","lat":"48.65513","fcode":"MT"},{"adminCode1":"SD","lng":"-99.67872","geonameId":5227287,"toponymName":"Department of Game Fish Parks Dam","countryId":"6252001","fcl":"S","population":0,"countryCode":"US","name":"Department of Game Fish Parks Dam","fclName":"spot, building, farm","adminCodes1":{"ISO3166_2":"SD"},"countryName":"United States","fcodeName":"dam","adminName1":"South Dakota","lat":"43.59833","fcode":"DAM"},{"adminCode1":"NJ","lng":"-74.29025","geonameId":9672817,"toponymName":"Roseland Police Department","countryId":"6252001","fcl":"S","population":0,"countryCode":"US","name":"Roseland Police Department","fclName":"spot, building, farm","adminCodes1":{"ISO3166_2":"NJ"},"countryName":"United States","fcodeName":"building(s)","adminName1":"New Jersey","lat":"40.82165","fcode":"BLDG"},{"adminCode1":"UT","lng":"-111.89271","geonameId":5780740,"toponymName":"Roseland Addition","countryId":"6252001","fcl":"P","population":0,"countryCode":"US","name":"Roseland Addition","fclName":"city, village,...","adminCodes1":{"ISO3166_2":"UT"},"countryName":"United States","fcodeName":"section of populated place","adminName1":"Utah","lat":"40.72439","fcode":"PPLX"},{"adminCode1":"AL","lng":"-87.56767","geonameId":11497809,"toponymName":"Roseland Plantation (historical)","countryId":"6252001","fcl":"V","population":0,"countryCode":"US","name":"Roseland Plantation (historical)","fclName":"forest,heath,...","adminCodes1":{"ISO3166_2":"AL"},"countryName":"United States","fcodeName":"cultivated area","adminName1":"Alabama","lat":"32.44469","fcode":"CULT"},{"adminCode1":"LA","lng":"-90.43629","geonameId":12036090,"toponymName":"Roseland Plantation (historical)","countryId":"6252001","fcl":"V","population":0,"countryCode":"US","name":"Roseland Plantation (historical)","fclName":"forest,heath,...","adminCodes1":{"ISO3166_2":"LA"},"countryName":"United States","fcodeName":"cultivated area","adminName1":"Louisiana","lat":"30.00464","fcode":"CULT"},{"adminCode1":"NJ","lng":"-74.29737","geonameId":5103280,"toponymName":"Riker Hill","countryId":"6252001","fcl":"T","population":0,"countryCode":"US","name":"Riker Hill","fclName":"mountain,hill,rock,... ","adminCodes1":{"ISO3166_2":"NJ"},"countryName":"United States","fcodeName":"mountain","adminName1":"New Jersey","lat":"40.81899","fcode":"MT"},{"adminCode1":"PA","lng":"-80.1949","geonameId":5209020,"toponymName":"Roselawn Memorial Gardens","countryId":"6252001","fcl":"S","population":0,"countryCode":"US","name":"Roselawn Memorial Gardens","fclName":"spot, building, farm","adminCodes1":{"ISO3166_2":"PA"},"countryName":"United States","fcodeName":"cemetery","adminName1":"Pennsylvania","lat":"41.62374","fcode":"CMTY"},{"adminCode1":"NC","lng":"-80.89246","geonameId":4460951,"toponymName":"Clanton Park - Roseland","countryId":"6252001","fcl":"P","population":0,"countryCode":"US","name":"Clanton Park - Roseland","fclName":"city, village,...","adminCodes1":{"ISO3166_2":"NC"},"countryName":"United States","fcodeName":"section of populated place","adminName1":"North Carolina","lat":"35.19829","fcode":"PPLX"},{"adminCode1":"SD","lng":"-99.68194","geonameId":8487787,"toponymName":"Hamill Post Office","countryId":"6252001","fcl":"S","population":0,"countryCode":"US","name":"Hamill Post Office","fclName":"spot, building, farm","adminCodes1":{"ISO3166_2":"SD"},"countryName":"United States","fcodeName":"post office","adminName1":"South Dakota","lat":"43.59472","fcode":"PO"},{"adminCode1":"NJ","lng":"-74.31212","geonameId":5100407,"toponymName":"Lester C Noecker School","countryId":"6252001","fcl":"S","population":0,"countryCode":"US","name":"Lester C Noecker School","fclName":"spot, building, farm","adminCodes1":{"ISO3166_2":"NJ"},"countryName":"United States","fcodeName":"school","adminName1":"New Jersey","lat":"40.8234","fcode":"SCH"},{"adminCode1":"NJ","lng":"-74.32098","geonameId":5099624,"toponymName":"Interchange 4","countryId":"6252001","fcl":"R","population":0,"countryCode":"US","name":"Interchange 4","fclName":"road, railroad ","adminCodes1":{"ISO3166_2":"NJ"},"countryName":"United States","fcodeName":"road junction","adminName1":"New Jersey","lat":"40.82538","fcode":"RDJCT"},{"adminCode1":"NJ","lng":"-74.30904","geonameId":5099646,"toponymName":"Interchange 5","countryId":"6252001","fcl":"R","population":0,"countryCode":"US","name":"Interchange 5","fclName":"road, railroad ","adminCodes1":{"ISO3166_2":"NJ"},"countryName":"United States","fcodeName":"road junction","adminName1":"New Jersey","lat":"40.81316","fcode":"RDJCT"},{"adminCode1":"WI","lng":"-88.64928","geonameId":5269983,"toponymName":"Saint Ambrose Cemetery","countryId":"6252001","fcl":"S","population":0,"countryCode":"US","name":"Saint Ambrose Cemetery","fclName":"spot, building, farm","adminCodes1":{"ISO3166_2":"WI"},"countryName":"United States","fcodeName":"cemetery","adminName1":"Wisconsin","lat":"45.45108","fcode":"CMTY"},{"adminCode1":"MN","lng":"-94.5139","geonameId":5043797,"toponymName":"Rosenlund Cemetery","countryId":"6252001","fcl":"S","population":0,"countryCode":"US","name":"Rosenlund Cemetery","fclName":"spot, building, farm","adminCodes1":{"ISO3166_2":"MN"},"countryName":"United States","fcodeName":"cemetery","adminName1":"Minnesota","lat":"46.12858","fcode":"CMTY"},{"adminCode1":"CT","lng":"-71.95915","geonameId":4841718,"toponymName":"Woodstock Golf Course","countryId":"6252001","fcl":"S","population":0,"countryCode":"US","name":"Woodstock Golf Course","fclName":"spot, building, farm","adminCodes1":{"ISO3166_2":"CT"},"countryName":"United States","fcodeName":"golf course","adminName1":"Connecticut","lat":"41.94979","fcode":"RECG"},{"adminCode1":"MN","lng":"-95.10361","geonameId":5043771,"toponymName":"Roseland Christian Reformed Cemetery","countryId":"6252001","fcl":"S","population":0,"countryCode":"US","name":"Roseland Christian Reformed Cemetery","fclName":"spot, building, farm","adminCodes1":{"ISO3166_2":"MN"},"countryName":"United States","fcodeName":"cemetery","adminName1":"Minnesota","lat":"44.93556","fcode":"CMTY"},{"adminCode1":"MN","lng":"-95.105","geonameId":5043772,"toponymName":"Roseland Post Office (historical)","countryId":"6252001","fcl":"S","population":0,"countryCode":"US","name":"Roseland Post Office (historical)","fclName":"spot, building, farm","adminCodes1":{"ISO3166_2":"MN"},"countryName":"United States","fcodeName":"post office","adminName1":"Minnesota","lat":"44.93528","fcode":"PO"},{"adminCode1":"MN","lng":"-95.10472","geonameId":5043773,"toponymName":"Roseland Reformed Church","countryId":"6252001","fcl":"S","population":0,"countryCode":"US","name":"Roseland Reformed Church","fclName":"spot, building, farm","adminCodes1":{"ISO3166_2":"MN"},"countryName":"United States","fcodeName":"church","adminName1":"Minnesota","lat":"44.93556","fcode":"CH"},{"adminCode1":"NE","lng":"-98.55868","geonameId":5076526,"toponymName":"Roseland","countryId":"6252001","fcl":"S","population":0,"countryCode":"US","name":"Roseland","fclName":"spot, building, farm","adminCodes1":{"ISO3166_2":"NE"},"countryName":"United States","fcodeName":"","adminName1":"Nebraska","lat":"40.47001"},{"adminCode1":"NE","lng":"-98.57034","geonameId":5076527,"toponymName":"Roseland Assumption School","countryId":"6252001","fcl":"S","population":0,"countryCode":"US","name":"Roseland Assumption School","fclName":"spot, building, farm","adminCodes1":{"ISO3166_2":"NE"},"countryName":"United States","fcodeName":"school","adminName1":"Nebraska","lat":"40.51001","fcode":"SCH"},{"adminCode1":"NE","lng":"-98.57395","geonameId":5076528,"toponymName":"Roseland Cemetery","countryId":"6252001","fcl":"S","population":0,"countryCode":"US","name":"Roseland Cemetery","fclName":"spot, building, farm","adminCodes1":{"ISO3166_2":"NE"},"countryName":"United States","fcodeName":"cemetery","adminName1":"Nebraska","lat":"40.46224","fcode":"CMTY"},{"adminCode1":"NE","lng":"-98.55923","geonameId":5076531,"toponymName":"Roseland Post Office","countryId":"6252001","fcl":"S","population":0,"countryCode":"US","name":"Roseland Post Office","fclName":"spot, building, farm","adminCodes1":{"ISO3166_2":"NE"},"countryName":"United States","fcodeName":"post office","adminName1":"Nebraska","lat":"40.47029","fcode":"PO"},{"adminCode1":"NE","lng":"-98.55938","geonameId":7702398,"toponymName":"Roseland Volunteer Fire Department","countryId":"6252001","fcl":"S","population":0,"countryCode":"US","name":"Roseland Volunteer Fire Department","fclName":"spot, building, farm","adminCodes1":{"ISO3166_2":"NE"},"countryName":"United States","fcodeName":"building(s)","adminName1":"Nebraska","lat":"40.471","fcode":"BLDG"},{"adminCode1":"GA","lng":"-84.41285","geonameId":4219873,"toponymName":"Roseland Cemetery","countryId":"6252001","fcl":"S","population":0,"countryCode":"US","name":"Roseland Cemetery","fclName":"spot, building, farm","adminCodes1":{"ISO3166_2":"GA"},"countryName":"United States","fcodeName":"cemetery","adminName1":"Georgia","lat":"33.68203","fcode":"CMTY"},{"adminCode1":"LA","lng":"-90.51013","geonameId":7137574,"toponymName":"Roseland Fire Department","countryId":"6252001","fcl":"S","population":0,"countryCode":"US","name":"Roseland Fire Department","fclName":"spot, building, farm","adminCodes1":{"ISO3166_2":"LA"},"countryName":"United States","fcodeName":"building(s)","adminName1":"Louisiana","lat":"30.77137","fcode":"BLDG"},{"adminCode1":"LA","lng":"-90.51124","geonameId":7139050,"toponymName":"Roseland Police Department","countryId":"6252001","fcl":"S","population":0,"countryCode":"US","name":"Roseland Police Department","fclName":"spot, building, farm","adminCodes1":{"ISO3166_2":"LA"},"countryName":"United States","fcodeName":"building(s)","adminName1":"Louisiana","lat":"30.76326","fcode":"BLDG"},{"adminCode1":"MS","lng":"-91.29094","geonameId":4443882,"toponymName":"Roseland Cemetery","countryId":"6252001","fcl":"S","population":0,"countryCode":"US","name":"Roseland Cemetery","fclName":"spot, building, farm","adminCodes1":{"ISO3166_2":"MS"},"countryName":"United States","fcodeName":"cemetery","adminName1":"Mississippi","lat":"31.52017","fcode":"CMTY"},{"adminCode1":"MS","lng":"-89.3109","geonameId":4443884,"toponymName":"Roseland Park Cemetery","countryId":"6252001","fcl":"S","population":0,"countryCode":"US","name":"Roseland Park Cemetery","fclName":"spot, building, farm","adminCodes1":{"ISO3166_2":"MS"},"countryName":"United States","fcodeName":"cemetery","adminName1":"Mississippi","lat":"31.33795","fcode":"CMTY"},{"adminCode1":"OK","lng":"-98.88009","geonameId":4549739,"toponymName":"Roseland Church","countryId":"6252001","fcl":"S","population":0,"countryCode":"US","name":"Roseland Church","fclName":"spot, building, farm","adminCodes1":{"ISO3166_2":"OK"},"countryName":"United States","fcodeName":"church","adminName1":"Oklahoma","lat":"35.84199","fcode":"CH"},{"adminCode1":"LA","lng":"-93.37488","geonameId":4339149,"toponymName":"Roseland Cemetery","countryId":"6252001","fcl":"S","population":0,"countryCode":"US","name":"Roseland Cemetery","fclName":"spot, building, farm","adminCodes1":{"ISO3166_2":"LA"},"countryName":"United States","fcodeName":"cemetery","adminName1":"Louisiana","lat":"30.21743","fcode":"CMTY"},{"adminCode1":"LA","lng":"-90.51651","geonameId":4339150,"toponymName":"Roseland Elementary School","countryId":"6252001","fcl":"S","population":0,"countryCode":"US","name":"Roseland Elementary School","fclName":"spot, building, farm","adminCodes1":{"ISO3166_2":"LA"},"countryName":"United States","fcodeName":"school","adminName1":"Louisiana","lat":"30.76606","fcode":"SCH"},{"adminCode1":"LA","lng":"-91.53679","geonameId":4339152,"toponymName":"Roseland Plantation","countryId":"6252001","fcl":"S","population":0,"countryCode":"US","name":"Roseland Plantation","fclName":"spot, building, farm","adminCodes1":{"ISO3166_2":"LA"},"countryName":"United States","fcodeName":"","adminName1":"Louisiana","lat":"31.31962"},{"adminCode1":"LA","lng":"-90.5137","geonameId":4339153,"toponymName":"Roseland Post Office","countryId":"6252001","fcl":"S","population":0,"countryCode":"US","name":"Roseland Post Office","fclName":"spot, building, farm","adminCodes1":{"ISO3166_2":"LA"},"countryName":"United States","fcodeName":"post office","adminName1":"Louisiana","lat":"30.76491","fcode":"PO"},{"adminCode1":"AL","lng":"-87.56848","geonameId":4071499,"toponymName":"Lake Roseland","countryId":"6252001","fcl":"H","population":0,"countryCode":"US","name":"Lake Roseland","fclName":"stream, lake, ...","adminCodes1":{"ISO3166_2":"AL"},"countryName":"United States","fcodeName":"reservoir(s)","adminName1":"Alabama","lat":"32.44325","fcode":"RSV"},{"adminCode1":"LA","lng":"-90.51926","geonameId":4314990,"toponymName":"Arcola-Roseland Cemetery","countryId":"6252001","fcl":"S","population":0,"countryCode":"US","name":"Arcola-Roseland Cemetery","fclName":"spot, building, farm","adminCodes1":{"ISO3166_2":"LA"},"countryName":"United States","fcodeName":"cemetery","adminName1":"Louisiana","lat":"30.77713","fcode":"CMTY"},{"adminCode1":"FL","lng":"-83.86739","geonameId":4170521,"toponymName":"Roseland Cemetery","countryId":"6252001","fcl":"S","population":0,"countryCode":"US","name":"Roseland Cemetery","fclName":"spot, building, farm","adminCodes1":{"ISO3166_2":"FL"},"countryName":"United States","fcodeName":"cemetery","adminName1":"Florida","lat":"30.54992","fcode":"CMTY"}]}
