{"totalResultsCount":149,"geonames":[{"adminCode1":"OH","lng":"-83.96077","geonameId":5168663,"toponymName":"Rosewood","countryId":"6252001","fcl":"P","population":257,"countryCode":"US","name":"Rosewood","fclName":"city, village,...","adminCodes1":{"ISO3166_2":"OH"},"countryName":"United States","fcodeName":"populated place","adminName1":"Ohio","lat":"40.21894","fcode":"PPL"},{"adminCode1":"MN","lng":"-95.67526","geonameId":5043808,"toponymName":"Township of Rosewood","countryId":"6252001","fcl":"A","population":0,"countryCode":"US","name":"Rosewood Township","fclName":"country, state, region,...","adminCodes1":{"ISO3166_2":"MN"},"countryName":"United States","fcodeName":"third-order administrative division","adminName1":"Minnesota","lat":"45.02134","fcode":"ADM3"},{"adminCode1":"IL","lng":"-90.08483","geonameId":4248480,"toponymName":"Rosewood Heights","countryId":"6252001","fcl":"P","population":4038,"countryCode":"US","name":"Rosewood Heights","fclName":"city, village,...","adminCodes1":{"ISO3166_2":"IL"},"countryName":"United States","fcodeName":"populated place","adminName1":"Illinois","lat":"38.88783","fcode":"PPL"},{"adminCode1":"IN","lng":"-85.92913","geonameId":4263914,"toponymName":"Rosewood","countryId":"6252001","fcl":"P","population":0,"countryCode":"US","name":"Rosewood","fclName":"city, village,...","adminCodes1":{"ISO3166_2":"IN"},"countryName":"United States","fcodeName":"populated place","adminName1":"Indiana","lat":"38.03813","fcode":"PPL"},{"adminCode1":"KY","lng":"-87.08944","geonameId":4306776,"toponymName":"Rosewood","countryId":"6252001","fcl":"P","population":0,"countryCode":"US","name":"Rosewood","fclName":"city, village,...","adminCodes1":{"ISO3166_2":"KY"},"countryName":"United States","fcodeName":"populated place","adminName1":"Kentucky","lat":"37.08671","fcode":"PPL"},{"adminCode1":"FL","lng":"-82.93206","geonameId":4170540,"toponymName":"Rosewood","countryId":"6252001","fcl":"P","population":0,"countryCode":"US","name":"Rosewood","fclName":"city, village,...","adminCodes1":{"ISO3166_2":"FL"},"countryName":"United States","fcodeName":"populated place","adminName1":"Florida","lat":"29.23913","fcode":"PPL"},{"adminCode1":"WI","lng":"-88.1687","geonameId":5269551,"toponymName":"Rosewood","countryId":"6252001","fcl":"P","population":0,"countryCode":"US","name":"Rosewood","fclName":"city, village,...","adminCodes1":{"ISO3166_2":"WI"},"countryName":"United States","fcodeName":"populated place","adminName1":"Wisconsin","lat":"42.67585","fcode":"PPL"},{"adminCode1":"MN","lng":"-96.29032","geonameId":5043806,"toponymName":"Rosewood","countryId":"6252001","fcl":"P","population":0,"countryCode":"US","name":"Rosewood","fclName":"city, village,...","adminCodes1":{"ISO3166_2":"MN"},"countryName":"United States","fcodeName":"populated place","adminName1":"Minnesota","lat":"48.18942","fcode":"PPL"},{"adminCode1":"MO","lng":"-92.92298","geonameId":5057077,"toponymName":"Rosewood","countryId":"6252001","fcl":"P","population":0,"countryCode":"US","name":"Rosewood","fclName":"city, village,...","adminCodes1":{"ISO3166_2":"MO"},"countryName":"United States","fcodeName":"populated place","adminName1":"Missouri","lat":"40.42502","fcode":"PPL"},{"adminCode1":"UT","lng":"-111.92549","geonameId":5780749,"toponymName":"Rosewood Park","countryId":"6252001","fcl":"L","population":0,"countryCode":"US","name":"Rosewood Park","fclName":"parks,area, ...","adminCodes1":{"ISO3166_2":"UT"},"countryName":"United States","fcodeName":"park","adminName1":"Utah","lat":"40.79522","fcode":"PRK"},{"adminCode1":"OH","lng":"-84.17855","geonameId":4522882,"toponymName":"Rosewood Park","countryId":"6252001","fcl":"L","population":0,"countryCode":"US","name":"Rosewood Park","fclName":"parks,area, ...","adminCodes1":{"ISO3166_2":"OH"},"countryName":"United States","fcodeName":"park","adminName1":"Ohio","lat":"39.60423","fcode":"PRK"},{"adminCode1":"TX","lng":"-94.81822","geonameId":4723938,"toponymName":"Rosewood Lake","countryId":"6252001","fcl":"H","population":0,"countryCode":"US","name":"Rosewood Lake","fclName":"stream, lake, ...","adminCodes1":{"ISO3166_2":"TX"},"countryName":"United States","fcodeName":"lake","adminName1":"Texas","lat":"30.15948","fcode":"LK"},{"adminCode1":"TX","lng":"-95.29744","geonameId":4723940,"toponymName":"Rosewood Park","countryId":"6252001","fcl":"L","population":0,"countryCode":"US","name":"Rosewood Park","fclName":"parks,area, ...","adminCodes1":{"ISO3166_2":"TX"},"countryName":"United States","fcodeName":"park","adminName1":"Texas","lat":"29.83661","fcode":"PRK"},{"adminCode1":"TX","lng":"-97.71417","geonameId":4723941,"toponymName":"Rosewood Park","countryId":"6252001","fcl":"L","population":0,"countryCode":"US","name":"Rosewood Park","fclName":"parks,area, ...","adminCodes1":{"ISO3166_2":"TX"},"countryName":"United States","fcodeName":"park","adminName1":"Texas","lat":"30.27215","fcode":"PRK"},{"adminCode1":"IL","lng":"-87.76979","geonameId":4908196,"toponymName":"Rosewood Park","countryId":"6252001","fcl":"L","population":0,"countryCode":"US","name":"Rosewood Park","fclName":"parks,area, ...","adminCodes1":{"ISO3166_2":"IL"},"countryName":"United States","fcodeName":"park","adminName1":"Illinois","lat":"42.16614","fcode":"PRK"},{"adminCode1":"NC","lng":"-78.07082","geonameId":4489014,"toponymName":"Rosewood","countryId":"6252001","fcl":"P","population":0,"countryCode":"US","name":"Rosewood","fclName":"city, village,...","adminCodes1":{"ISO3166_2":"NC"},"countryName":"United States","fcodeName":"populated place","adminName1":"North Carolina","lat":"35.41349","fcode":"PPL"},{"adminCode1":"CA","lng":"-118.36091","geonameId":5388896,"toponymName":"Rosewood Park","countryId":"6252001","fcl":"L","population":0,"countryCode":"US","name":"Rosewood Park","fclName":"parks,area, ...","adminCodes1":{"ISO3166_2":"CA"},"countryName":"United States","fcodeName":"park","adminName1":"California","lat":"34.08029","fcode":"PRK"},{"adminCode1":"CA","lng":"-118.15507","geonameId":5388897,"toponymName":"Rosewood Park","countryId":"6252001","fcl":"L","population":0,"countryCode":"US","name":"Rosewood Park","fclName":"parks,area, ...","adminCodes1":{"ISO3166_2":"CA"},"countryName":"United States","fcodeName":"park","adminName1":"California","lat":"34.00224","fcode":"PRK"},{"adminCode1":"SC","lng":"-80.98954","geonameId":4593522,"toponymName":"Rosewood Park","countryId":"6252001","fcl":"L","population":0,"countryCode":"US","name":"Rosewood Park","fclName":"parks,area, ...","adminCodes1":{"ISO3166_2":"SC"},"countryName":"United States","fcodeName":"park","adminName1":"South Carolina","lat":"33.9896","fcode":"PRK"},{"adminCode1":"CA","lng":"-124.16562","geonameId":5570496,"toponymName":"Rosewood","countryId":"6252001","fcl":"P","population":0,"countryCode":"US","name":"Rosewood","fclName":"city, village,...","adminCodes1":{"ISO3166_2":"CA"},"countryName":"United States","fcodeName":"populated place","adminName1":"California","lat":"40.7679","fcode":"PPL"},{"adminCode1":"MD","lng":"-76.77109","geonameId":4367399,"toponymName":"Rosewood State Training School","countryId":"6252001","fcl":"S","population":0,"countryCode":"US","name":"Rosewood State Training School","fclName":"spot, building, farm","adminCodes1":{"ISO3166_2":"MD"},"countryName":"United States","fcodeName":"school","adminName1":"Maryland","lat":"39.42261","fcode":"SCH"},{"adminCode1":"LA","lng":"-91.88471","geonameId":4339189,"toponymName":"WD Flyers Airport","countryId":"6252001","fcl":"S","population":0,"countryCode":"US","name":"WD Flyers Airport","fclName":"spot, building, farm","adminCodes1":{"ISO3166_2":"LA"},"countryName":"United States","fcodeName":"airport","adminName1":"Louisiana","lat":"30.99752","fcode":"AIRP"},{"adminCode1":"VA","lng":"-79.90948","geonameId":4782963,"toponymName":"Rosewood Park","countryId":"6252001","fcl":"P","population":0,"countryCode":"US","name":"Rosewood Park","fclName":"city, village,...","adminCodes1":{"ISO3166_2":"VA"},"countryName":"United States","fcodeName":"populated place","adminName1":"Virginia","lat":"37.25292","fcode":"PPL"},{"adminCode1":"UT","lng":"-112.03133","geonameId":5780748,"toponymName":"Rosewood Manor Condominium","countryId":"6252001","fcl":"P","population":0,"countryCode":"US","name":"Rosewood Manor Condominium","fclName":"city, village,...","adminCodes1":{"ISO3166_2":"UT"},"countryName":"United States","fcodeName":"populated place","adminName1":"Utah","lat":"41.16244","fcode":"PPL"},{"adminCode1":"OR","lng":"-122.73315","geonameId":5749385,"toponymName":"Rosewood","countryId":"6252001","fcl":"P","population":0,"countryCode":"US","name":"Rosewood","fclName":"city, village,...","adminCodes1":{"ISO3166_2":"OR"},"countryName":"United States","fcodeName":"populated place","adminName1":"Oregon","lat":"45.3979","fcode":"PPL"},{"adminCode1":"OR","lng":"-118.79133","geonameId":5749386,"toponymName":"Rosewood Gulch","countryId":"6252001","fcl":"T","population":0,"countryCode":"US","name":"Rosewood Gulch","fclName":"mountain,hill,rock,... ","adminCodes1":{"ISO3166_2":"OR"},"countryName":"United States","fcodeName":"valley","adminName1":"Oregon","lat":"43.97626","fcode":"VAL"},{"adminCode1":"FL","lng":"-82.14853","geonameId":7189663,"toponymName":"Rosewood Mobile Home Park","countryId":"6252001","fcl":"P","population":0,"countryCode":"US","name":"Rosewood Mobile Home Park","fclName":"city, village,...","adminCodes1":{"ISO3166_2":"FL"},"countryName":"United States","fcodeName":"populated place","adminName1":"Florida","lat":"28.6678","fcode":"PPL"},{"adminCode1":"VA","lng":"-77.5244","geonameId":7198459,"toponymName":"Rosewood Estates","countryId":"6252001","fcl":"P","population":0,"countryCode":"US","name":"Rosewood Estates","fclName":"city, village,...","adminCodes1":{"ISO3166_2":"VA"},"countryName":"United States","fcodeName":"populated place","adminName1":"Virginia","lat":"38.4661","fcode":"PPL"},{"adminCode1":"LA","lng":"-91.88345","geonameId":4339187,"toponymName":"Rosewood","countryId":"6252001","fcl":"P","population":0,"countryCode":"US","name":"Rosewood","fclName":"city, village,...","adminCodes1":{"ISO3166_2":"LA"},"countryName":"United States","fcodeName":"populated place","adminName1":"Louisiana","lat":"30.99796","fcode":"PPL"},{"adminCode1":"MD","lng":"-76.53718","geonameId":4367395,"toponymName":"Rosewood","countryId":"6252001","fcl":"P","population":0,"countryCode":"US","name":"Rosewood","fclName":"city, village,...","adminCodes1":{"ISO3166_2":"MD"},"countryName":"United States","fcodeName":"populated place","adminName1":"Maryland","lat":"38.51734","fcode":"PPL"},{"adminCode1":"MD","lng":"-77.15193","geonameId":4367396,"toponymName":"Rosewood Estates","countryId":"6252001","fcl":"P","population":0,"countryCode":"US","name":"Rosewood Estates","fclName":"city, village,...","adminCodes1":{"ISO3166_2":"MD"},"countryName":"United States","fcodeName":"populated place","adminName1":"Maryland","lat":"39.19011","fcode":"PPL"},{"adminCode1":"MD","lng":"-75.51909","geonameId":4367397,"toponymName":"Rosewood Forest","countryId":"6252001","fcl":"P","population":0,"countryCode":"US","name":"Rosewood Forest","fclName":"city, village,...","adminCodes1":{"ISO3166_2":"MD"},"countryName":"United States","fcodeName":"populated place","adminName1":"Maryland","lat":"38.40845","fcode":"PPL"},{"adminCode1":"TX","lng":"-95.08105","geonameId":4723935,"toponymName":"Rosewood","countryId":"6252001","fcl":"P","population":0,"countryCode":"US","name":"Rosewood","fclName":"city, village,...","adminCodes1":{"ISO3166_2":"TX"},"countryName":"United States","fcodeName":"populated place","adminName1":"Texas","lat":"32.75041","fcode":"PPL"},{"adminCode1":"AZ","lng":"-110.92065","geonameId":5312040,"toponymName":"Rosewood Point","countryId":"6252001","fcl":"T","population":0,"countryCode":"US","name":"Rosewood Point","fclName":"mountain,hill,rock,... ","adminCodes1":{"ISO3166_2":"AZ"},"countryName":"United States","fcodeName":"cliff(s)","adminName1":"Arizona","lat":"32.35674","fcode":"CLF"},{"adminCode1":"AZ","lng":"-112.33473","geonameId":8483519,"toponymName":"Rosewood Estates Mobile Home Park","countryId":"6252001","fcl":"P","population":0,"countryCode":"US","name":"Rosewood Estates Mobile Home Park","fclName":"city, village,...","adminCodes1":{"ISO3166_2":"AZ"},"countryName":"United States","fcodeName":"populated place","adminName1":"Arizona","lat":"33.62176","fcode":"PPL"},{"adminCode1":"OH","lng":"-81.9077","geonameId":11392679,"toponymName":"Rosewood Estates","countryId":"6252001","fcl":"P","population":0,"countryCode":"US","name":"Rosewood Estates","fclName":"city, village,...","adminCodes1":{"ISO3166_2":"OH"},"countryName":"United States","fcodeName":"populated place","adminName1":"Ohio","lat":"41.4358","fcode":"PPL"},{"adminCode1":"LA","lng":"-91.87262","geonameId":4338460,"toponymName":"Red Fish","countryId":"6252001","fcl":"P","population":0,"countryCode":"US","name":"Red Fish","fclName":"city, village,...","adminCodes1":{"ISO3166_2":"LA"},"countryName":"United States","fcodeName":"populated place","adminName1":"Louisiana","lat":"31.00157","fcode":"PPL"},{"adminCode1":"CA","lng":"-122.5564","geonameId":5570494,"toponymName":"Rosewood","countryId":"6252001","fcl":"P","population":0,"countryCode":"US","name":"Rosewood","fclName":"city, village,...","adminCodes1":{"ISO3166_2":"CA"},"countryName":"United States","fcodeName":"populated place","adminName1":"California","lat":"40.2696","fcode":"PPL"},{"adminCode1":"PA","lng":"-75.11351","geonameId":5209044,"toponymName":"Rosewood Park","countryId":"6252001","fcl":"P","population":0,"countryCode":"US","name":"Rosewood Park","fclName":"city, village,...","adminCodes1":{"ISO3166_2":"PA"},"countryName":"United States","fcodeName":"populated place","adminName1":"Pennsylvania","lat":"40.20594","fcode":"PPL"},{"adminCode1":"WA","lng":"-123.87902","geonameId":7714161,"toponymName":"Rosewood Manor Mobile Home Park","countryId":"6252001","fcl":"P","population":0,"countryCode":"US","name":"Rosewood Manor Mobile Home Park","fclName":"city, village,...","adminCodes1":{"ISO3166_2":"WA"},"countryName":"United States","fcodeName":"populated place","adminName1":"Washington","lat":"46.99806","fcode":"PPL"},{"adminCode1":"GA","lng":"-84.92215","geonameId":4219893,"toponymName":"Rosewood","countryId":"6252001","fcl":"P","population":0,"countryCode":"US","name":"Rosewood","fclName":"city, village,...","adminCodes1":{"ISO3166_2":"GA"},"countryName":"United States","fcodeName":"section of populated place","adminName1":"Georgia","lat":"32.46653","fcode":"PPLX"},{"adminCode1":"NC","lng":"-78.9739","geonameId":7230450,"toponymName":"Rosewood Mobile Home Park","countryId":"6252001","fcl":"P","population":0,"countryCode":"US","name":"Rosewood Mobile Home Park","fclName":"city, village,...","adminCodes1":{"ISO3166_2":"NC"},"countryName":"United States","fcodeName":"populated place","adminName1":"North Carolina","lat":"34.6386","fcode":"PPL"},{"adminCode1":"SC","lng":"-78.99281","geonameId":4593516,"toponymName":"Rosewood","countryId":"6252001","fcl":"P","population":0,"countryCode":"US","name":"Rosewood","fclName":"city, village,...","adminCodes1":{"ISO3166_2":"SC"},"countryName":"United States","fcodeName":"populated place","adminName1":"South Carolina","lat":"33.68656","fcode":"PPL"},{"adminCode1":"SC","lng":"-81.8526","geonameId":4593517,"toponymName":"Rosewood","countryId":"6252001","fcl":"P","population":0,"countryCode":"US","name":"Rosewood","fclName":"city, village,...","adminCodes1":{"ISO3166_2":"SC"},"countryName":"United States","fcodeName":"populated place","adminName1":"South Carolina","lat":"34.91263","fcode":"PPL"},{"adminCode1":"MN","lng":"-96.29","geonameId":7122453,"toponymName":"Rosewood Post Office (historical)","countryId":"6252001","fcl":"S","population":0,"countryCode":"US","name":"Rosewood Post Office (historical)","fclName":"spot, building, farm","adminCodes1":{"ISO3166_2":"MN"},"countryName":"United States","fcodeName":"post office","adminName1":"Minnesota","lat":"48.18944","fcode":"PO"},{"adminCode1":"IN","lng":"-85.91996","geonameId":4263915,"toponymName":"Rosewood","countryId":"6252001","fcl":"S","population":0,"countryCode":"US","name":"Rosewood","fclName":"spot, building, farm","adminCodes1":{"ISO3166_2":"IN"},"countryName":"United States","fcodeName":"","adminName1":"Indiana","lat":"38.0459"},{"adminCode1":"IN","lng":"-85.91996","geonameId":4263916,"toponymName":"Rosewood Post Office (historical)","countryId":"6252001","fcl":"S","population":0,"countryCode":"US","name":"Rosewood Post Office (historical)","fclName":"spot, building, farm","adminCodes1":{"ISO3166_2":"IN"},"countryName":"United States","fcodeName":"post office","adminName1":"Indiana","lat":"38.0459","fcode":"PO"},{"adminCode1":"WI","lng":"-91.97268","geonameId":5269552,"toponymName":"Rosewood Cemetery","countryId":"6252001","fcl":"S","population":0,"countryCode":"US","name":"Rosewood Cemetery","fclName":"spot, building, farm","adminCodes1":{"ISO3166_2":"WI"},"countryName":"United States","fcodeName":"cemetery","adminName1":"Wisconsin","lat":"45.97133","fcode":"CMTY"},{"adminCode1":"UT","lng":"-112.03133","geonameId":5780746,"toponymName":"Rosewood Estates","countryId":"6252001","fcl":"P","population":0,"countryCode":"US","name":"Rosewood Estates","fclName":"city, village,...","adminCodes1":{"ISO3166_2":"UT"},"countryName":"United States","fcodeName":"section of populated place","adminName1":"Utah","lat":"41.16383","fcode":"PPLX"},{"adminCode1":"UT","lng":"-111.95494","geonameId":5780751,"toponymName":"Rosewood","countryId":"6252001","fcl":"P","population":0,"countryCode":"US","name":"Rosewood","fclName":"city, village,...","adminCodes1":{"ISO3166_2":"UT"},"countryName":"United States","fcodeName":"section of populated place","adminName1":"Utah","lat":"41.05272","fcode":"PPLX"},{"adminCode1":"LA","lng":"-93.86213","geonameId":4339188,"toponymName":"Rosewood Estates","countryId":"6252001","fcl":"P","population":0,"countryCode":"US","name":"Rosewood Estates","fclName":"city, village,...","adminCodes1":{"ISO3166_2":"LA"},"countryName":"United States","fcodeName":"section of populated place","adminName1":"Louisiana","lat":"32.47043","fcode":"PPLX"},{"adminCode1":"TN","lng":"-86.61472","geonameId":4654472,"toponymName":"Rosewood","countryId":"6252001","fcl":"P","population":0,"countryCode":"US","name":"Rosewood","fclName":"city, village,...","adminCodes1":{"ISO3166_2":"TN"},"countryName":"United States","fcodeName":"section of populated place","adminName1":"Tennessee","lat":"36.31977","fcode":"PPLX"},{"adminCode1":"TN","lng":"-86.50416","geonameId":4654473,"toponymName":"Rosewood Park","countryId":"6252001","fcl":"P","population":0,"countryCode":"US","name":"Rosewood Park","fclName":"city, village,...","adminCodes1":{"ISO3166_2":"TN"},"countryName":"United States","fcodeName":"section of populated place","adminName1":"Tennessee","lat":"35.94118","fcode":"PPLX"},{"adminCode1":"AL","lng":"-87.51612","geonameId":4087071,"toponymName":"Rosewood","countryId":"6252001","fcl":"P","population":0,"countryCode":"US","name":"Rosewood","fclName":"city, village,...","adminCodes1":{"ISO3166_2":"AL"},"countryName":"United States","fcodeName":"section of populated place","adminName1":"Alabama","lat":"33.20151","fcode":"PPLX"},{"adminCode1":"OH","lng":"-81.44337","geonameId":8063030,"toponymName":"Rosewood","countryId":"6252001","fcl":"P","population":0,"countryCode":"US","name":"Rosewood","fclName":"city, village,...","adminCodes1":{"ISO3166_2":"OH"},"countryName":"United States","fcodeName":"section of populated place","adminName1":"Ohio","lat":"41.57764","fcode":"PPLX"},{"adminCode1":"TX","lng":"-97.70911","geonameId":11789106,"toponymName":"Rosewood","countryId":"6252001","fcl":"P","population":0,"countryCode":"US","name":"Rosewood","fclName":"city, village,...","adminCodes1":{"ISO3166_2":"TX"},"countryName":"United States","fcodeName":"section of populated place","adminName1":"Texas","lat":"30.27512","fcode":"PPLX"},{"adminCode1":"CA","lng":"-118.37452","geonameId":5388894,"toponymName":"Rosewood Elementary School","countryId":"6252001","fcl":"S","population":0,"countryCode":"US","name":"Rosewood Elementary School","fclName":"spot, building, farm","adminCodes1":{"ISO3166_2":"CA"},"countryName":"United States","fcodeName":"school","adminName1":"California","lat":"34.08056","fcode":"SCH"},{"adminCode1":"CA","lng":"-118.15473","geonameId":5388898,"toponymName":"Rosewood Park Elementary School","countryId":"6252001","fcl":"S","population":0,"countryCode":"US","name":"Rosewood Park Elementary School","fclName":"spot, building, farm","adminCodes1":{"ISO3166_2":"CA"},"countryName":"United States","fcodeName":"school","adminName1":"California","lat":"34.00376","fcode":"SCH"},{"adminCode1":"SC","lng":"-81.01202","geonameId":4593520,"toponymName":"Rosewood Elementary School","countryId":"6252001","fcl":"S","population":0,"countryCode":"US","name":"Rosewood Elementary School","fclName":"spot, building, farm","adminCodes1":{"ISO3166_2":"SC"},"countryName":"United States","fcodeName":"school","adminName1":"South Carolina","lat":"34.97848","fcode":"SCH"},{"adminCode1":"SC","lng":"-80.99565","geonameId":4593523,"toponymName":"Rosewood School","countryId":"6252001","fcl":"S","population":0,"countryCode":"US","name":"Rosewood School","fclName":"spot, building, farm","adminCodes1":{"ISO3166_2":"SC"},"countryName":"United States","fcodeName":"school","adminName1":"South Carolina","lat":"33.9871","fcode":"SCH"},{"adminCode1":"SC","lng":"-80.81398","geonameId":4593518,"toponymName":"Rosewood","countryId":"6252001","fcl":"P","population":0,"countryCode":"US","name":"Rosewood","fclName":"city, village,...","adminCodes1":{"ISO3166_2":"SC"},"countryName":"United States","fcodeName":"section of populated place","adminName1":"South Carolina","lat":"33.52654","fcode":"PPLX"},{"adminCode1":"NC","lng":"-79.12307","geonameId":4489015,"toponymName":"Rosewood","countryId":"6252001","fcl":"P","population":0,"countryCode":"US","name":"Rosewood","fclName":"city, village,...","adminCodes1":{"ISO3166_2":"NC"},"countryName":"United States","fcodeName":"section of populated place","adminName1":"North Carolina","lat":"36.07792","fcode":"PPLX"},{"adminCode1":"SC","lng":"-80.99537","geonameId":4593519,"toponymName":"Rosewood","countryId":"6252001","fcl":"P","population":0,"countryCode":"US","name":"Rosewood","fclName":"city, village,...","adminCodes1":{"ISO3166_2":"SC"},"countryName":"United States","fcodeName":"section of populated place","adminName1":"South Carolina","lat":"33.99238","fcode":"PPLX"},{"adminCode1":"SC","lng":"-82.69514","geonameId":4593521,"toponymName":"Rosewood Heights","countryId":"6252001","fcl":"P","population":0,"countryCode":"US","name":"Rosewood Heights","fclName":"city, village,...","adminCodes1":{"ISO3166_2":"SC"},"countryName":"United States","fcodeName":"section of populated place","adminName1":"South Carolina","lat":"34.79872","fcode":"PPLX"},{"adminCode1":"NC","lng":"-76.21716","geonameId":4489016,"toponymName":"Rosewood","countryId":"6252001","fcl":"P","population":0,"countryCode":"US","name":"Rosewood","fclName":"city, village,...","adminCodes1":{"ISO3166_2":"NC"},"countryName":"United States","fcodeName":"section of populated place","adminName1":"North Carolina","lat":"36.32016","fcode":"PPLX"},{"adminCode1":"DC","lng":"-76.97803","geonameId":4140253,"toponymName":"Rosewood Cemetery","countryId":"6252001","fcl":"S","population":0,"countryCode":"US","name":"Rosewood Cemetery","fclName":"spot, building, farm","adminCodes1":{"ISO3166_2":"DC"},"countryName":"United States","fcodeName":"cemetery","adminName1":"Washington, D.C.","lat":"38.85261","fcode":"CMTY"},{"adminCode1":"MO","lng":"-89.97176","geonameId":4402464,"toponymName":"Park Cemetery","countryId":"6252001","fcl":"S","population":0,"countryCode":"US","name":"Park Cemetery","fclName":"spot, building, farm","adminCodes1":{"ISO3166_2":"MO"},"countryName":"United States","fcodeName":"cemetery","adminName1":"Missouri","lat":"36.55561","fcode":"CMTY"},{"adminCode1":"OH","lng":"-84.19855","geonameId":5168616,"toponymName":"Rose Hill Cemetery","countryId":"6252001","fcl":"S","population":0,"countryCode":"US","name":"Rose Hill Cemetery","fclName":"spot, building, farm","adminCodes1":{"ISO3166_2":"OH"},"countryName":"United States","fcodeName":"cemetery","adminName1":"Ohio","lat":"40.04394","fcode":"CMTY"},{"adminCode1":"OH","lng":"-83.9841","geonameId":5168635,"toponymName":"Rosedale Cemetery","countryId":"6252001","fcl":"S","population":0,"countryCode":"US","name":"Rosedale Cemetery","fclName":"spot, building, farm","adminCodes1":{"ISO3166_2":"OH"},"countryName":"United States","fcodeName":"cemetery","adminName1":"Ohio","lat":"40.20533","fcode":"CMTY"},{"adminCode1":"FL","lng":"-80.1211","geonameId":6527468,"toponymName":"Acqualina A Rosewood Resort","countryId":"6252001","fcl":"S","population":0,"countryCode":"US","name":"Acqualina A Rosewood Resort","fclName":"spot, building, farm","adminCodes1":{"ISO3166_2":"FL"},"countryName":"United States","fcodeName":"hotel","adminName1":"Florida","lat":"25.9421","fcode":"HTL"},{"adminCode1":"FL","lng":"-81.4271","geonameId":7215614,"toponymName":"Rosewood Plaza Shopping Center","countryId":"6252001","fcl":"S","population":0,"countryCode":"US","name":"Rosewood Plaza Shopping Center","fclName":"spot, building, farm","adminCodes1":{"ISO3166_2":"FL"},"countryName":"United States","fcodeName":"mall","adminName1":"Florida","lat":"28.6079","fcode":"MALL"},{"adminCode1":"GA","lng":"-84.36594","geonameId":9948297,"toponymName":"Mansion On Peachtree, A Rosewood Hotel & Residence","countryId":"6252001","fcl":"S","population":0,"countryCode":"US","name":"Mansion On Peachtree, A Rosewood Hotel & Residence","fclName":"spot, building, farm","adminCodes1":{"ISO3166_2":"GA"},"countryName":"United States","fcodeName":"hotel","adminName1":"Georgia","lat":"33.84847","fcode":"HTL"},{"adminCode1":"NC","lng":"-78.04582","geonameId":4498424,"toponymName":"Westover II","countryId":"6252001","fcl":"P","population":0,"countryCode":"US","name":"Westover II","fclName":"city, village,...","adminCodes1":{"ISO3166_2":"NC"},"countryName":"United States","fcodeName":"section of populated place","adminName1":"North Carolina","lat":"35.40405","fcode":"PPLX"},{"adminCode1":"NC","lng":"-78.04416","geonameId":4484449,"toponymName":"Peele Acres","countryId":"6252001","fcl":"P","population":0,"countryCode":"US","name":"Peele Acres","fclName":"city, village,...","adminCodes1":{"ISO3166_2":"NC"},"countryName":"United States","fcodeName":"section of populated place","adminName1":"North Carolina","lat":"35.40711","fcode":"PPLX"},{"adminCode1":"NC","lng":"-78.06499","geonameId":4486841,"toponymName":"Quaker Neck Estates","countryId":"6252001","fcl":"P","population":0,"countryCode":"US","name":"Quaker Neck Estates","fclName":"city, village,...","adminCodes1":{"ISO3166_2":"NC"},"countryName":"United States","fcodeName":"section of populated place","adminName1":"North Carolina","lat":"35.39738","fcode":"PPLX"},{"adminCode1":"NC","lng":"-78.0686","geonameId":4499862,"toponymName":"Woodhaven","countryId":"6252001","fcl":"P","population":0,"countryCode":"US","name":"Woodhaven","fclName":"city, village,...","adminCodes1":{"ISO3166_2":"NC"},"countryName":"United States","fcodeName":"section of populated place","adminName1":"North Carolina","lat":"35.40961","fcode":"PPLX"},{"adminCode1":"UT","lng":"-111.95689","geonameId":5780747,"toponymName":"Rosewood Lane Nazarene Chapel","countryId":"6252001","fcl":"S","population":0,"countryCode":"US","name":"Rosewood Lane Nazarene Chapel","fclName":"spot, building, farm","adminCodes1":{"ISO3166_2":"UT"},"countryName":"United States","fcodeName":"church","adminName1":"Utah","lat":"41.05078","fcode":"CH"},{"adminCode1":"VA","lng":"-78.26639","geonameId":6346671,"toponymName":"Rosewood","countryId":"6252001","fcl":"S","population":0,"countryCode":"US","name":"Rosewood","fclName":"spot, building, farm","adminCodes1":{"ISO3166_2":"VA"},"countryName":"United States","fcodeName":"building(s)","adminName1":"Virginia","lat":"36.96111","fcode":"BLDG"},{"adminCode1":"CA","lng":"-119.6263","geonameId":6509822,"toponymName":"San Ysidro Ranch  A Rosewood Re","countryId":"6252001","fcl":"S","population":0,"countryCode":"US","name":"San Ysidro Ranch  A Rosewood Re","fclName":"spot, building, farm","adminCodes1":{"ISO3166_2":"CA"},"countryName":"United States","fcodeName":"hotel","adminName1":"California","lat":"34.4457","fcode":"HTL"},{"adminCode1":"TX","lng":"-96.8066","geonameId":6473773,"toponymName":"The Mansion on Turtle Creek, A Rosewood Property","countryId":"6252001","fcl":"S","population":0,"countryCode":"US","name":"The Mansion on Turtle Creek, A Rosewood Property","fclName":"spot, building, farm","adminCodes1":{"ISO3166_2":"TX"},"countryName":"United States","fcodeName":"hotel","adminName1":"Texas","lat":"32.8033","fcode":"HTL"},{"adminCode1":"TX","lng":"-96.804","geonameId":6467588,"toponymName":"Hotel Crescent Court, A Rosewood Hotel","countryId":"6252001","fcl":"S","population":0,"countryCode":"US","name":"Hotel Crescent Court, A Rosewood Hotel","fclName":"spot, building, farm","adminCodes1":{"ISO3166_2":"TX"},"countryName":"United States","fcodeName":"hotel","adminName1":"Texas","lat":"32.7939","fcode":"HTL"},{"adminCode1":"MN","lng":"-92.9395","geonameId":7214582,"toponymName":"Rosewood Baptist Church","countryId":"6252001","fcl":"S","population":0,"countryCode":"US","name":"Rosewood Baptist Church","fclName":"spot, building, farm","adminCodes1":{"ISO3166_2":"MN"},"countryName":"United States","fcodeName":"church","adminName1":"Minnesota","lat":"44.9168","fcode":"CH"},{"adminCode1":"OH","lng":"-83.96065","geonameId":7245838,"toponymName":"Rosewood Fire Department","countryId":"6252001","fcl":"S","population":0,"countryCode":"US","name":"Rosewood Fire Department","fclName":"spot, building, farm","adminCodes1":{"ISO3166_2":"OH"},"countryName":"United States","fcodeName":"building(s)","adminName1":"Ohio","lat":"40.21922","fcode":"BLDG"},{"adminCode1":"MO","lng":"-94.37071","geonameId":7307547,"toponymName":"Rosewood Cemetery","countryId":"6252001","fcl":"S","population":0,"countryCode":"US","name":"Rosewood Cemetery","fclName":"spot, building, farm","adminCodes1":{"ISO3166_2":"MO"},"countryName":"United States","fcodeName":"cemetery","adminName1":"Missouri","lat":"37.70132","fcode":"CMTY"},{"adminCode1":"MI","lng":"-85.84083","geonameId":7308003,"toponymName":"Rosewood Elementary School","countryId":"6252001","fcl":"S","population":0,"countryCode":"US","name":"Rosewood Elementary School","fclName":"spot, building, farm","adminCodes1":{"ISO3166_2":"MI"},"countryName":"United States","fcodeName":"school","adminName1":"Michigan","lat":"42.89917","fcode":"SCH"},{"adminCode1":"MI","lng":"-85.85278","geonameId":7308026,"toponymName":"Rosewood Reformed Church","countryId":"6252001","fcl":"S","population":0,"countryCode":"US","name":"Rosewood Reformed Church","fclName":"spot, building, farm","adminCodes1":{"ISO3166_2":"MI"},"countryName":"United States","fcodeName":"church","adminName1":"Michigan","lat":"42.895","fcode":"CH"},{"adminCode1":"MN","lng":"-96.29","geonameId":7269581,"toponymName":"Rosewood Station","countryId":"6252001","fcl":"S","population":0,"countryCode":"US","name":"Rosewood Station","fclName":"spot, building, farm","adminCodes1":{"ISO3166_2":"MN"},"countryName":"United States","fcodeName":"","adminName1":"Minnesota","lat":"48.18944"},{"adminCode1":"MS","lng":"-88.42726","geonameId":4443906,"toponymName":"Rosewood Manor","countryId":"6252001","fcl":"S","population":0,"countryCode":"US","name":"Rosewood Manor","fclName":"spot, building, farm","adminCodes1":{"ISO3166_2":"MS"},"countryName":"United States","fcodeName":"building(s)","adminName1":"Mississippi","lat":"33.50262","fcode":"BLDG"},{"adminCode1":"MS","lng":"-90.81122","geonameId":4443907,"toponymName":"Rosewood Plantation (historical)","countryId":"6252001","fcl":"S","population":0,"countryCode":"US","name":"Rosewood Plantation (historical)","fclName":"spot, building, farm","adminCodes1":{"ISO3166_2":"MS"},"countryName":"United States","fcodeName":"","adminName1":"Mississippi","lat":"34.1265"},{"adminCode1":"OK","lng":"-96.38527","geonameId":4549745,"toponymName":"Rosewood Cemetery","countryId":"6252001","fcl":"S","population":0,"countryCode":"US","name":"Rosewood Cemetery","fclName":"spot, building, farm","adminCodes1":{"ISO3166_2":"OK"},"countryName":"United States","fcodeName":"cemetery","adminName1":"Oklahoma","lat":"33.83871","fcode":"CMTY"},{"adminCode1":"OK","lng":"-97.05198","geonameId":4549746,"toponymName":"Rosewood Hills Shopping Center","countryId":"6252001","fcl":"S","population":0,"countryCode":"US","name":"Rosewood Hills Shopping Center","fclName":"spot, building, farm","adminCodes1":{"ISO3166_2":"OK"},"countryName":"United States","fcodeName":"mall","adminName1":"Oklahoma","lat":"36.122","fcode":"MALL"},{"adminCode1":"OK","lng":"-95.86166","geonameId":4549747,"toponymName":"Rosewood Shopping Center","countryId":"6252001","fcl":"S","population":0,"countryCode":"US","name":"Rosewood Shopping Center","fclName":"spot, building, farm","adminCodes1":{"ISO3166_2":"OK"},"countryName":"United States","fcodeName":"mall","adminName1":"Oklahoma","lat":"36.14815","fcode":"MALL"},{"adminCode1":"OK","lng":"-95.86916","geonameId":4549748,"toponymName":"Rosewood Wesleyan Church","countryId":"6252001","fcl":"S","population":0,"countryCode":"US","name":"Rosewood Wesleyan Church","fclName":"spot, building, farm","adminCodes1":{"ISO3166_2":"OK"},"countryName":"United States","fcodeName":"church","adminName1":"Oklahoma","lat":"36.15232","fcode":"CH"},{"adminCode1":"MD","lng":"-76.77581","geonameId":4367398,"toponymName":"Rosewood State Hospital","countryId":"6252001","fcl":"S","population":0,"countryCode":"US","name":"Rosewood State Hospital","fclName":"spot, building, farm","adminCodes1":{"ISO3166_2":"MD"},"countryName":"United States","fcodeName":"hospital","adminName1":"Maryland","lat":"39.43177","fcode":"HSP"},{"adminCode1":"OH","lng":"-84.11716","geonameId":4522883,"toponymName":"Rosewood School","countryId":"6252001","fcl":"S","population":0,"countryCode":"US","name":"Rosewood School","fclName":"spot, building, farm","adminCodes1":{"ISO3166_2":"OH"},"countryName":"United States","fcodeName":"school","adminName1":"Ohio","lat":"39.69561","fcode":"SCH"},{"adminCode1":"TX","lng":"-95.44716","geonameId":4723936,"toponymName":"Rosewood Cemetery","countryId":"6252001","fcl":"S","population":0,"countryCode":"US","name":"Rosewood Cemetery","fclName":"spot, building, farm","adminCodes1":{"ISO3166_2":"TX"},"countryName":"United States","fcodeName":"cemetery","adminName1":"Texas","lat":"30.32021","fcode":"CMTY"},{"adminCode1":"TX","lng":"-95.52244","geonameId":4723937,"toponymName":"Rosewood General Hospital (historical)","countryId":"6252001","fcl":"S","population":0,"countryCode":"US","name":"Rosewood General Hospital (historical)","fclName":"spot, building, farm","adminCodes1":{"ISO3166_2":"TX"},"countryName":"United States","fcodeName":"hospital","adminName1":"Texas","lat":"29.73829","fcode":"HSP"},{"adminCode1":"TX","lng":"-94.82131","geonameId":4723939,"toponymName":"Rosewood Lodge","countryId":"6252001","fcl":"S","population":0,"countryCode":"US","name":"Rosewood Lodge","fclName":"spot, building, farm","adminCodes1":{"ISO3166_2":"TX"},"countryName":"United States","fcodeName":"","adminName1":"Texas","lat":"30.15855"},{"adminCode1":"TX","lng":"-95.26577","geonameId":4723942,"toponymName":"Rosewood Park Cemetery","countryId":"6252001","fcl":"S","population":0,"countryCode":"US","name":"Rosewood Park Cemetery","fclName":"spot, building, farm","adminCodes1":{"ISO3166_2":"TX"},"countryName":"United States","fcodeName":"cemetery","adminName1":"Texas","lat":"29.963","fcode":"CMTY"},{"adminCode1":"TX","lng":"-97.70917","geonameId":4723943,"toponymName":"Rosewood School","countryId":"6252001","fcl":"S","population":0,"countryCode":"US","name":"Rosewood School","fclName":"spot, building, farm","adminCodes1":{"ISO3166_2":"TX"},"countryName":"United States","fcodeName":"school","adminName1":"Texas","lat":"30.27215","fcode":"SCH"}]}
