{"totalResultsCount":79,"geonames":[{"adminCode1":"AZ","lng":"-110.21424","geonameId":5312572,"toponymName":"Saint David","countryId":"6252001","fcl":"P","population":1699,"countryCode":"US","name":"Saint David","fclName":"city, village,...","adminCodes1":{"ISO3166_2":"AZ"},"countryName":"United States","fcodeName":"populated place","adminName1":"Arizona","lat":"31.90425","fcode":"PPL"},{"adminCode1":"MI","lng":"-82.5373","geonameId":4995606,"toponymName":"David's Landing","countryId":"6252001","fcl":"S","population":0,"countryCode":"US","name":"David's Landing","fclName":"spot, building, farm","adminCodes1":{"ISO3166_2":"MI"},"countryName":"United States","fcodeName":"airport","adminName1":"Michigan","lat":"42.79898","fcode":"AIRP"},{"adminCode1":"ME","lng":"-68.23143","geonameId":4977346,"toponymName":"Saint David","countryId":"6252001","fcl":"P","population":0,"countryCode":"US","name":"Saint David","fclName":"city, village,...","adminCodes1":{"ISO3166_2":"ME"},"countryName":"United States","fcodeName":"populated place","adminName1":"Maine","lat":"47.33948","fcode":"PPL"},{"adminCode1":"MI","lng":"-82.49436","geonameId":7314452,"toponymName":"David and Laura Lester House Historical Marker","countryId":"6252001","fcl":"L","population":0,"countryCode":"US","name":"David and Laura Lester House Historical Marker","fclName":"parks,area, ...","adminCodes1":{"ISO3166_2":"MI"},"countryName":"United States","fcodeName":"park","adminName1":"Michigan","lat":"42.71607","fcode":"PRK"},{"adminCode1":"IL","lng":"-90.05197","geonameId":7166836,"toponymName":"Village of Saint David","countryId":"6252001","fcl":"A","population":589,"countryCode":"US","name":"Village of Saint David","fclName":"country, state, region,...","adminCodes1":{"ISO3166_2":"IL"},"countryName":"United States","fcodeName":"administrative division","adminName1":"Illinois","lat":"40.49204","fcode":"ADMD"},{"adminCode1":"IL","lng":"-90.04873","geonameId":4908819,"toponymName":"Saint David","countryId":"6252001","fcl":"P","population":589,"countryCode":"US","name":"Saint David","fclName":"city, village,...","adminCodes1":{"ISO3166_2":"IL"},"countryName":"United States","fcodeName":"populated place","adminName1":"Illinois","lat":"40.49337","fcode":"PPL"},{"adminCode1":"LA","lng":"-90.01479","geonameId":4339614,"toponymName":"Saint David Elementary School (historical)","countryId":"6252001","fcl":"S","population":0,"countryCode":"US","name":"Saint David Elementary School (historical)","fclName":"spot, building, farm","adminCodes1":{"ISO3166_2":"LA"},"countryName":"United States","fcodeName":"school","adminName1":"Louisiana","lat":"29.96271","fcode":"SCH"},{"adminCode1":"NY","lng":"-73.95807","geonameId":6329623,"toponymName":"Saint David's School","countryId":"6252001","fcl":"S","population":0,"countryCode":"US","name":"Saint David's School","fclName":"spot, building, farm","adminCodes1":{"ISO3166_2":"NY"},"countryName":"United States","fcodeName":"school","adminName1":"New York","lat":"40.78283","fcode":"SCH"},{"adminCode1":"TX","lng":"-97.72496","geonameId":4724815,"toponymName":"Saint David's Rehabilitation Center","countryId":"6252001","fcl":"S","population":0,"countryCode":"US","name":"Saint David's Rehabilitation Center","fclName":"spot, building, farm","adminCodes1":{"ISO3166_2":"TX"},"countryName":"United States","fcodeName":"building(s)","adminName1":"Texas","lat":"30.28963","fcode":"BLDG"},{"adminCode1":"OH","lng":"-84.1355","geonameId":5157078,"toponymName":"Haruff Cemetery","countryId":"6252001","fcl":"S","population":0,"countryCode":"US","name":"Haruff Cemetery","fclName":"spot, building, farm","adminCodes1":{"ISO3166_2":"OH"},"countryName":"United States","fcodeName":"cemetery","adminName1":"Ohio","lat":"40.55533","fcode":"CMTY"},{"adminCode1":"ME","lng":"-68.27754","geonameId":4977347,"toponymName":"Saint David Catholic Church","countryId":"6252001","fcl":"S","population":0,"countryCode":"US","name":"Saint David Catholic Church","fclName":"spot, building, farm","adminCodes1":{"ISO3166_2":"ME"},"countryName":"United States","fcodeName":"church","adminName1":"Maine","lat":"47.34921","fcode":"CH"},{"adminCode1":"MO","lng":"-90.5635","geonameId":7206530,"toponymName":"Becky-David Elementary School","countryId":"6252001","fcl":"S","population":0,"countryCode":"US","name":"Becky-David Elementary School","fclName":"spot, building, farm","adminCodes1":{"ISO3166_2":"MO"},"countryName":"United States","fcodeName":"school","adminName1":"Missouri","lat":"38.74435","fcode":"SCH"},{"adminCode1":"TX","lng":"-97.72594","geonameId":4724813,"toponymName":"Saint David's Medical Center","countryId":"6252001","fcl":"S","population":0,"countryCode":"US","name":"Saint David's Medical Center","fclName":"spot, building, farm","adminCodes1":{"ISO3166_2":"TX"},"countryName":"United States","fcodeName":"hospital","adminName1":"Texas","lat":"30.28999","fcode":"HSP"},{"adminCode1":"TX","lng":"-97.72401","geonameId":4724814,"toponymName":"Saint David's Pavilion","countryId":"6252001","fcl":"S","population":0,"countryCode":"US","name":"Saint David's Pavilion","fclName":"spot, building, farm","adminCodes1":{"ISO3166_2":"TX"},"countryName":"United States","fcodeName":"hospital","adminName1":"Texas","lat":"30.28914","fcode":"HSP"},{"adminCode1":"KS","lng":"-95.72543","geonameId":4278585,"toponymName":"Saint David's Episcopal Church","countryId":"6252001","fcl":"S","population":0,"countryCode":"US","name":"Saint David's Episcopal Church","fclName":"spot, building, farm","adminCodes1":{"ISO3166_2":"KS"},"countryName":"United States","fcodeName":"church","adminName1":"Kansas","lat":"39.03708","fcode":"CH"},{"adminCode1":"TX","lng":"-97.77443","geonameId":4732878,"toponymName":"Saint David's South Austin Hospital","countryId":"6252001","fcl":"S","population":0,"countryCode":"US","name":"Saint David's South Austin Hospital","fclName":"spot, building, farm","adminCodes1":{"ISO3166_2":"TX"},"countryName":"United States","fcodeName":"hospital","adminName1":"Texas","lat":"30.22617","fcode":"HSP"},{"adminCode1":"TX","lng":"-97.68838","geonameId":4693349,"toponymName":"Saint David's Georgetown Hospital","countryId":"6252001","fcl":"S","population":0,"countryCode":"US","name":"Saint David's Georgetown Hospital","fclName":"spot, building, farm","adminCodes1":{"ISO3166_2":"TX"},"countryName":"United States","fcodeName":"hospital","adminName1":"Texas","lat":"30.62634","fcode":"HSP"},{"adminCode1":"TX","lng":"-97.71412","geonameId":4724138,"toponymName":"Saint David's Round Rock Medical Center","countryId":"6252001","fcl":"S","population":0,"countryCode":"US","name":"Saint David's Round Rock Medical Center","fclName":"spot, building, farm","adminCodes1":{"ISO3166_2":"TX"},"countryName":"United States","fcodeName":"hospital","adminName1":"Texas","lat":"30.51005","fcode":"HSP"},{"adminCode1":"NJ","lng":"-74.51849","geonameId":5103785,"toponymName":"Saint David's Episcopal Church","countryId":"6252001","fcl":"S","population":0,"countryCode":"US","name":"Saint David's Episcopal Church","fclName":"spot, building, farm","adminCodes1":{"ISO3166_2":"NJ"},"countryName":"United States","fcodeName":"church","adminName1":"New Jersey","lat":"40.29789","fcode":"CH"},{"adminCode1":"GA","lng":"-84.33159","geonameId":4220348,"toponymName":"Saint Davids Church","countryId":"6252001","fcl":"S","population":0,"countryCode":"US","name":"Saint Davids Church","fclName":"spot, building, farm","adminCodes1":{"ISO3166_2":"GA"},"countryName":"United States","fcodeName":"church","adminName1":"Georgia","lat":"34.03815","fcode":"CH"},{"adminCode1":"MD","lng":"-76.63608","geonameId":4367777,"toponymName":"Saint Davids Episcopal Church","countryId":"6252001","fcl":"S","population":0,"countryCode":"US","name":"Saint Davids Episcopal Church","fclName":"spot, building, farm","adminCodes1":{"ISO3166_2":"MD"},"countryName":"United States","fcodeName":"church","adminName1":"Maryland","lat":"39.34788","fcode":"CH"},{"adminCode1":"ME","lng":"-70.55755","geonameId":4977349,"toponymName":"Saint Davids Episcopal Church","countryId":"6252001","fcl":"S","population":0,"countryCode":"US","name":"Saint Davids Episcopal Church","fclName":"spot, building, farm","adminCodes1":{"ISO3166_2":"ME"},"countryName":"United States","fcodeName":"church","adminName1":"Maine","lat":"43.36203","fcode":"CH"},{"adminCode1":"MA","lng":"-70.84504","geonameId":4949498,"toponymName":"Saint Davids Episcopal Church","countryId":"6252001","fcl":"S","population":0,"countryCode":"US","name":"Saint Davids Episcopal Church","fclName":"spot, building, farm","adminCodes1":{"ISO3166_2":"MA"},"countryName":"United States","fcodeName":"church","adminName1":"Massachusetts","lat":"41.99094","fcode":"CH"},{"adminCode1":"VA","lng":"-78.4489","geonameId":4783484,"toponymName":"Saint Davids Church","countryId":"6252001","fcl":"S","population":0,"countryCode":"US","name":"Saint Davids Church","fclName":"spot, building, farm","adminCodes1":{"ISO3166_2":"VA"},"countryName":"United States","fcodeName":"church","adminName1":"Virginia","lat":"38.80845","fcode":"CH"},{"adminCode1":"CA","lng":"-122.32191","geonameId":5390115,"toponymName":"Saint Davids School","countryId":"6252001","fcl":"S","population":0,"countryCode":"US","name":"Saint Davids School","fclName":"spot, building, farm","adminCodes1":{"ISO3166_2":"CA"},"countryName":"United States","fcodeName":"school","adminName1":"California","lat":"37.94687","fcode":"SCH"},{"adminCode1":"MA","lng":"-72.66426","geonameId":4949497,"toponymName":"Saint Davids Episcopal Church","countryId":"6252001","fcl":"S","population":0,"countryCode":"US","name":"Saint Davids Episcopal Church","fclName":"spot, building, farm","adminCodes1":{"ISO3166_2":"MA"},"countryName":"United States","fcodeName":"church","adminName1":"Massachusetts","lat":"42.06898","fcode":"CH"},{"adminCode1":"CT","lng":"-72.06813","geonameId":4841998,"toponymName":"Saint Davids Episcopal Church","countryId":"6252001","fcl":"S","population":0,"countryCode":"US","name":"Saint Davids Episcopal Church","fclName":"spot, building, farm","adminCodes1":{"ISO3166_2":"CT"},"countryName":"United States","fcodeName":"church","adminName1":"Connecticut","lat":"41.45426","fcode":"CH"},{"adminCode1":"CA","lng":"-117.19003","geonameId":5390114,"toponymName":"Saint Davids Episcopal Church","countryId":"6252001","fcl":"S","population":0,"countryCode":"US","name":"Saint Davids Episcopal Church","fclName":"spot, building, farm","adminCodes1":{"ISO3166_2":"CA"},"countryName":"United States","fcodeName":"church","adminName1":"California","lat":"32.7831","fcode":"CH"},{"adminCode1":"NH","lng":"-71.21228","geonameId":5092104,"toponymName":"Saint Davids Episcopal Church","countryId":"6252001","fcl":"S","population":0,"countryCode":"US","name":"Saint Davids Episcopal Church","fclName":"spot, building, farm","adminCodes1":{"ISO3166_2":"NH"},"countryName":"United States","fcodeName":"church","adminName1":"New Hampshire","lat":"42.78509","fcode":"CH"},{"adminCode1":"SC","lng":"-79.87979","geonameId":4590073,"toponymName":"Old Saint Davids Church","countryId":"6252001","fcl":"S","population":0,"countryCode":"US","name":"Old Saint Davids Church","fclName":"spot, building, farm","adminCodes1":{"ISO3166_2":"SC"},"countryName":"United States","fcodeName":"church","adminName1":"South Carolina","lat":"34.69571","fcode":"CH"},{"adminCode1":"GA","lng":"-81.66484","geonameId":7193542,"toponymName":"David L Rainer Elementary School","countryId":"6252001","fcl":"S","population":0,"countryCode":"US","name":"David L Rainer Elementary School","fclName":"spot, building, farm","adminCodes1":{"ISO3166_2":"GA"},"countryName":"United States","fcodeName":"school","adminName1":"Georgia","lat":"30.77724","fcode":"SCH"},{"adminCode1":"TX","lng":"-97.72678","geonameId":7153164,"toponymName":"Saint David's Day Surgery Center","countryId":"6252001","fcl":"S","population":0,"countryCode":"US","name":"Saint David's Day Surgery Center","fclName":"spot, building, farm","adminCodes1":{"ISO3166_2":"TX"},"countryName":"United States","fcodeName":"hospital","adminName1":"Texas","lat":"30.28932","fcode":"HSP"},{"adminCode1":"TX","lng":"-97.72484","geonameId":7153165,"toponymName":"Saint David's Occupational Health Services","countryId":"6252001","fcl":"S","population":0,"countryCode":"US","name":"Saint David's Occupational Health Services","fclName":"spot, building, farm","adminCodes1":{"ISO3166_2":"TX"},"countryName":"United States","fcodeName":"hospital","adminName1":"Texas","lat":"30.29018","fcode":"HSP"},{"adminCode1":"AZ","lng":"-111.4542","geonameId":8109846,"toponymName":"Saint David's Episcopal Church","countryId":"6252001","fcl":"S","population":0,"countryCode":"US","name":"Saint David's Episcopal Church","fclName":"spot, building, farm","adminCodes1":{"ISO3166_2":"AZ"},"countryName":"United States","fcodeName":"church","adminName1":"Arizona","lat":"36.91121","fcode":"CH"},{"adminCode1":"TX","lng":"-97.7062","geonameId":8494316,"toponymName":"Saint David's North Austin Medical Center","countryId":"6252001","fcl":"S","population":0,"countryCode":"US","name":"Saint David's North Austin Medical Center","fclName":"spot, building, farm","adminCodes1":{"ISO3166_2":"TX"},"countryName":"United States","fcodeName":"hospital","adminName1":"Texas","lat":"30.41152","fcode":"HSP"},{"adminCode1":"MN","lng":"-93.4444","geonameId":7213999,"toponymName":"Episcopal Parish Church of Saint David","countryId":"6252001","fcl":"S","population":0,"countryCode":"US","name":"Episcopal Parish Church of Saint David","fclName":"spot, building, farm","adminCodes1":{"ISO3166_2":"MN"},"countryName":"United States","fcodeName":"church","adminName1":"Minnesota","lat":"44.9407","fcode":"CH"},{"adminCode1":"MO","lng":"-90.36317","geonameId":4406851,"toponymName":"Saint David School","countryId":"6252001","fcl":"S","population":0,"countryCode":"US","name":"Saint David School","fclName":"spot, building, farm","adminCodes1":{"ISO3166_2":"MO"},"countryName":"United States","fcodeName":"school","adminName1":"Missouri","lat":"38.44255","fcode":"SCH"},{"adminCode1":"LA","lng":"-90.71981","geonameId":4314807,"toponymName":"Bayou Andre David","countryId":"6252001","fcl":"H","population":0,"countryCode":"US","name":"Bayou Andre David","fclName":"stream, lake, ...","adminCodes1":{"ISO3166_2":"LA"},"countryName":"United States","fcodeName":"stream","adminName1":"Louisiana","lat":"30.10298","fcode":"STM"},{"adminCode1":"FL","lng":"-80.25117","geonameId":4170974,"toponymName":"Saint David Catholic School","countryId":"6252001","fcl":"S","population":0,"countryCode":"US","name":"Saint David Catholic School","fclName":"spot, building, farm","adminCodes1":{"ISO3166_2":"FL"},"countryName":"United States","fcodeName":"school","adminName1":"Florida","lat":"26.07221","fcode":"SCH"},{"adminCode1":"VA","lng":"-78.4539","geonameId":4783482,"toponymName":"Saint David Church","countryId":"6252001","fcl":"S","population":0,"countryCode":"US","name":"Saint David Church","fclName":"spot, building, farm","adminCodes1":{"ISO3166_2":"VA"},"countryName":"United States","fcodeName":"church","adminName1":"Virginia","lat":"38.80178","fcode":"CH"},{"adminCode1":"AZ","lng":"-110.20553","geonameId":5312573,"toponymName":"Saint David Cemetery","countryId":"6252001","fcl":"S","population":0,"countryCode":"US","name":"Saint David Cemetery","fclName":"spot, building, farm","adminCodes1":{"ISO3166_2":"AZ"},"countryName":"United States","fcodeName":"cemetery","adminName1":"Arizona","lat":"31.86621","fcode":"CMTY"},{"adminCode1":"AZ","lng":"-110.2073","geonameId":5312574,"toponymName":"Saint David Ditch","countryId":"6252001","fcl":"H","population":0,"countryCode":"US","name":"Saint David Ditch","fclName":"stream, lake, ...","adminCodes1":{"ISO3166_2":"AZ"},"countryName":"United States","fcodeName":"canal","adminName1":"Arizona","lat":"31.83981","fcode":"CNL"},{"adminCode1":"AZ","lng":"-110.2203","geonameId":5312575,"toponymName":"Saint David Elementary School","countryId":"6252001","fcl":"S","population":0,"countryCode":"US","name":"Saint David Elementary School","fclName":"spot, building, farm","adminCodes1":{"ISO3166_2":"AZ"},"countryName":"United States","fcodeName":"school","adminName1":"Arizona","lat":"31.90604","fcode":"SCH"},{"adminCode1":"AZ","lng":"-110.2194","geonameId":5312576,"toponymName":"Saint David High School","countryId":"6252001","fcl":"S","population":0,"countryCode":"US","name":"Saint David High School","fclName":"spot, building, farm","adminCodes1":{"ISO3166_2":"AZ"},"countryName":"United States","fcodeName":"school","adminName1":"Arizona","lat":"31.90596","fcode":"SCH"},{"adminCode1":"AZ","lng":"-110.22162","geonameId":5312577,"toponymName":"Saint David Post Office","countryId":"6252001","fcl":"S","population":0,"countryCode":"US","name":"Saint David Post Office","fclName":"spot, building, farm","adminCodes1":{"ISO3166_2":"AZ"},"countryName":"United States","fcodeName":"post office","adminName1":"Arizona","lat":"31.90507","fcode":"PO"},{"adminCode1":"AZ","lng":"-110.23869","geonameId":5312578,"toponymName":"Saint David Substation","countryId":"6252001","fcl":"S","population":0,"countryCode":"US","name":"Saint David Substation","fclName":"spot, building, farm","adminCodes1":{"ISO3166_2":"AZ"},"countryName":"United States","fcodeName":"","adminName1":"Arizona","lat":"31.8787"},{"adminCode1":"IL","lng":"-90.05123","geonameId":4908820,"toponymName":"Saint David City Hall","countryId":"6252001","fcl":"S","population":0,"countryCode":"US","name":"Saint David City Hall","fclName":"spot, building, farm","adminCodes1":{"ISO3166_2":"IL"},"countryName":"United States","fcodeName":"building(s)","adminName1":"Illinois","lat":"40.49171","fcode":"BLDG"},{"adminCode1":"IL","lng":"-90.04984","geonameId":4908821,"toponymName":"Saint David Elementary School","countryId":"6252001","fcl":"S","population":0,"countryCode":"US","name":"Saint David Elementary School","fclName":"spot, building, farm","adminCodes1":{"ISO3166_2":"IL"},"countryName":"United States","fcodeName":"school","adminName1":"Illinois","lat":"40.49254","fcode":"SCH"},{"adminCode1":"IL","lng":"-90.04845","geonameId":4908822,"toponymName":"Saint David Methodist Church","countryId":"6252001","fcl":"S","population":0,"countryCode":"US","name":"Saint David Methodist Church","fclName":"spot, building, farm","adminCodes1":{"ISO3166_2":"IL"},"countryName":"United States","fcodeName":"church","adminName1":"Illinois","lat":"40.49254","fcode":"CH"},{"adminCode1":"IL","lng":"-90.05095","geonameId":4908823,"toponymName":"Saint David Nazarene Church","countryId":"6252001","fcl":"S","population":0,"countryCode":"US","name":"Saint David Nazarene Church","fclName":"spot, building, farm","adminCodes1":{"ISO3166_2":"IL"},"countryName":"United States","fcodeName":"church","adminName1":"Illinois","lat":"40.49115","fcode":"CH"},{"adminCode1":"IL","lng":"-90.05345","geonameId":4908824,"toponymName":"Saint David Post Office","countryId":"6252001","fcl":"S","population":0,"countryCode":"US","name":"Saint David Post Office","fclName":"spot, building, farm","adminCodes1":{"ISO3166_2":"IL"},"countryName":"United States","fcodeName":"post office","adminName1":"Illinois","lat":"40.49143","fcode":"PO"},{"adminCode1":"IL","lng":"-87.64394","geonameId":4908825,"toponymName":"Saint David Rectory","countryId":"6252001","fcl":"S","population":0,"countryCode":"US","name":"Saint David Rectory","fclName":"spot, building, farm","adminCodes1":{"ISO3166_2":"IL"},"countryName":"United States","fcodeName":"building(s)","adminName1":"Illinois","lat":"41.83559","fcode":"BLDG"},{"adminCode1":"IL","lng":"-87.64477","geonameId":4908826,"toponymName":"Saint David Roman Catholic Church","countryId":"6252001","fcl":"S","population":0,"countryCode":"US","name":"Saint David Roman Catholic Church","fclName":"spot, building, farm","adminCodes1":{"ISO3166_2":"IL"},"countryName":"United States","fcodeName":"church","adminName1":"Illinois","lat":"41.83587","fcode":"CH"},{"adminCode1":"IL","lng":"-87.6445","geonameId":4908827,"toponymName":"Saint David School","countryId":"6252001","fcl":"S","population":0,"countryCode":"US","name":"Saint David School","fclName":"spot, building, farm","adminCodes1":{"ISO3166_2":"IL"},"countryName":"United States","fcodeName":"school","adminName1":"Illinois","lat":"41.83587","fcode":"SCH"},{"adminCode1":"ME","lng":"-68.27812","geonameId":8114867,"toponymName":"Saint David Cemetery","countryId":"6252001","fcl":"S","population":0,"countryCode":"US","name":"Saint David Cemetery","fclName":"spot, building, farm","adminCodes1":{"ISO3166_2":"ME"},"countryName":"United States","fcodeName":"cemetery","adminName1":"Maine","lat":"47.34804","fcode":"CMTY"},{"adminCode1":"LA","lng":"-90.70207","geonameId":7709488,"toponymName":"King David Baptist Church","countryId":"6252001","fcl":"S","population":0,"countryCode":"US","name":"King David Baptist Church","fclName":"spot, building, farm","adminCodes1":{"ISO3166_2":"LA"},"countryName":"United States","fcodeName":"church","adminName1":"Louisiana","lat":"30.04084","fcode":"CH"},{"adminCode1":"MN","lng":"-93.4463","geonameId":7214860,"toponymName":"Saint David School","countryId":"6252001","fcl":"S","population":0,"countryCode":"US","name":"Saint David School","fclName":"spot, building, farm","adminCodes1":{"ISO3166_2":"MN"},"countryName":"United States","fcodeName":"school","adminName1":"Minnesota","lat":"44.9416","fcode":"SCH"},{"adminCode1":"WA","lng":"-123.02654","geonameId":7715732,"toponymName":"Saint David's Episcopal Church","countryId":"6252001","fcl":"S","population":0,"countryCode":"US","name":"Saint David's Episcopal Church","fclName":"spot, building, farm","adminCodes1":{"ISO3166_2":"WA"},"countryName":"United States","fcodeName":"church","adminName1":"Washington","lat":"48.53483","fcode":"CH"},{"adminCode1":"IL","lng":"-87.81889","geonameId":6333977,"toponymName":"Saint David's Episcopal Church","countryId":"6252001","fcl":"S","population":0,"countryCode":"US","name":"Saint David's Episcopal Church","fclName":"spot, building, farm","adminCodes1":{"ISO3166_2":"IL"},"countryName":"United States","fcodeName":"church","adminName1":"Illinois","lat":"42.07333","fcode":"CH"},{"adminCode1":"NE","lng":"-97.12587","geonameId":5077028,"toponymName":"Saint Josephs Villa Incorporated","countryId":"6252001","fcl":"S","population":0,"countryCode":"US","name":"Saint Josephs Villa Incorporated","fclName":"spot, building, farm","adminCodes1":{"ISO3166_2":"NE"},"countryName":"United States","fcodeName":"hospital","adminName1":"Nebraska","lat":"41.2589","fcode":"HSP"},{"adminCode1":"NE","lng":"-97.1267","geonameId":5077062,"toponymName":"Saint Lukes United Methodist Church","countryId":"6252001","fcl":"S","population":0,"countryCode":"US","name":"Saint Lukes United Methodist Church","fclName":"spot, building, farm","adminCodes1":{"ISO3166_2":"NE"},"countryName":"United States","fcodeName":"church","adminName1":"Nebraska","lat":"41.25307","fcode":"CH"},{"adminCode1":"NE","lng":"-97.12781","geonameId":5077112,"toponymName":"Saint Mary School","countryId":"6252001","fcl":"S","population":0,"countryCode":"US","name":"Saint Mary School","fclName":"spot, building, farm","adminCodes1":{"ISO3166_2":"NE"},"countryName":"United States","fcodeName":"school","adminName1":"Nebraska","lat":"41.25946","fcode":"SCH"},{"adminCode1":"NE","lng":"-97.12781","geonameId":5077117,"toponymName":"Saint Marys Catholic Church","countryId":"6252001","fcl":"S","population":0,"countryCode":"US","name":"Saint Marys Catholic Church","fclName":"spot, building, farm","adminCodes1":{"ISO3166_2":"NE"},"countryName":"United States","fcodeName":"church","adminName1":"Nebraska","lat":"41.25835","fcode":"CH"},{"adminCode1":"CA","lng":"-122.32219","geonameId":5390113,"toponymName":"Saint David Roman Catholic Church","countryId":"6252001","fcl":"S","population":0,"countryCode":"US","name":"Saint David Roman Catholic Church","fclName":"spot, building, farm","adminCodes1":{"ISO3166_2":"CA"},"countryName":"United States","fcodeName":"church","adminName1":"California","lat":"37.94742","fcode":"CH"},{"adminCode1":"PA","lng":"-80.052","geonameId":5209649,"toponymName":"Saint David Church","countryId":"6252001","fcl":"S","population":0,"countryCode":"US","name":"Saint David Church","fclName":"spot, building, farm","adminCodes1":{"ISO3166_2":"PA"},"countryName":"United States","fcodeName":"church","adminName1":"Pennsylvania","lat":"40.31257","fcode":"CH"},{"adminCode1":"CT","lng":"-72.06813","geonameId":4841997,"toponymName":"Saint David Episcopal Church Library","countryId":"6252001","fcl":"S","population":0,"countryCode":"US","name":"Saint David Episcopal Church Library","fclName":"spot, building, farm","adminCodes1":{"ISO3166_2":"CT"},"countryName":"United States","fcodeName":"library","adminName1":"Connecticut","lat":"41.45426","fcode":"LIBR"},{"adminCode1":"WA","lng":"-122.33447","geonameId":7716732,"toponymName":"Saint David Emmanuel Episcopal Church","countryId":"6252001","fcl":"S","population":0,"countryCode":"US","name":"Saint David Emmanuel Episcopal Church","fclName":"spot, building, farm","adminCodes1":{"ISO3166_2":"WA"},"countryName":"United States","fcodeName":"church","adminName1":"Washington","lat":"47.76665","fcode":"CH"},{"adminCode1":"CA","lng":"-118.38472","geonameId":6336521,"toponymName":"Saint David's Episcopal Church","countryId":"6252001","fcl":"S","population":0,"countryCode":"US","name":"Saint David's Episcopal Church","fclName":"spot, building, farm","adminCodes1":{"ISO3166_2":"CA"},"countryName":"United States","fcodeName":"church","adminName1":"California","lat":"34.16528","fcode":"CH"},{"adminCode1":"NY","lng":"-73.7275","geonameId":6337825,"toponymName":"Saint David's Episcopal Church","countryId":"6252001","fcl":"S","population":0,"countryCode":"US","name":"Saint David's Episcopal Church","fclName":"spot, building, farm","adminCodes1":{"ISO3166_2":"NY"},"countryName":"United States","fcodeName":"church","adminName1":"New York","lat":"40.68972","fcode":"CH"},{"adminCode1":"NY","lng":"-73.915","geonameId":6339008,"toponymName":"Saint David's Episcopal Church","countryId":"6252001","fcl":"S","population":0,"countryCode":"US","name":"Saint David's Episcopal Church","fclName":"spot, building, farm","adminCodes1":{"ISO3166_2":"NY"},"countryName":"United States","fcodeName":"church","adminName1":"New York","lat":"40.82333","fcode":"CH"},{"adminCode1":"NY","lng":"-74.12637","geonameId":8490708,"toponymName":"Saint David's Episcopal Church","countryId":"6252001","fcl":"S","population":0,"countryCode":"US","name":"Saint David's Episcopal Church","fclName":"spot, building, farm","adminCodes1":{"ISO3166_2":"NY"},"countryName":"United States","fcodeName":"church","adminName1":"New York","lat":"41.34751","fcode":"CH"},{"adminCode1":"NY","lng":"-72.28472","geonameId":6338257,"toponymName":"Saint David's African Methodist Episcopal Zion Church","countryId":"6252001","fcl":"S","population":0,"countryCode":"US","name":"Saint David's African Methodist Episcopal Zion Church","fclName":"spot, building, farm","adminCodes1":{"ISO3166_2":"NY"},"countryName":"United States","fcodeName":"church","adminName1":"New York","lat":"40.99583","fcode":"CH"},{"adminCode1":"NY","lng":"-73.45972","geonameId":6338302,"toponymName":"Saint David's Lutheran Church","countryId":"6252001","fcl":"S","population":0,"countryCode":"US","name":"Saint David's Lutheran Church","fclName":"spot, building, farm","adminCodes1":{"ISO3166_2":"NY"},"countryName":"United States","fcodeName":"church","adminName1":"New York","lat":"40.68083","fcode":"CH"},{"adminCode1":"NY","lng":"-72.66556","geonameId":6328112,"toponymName":"Saint David's Episcopal Day School","countryId":"6252001","fcl":"S","population":0,"countryCode":"US","name":"Saint David's Episcopal Day School","fclName":"spot, building, farm","adminCodes1":{"ISO3166_2":"NY"},"countryName":"United States","fcodeName":"school","adminName1":"New York","lat":"40.92167","fcode":"SCH"},{"adminCode1":"NY","lng":"-73.70667","geonameId":7234602,"toponymName":"Saint David's Episcopal Church","countryId":"6252001","fcl":"S","population":0,"countryCode":"US","name":"Saint David's Episcopal Church","fclName":"spot, building, farm","adminCodes1":{"ISO3166_2":"NY"},"countryName":"United States","fcodeName":"church","adminName1":"New York","lat":"42.57861","fcode":"CH"},{"adminCode1":"NY","lng":"-75.18913","geonameId":8084042,"toponymName":"Saint David's Episcopal Church","countryId":"6252001","fcl":"S","population":0,"countryCode":"US","name":"Saint David's Episcopal Church","fclName":"spot, building, farm","adminCodes1":{"ISO3166_2":"NY"},"countryName":"United States","fcodeName":"church","adminName1":"New York","lat":"43.27331","fcode":"CH"},{"adminCode1":"NY","lng":"-76.0579","geonameId":8084043,"toponymName":"Saint David's Episcopal Church","countryId":"6252001","fcl":"S","population":0,"countryCode":"US","name":"Saint David's Episcopal Church","fclName":"spot, building, farm","adminCodes1":{"ISO3166_2":"NY"},"countryName":"United States","fcodeName":"church","adminName1":"New York","lat":"43.02763","fcode":"CH"},{"adminCode1":"NY","lng":"-72.28611","geonameId":7120506,"toponymName":"Saint David African Methodist Episcopal Zion Cemetery","countryId":"6252001","fcl":"S","population":0,"countryCode":"US","name":"Saint David African Methodist Episcopal Zion Cemetery","fclName":"spot, building, farm","adminCodes1":{"ISO3166_2":"NY"},"countryName":"United States","fcodeName":"cemetery","adminName1":"New York","lat":"40.995","fcode":"CMTY"},{"adminCode1":"AK","lng":"-150.11576","geonameId":11550368,"toponymName":"Harry Robb Cabin (historical)","countryId":"6252001","fcl":"S","population":0,"countryCode":"US","name":"David St. Lawrence Cabin","fclName":"spot, building, farm","adminCodes1":{"ISO3166_2":"AK"},"countryName":"United States","fcodeName":"building(s)","adminName1":"Alaska","lat":"62.32229","fcode":"BLDG"}]}
