{"totalResultsCount":18,"geonames":[{"adminCode1":"LA","lng":"-91.83345","geonameId":4340196,"toponymName":"Saint Martinville","countryId":"6252001","fcl":"P","population":6114,"countryCode":"US","name":"Saint Martinville","fclName":"city, village,...","adminCodes1":{"ISO3166_2":"LA"},"countryName":"United States","fcodeName":"seat of a second-order administrative division","adminName1":"Louisiana","lat":"30.1252","fcode":"PPLA2"},{"adminCode1":"LA","lng":"-90.17925","geonameId":4332713,"toponymName":"Martinville","countryId":"6252001","fcl":"P","population":0,"countryCode":"US","name":"Martinville","fclName":"city, village,...","adminCodes1":{"ISO3166_2":"LA"},"countryName":"United States","fcodeName":"populated place","adminName1":"Louisiana","lat":"30.59936","fcode":"PPL"},{"adminCode1":"LA","lng":"-91.83185","geonameId":7318105,"toponymName":"City of Saint Martinville","countryId":"6252001","fcl":"A","population":6114,"countryCode":"US","name":"City of Saint Martinville","fclName":"country, state, region,...","adminCodes1":{"ISO3166_2":"LA"},"countryName":"United States","fcodeName":"administrative division","adminName1":"Louisiana","lat":"30.1264","fcode":"ADMD"},{"adminCode1":"LA","lng":"-91.77428","geonameId":4323442,"toponymName":"East Saint Martinville Gas Field","countryId":"6252001","fcl":"L","population":0,"countryCode":"US","name":"East Saint Martinville Gas Field","fclName":"parks,area, ...","adminCodes1":{"ISO3166_2":"LA"},"countryName":"United States","fcodeName":"oilfield","adminName1":"Louisiana","lat":"30.14159","fcode":"OILF"},{"adminCode1":"LA","lng":"-91.82928","geonameId":4340199,"toponymName":"Saint Martinville Historic District","countryId":"6252001","fcl":"L","population":0,"countryCode":"US","name":"Saint Martinville Historic District","fclName":"parks,area, ...","adminCodes1":{"ISO3166_2":"LA"},"countryName":"United States","fcodeName":"park","adminName1":"Louisiana","lat":"30.12409","fcode":"PRK"},{"adminCode1":"LA","lng":"-91.84706","geonameId":4340201,"toponymName":"Saint Martinville Oil and Gas Field","countryId":"6252001","fcl":"L","population":0,"countryCode":"US","name":"Saint Martinville Oil and Gas Field","fclName":"parks,area, ...","adminCodes1":{"ISO3166_2":"LA"},"countryName":"United States","fcodeName":"oilfield","adminName1":"Louisiana","lat":"30.14409","fcode":"OILF"},{"adminCode1":"LA","lng":"-91.83738","geonameId":4340198,"toponymName":"Saint Martinville Parish Early Learning Center School","countryId":"6252001","fcl":"S","population":0,"countryCode":"US","name":"Saint Martinville Parish Early Learning Center School","fclName":"spot, building, farm","adminCodes1":{"ISO3166_2":"LA"},"countryName":"United States","fcodeName":"school","adminName1":"Louisiana","lat":"30.11655","fcode":"SCH"},{"adminCode1":"LA","lng":"-90.72759","geonameId":4340204,"toponymName":"Saint Martinville School","countryId":"6252001","fcl":"S","population":0,"countryCode":"US","name":"Saint Martinville School","fclName":"spot, building, farm","adminCodes1":{"ISO3166_2":"LA"},"countryName":"United States","fcodeName":"school","adminName1":"Louisiana","lat":"30.01992","fcode":"SCH"},{"adminCode1":"LA","lng":"-91.82708","geonameId":7139029,"toponymName":"Saint Martinville Police Department","countryId":"6252001","fcl":"S","population":0,"countryCode":"US","name":"Saint Martinville Police Department","fclName":"spot, building, farm","adminCodes1":{"ISO3166_2":"LA"},"countryName":"United States","fcodeName":"building(s)","adminName1":"Louisiana","lat":"30.12297","fcode":"BLDG"},{"adminCode1":"LA","lng":"-91.82747","geonameId":7139030,"toponymName":"Saint Martinville Police Department - Chief","countryId":"6252001","fcl":"S","population":0,"countryCode":"US","name":"Saint Martinville Police Department - Chief","fclName":"spot, building, farm","adminCodes1":{"ISO3166_2":"LA"},"countryName":"United States","fcodeName":"building(s)","adminName1":"Louisiana","lat":"30.12318","fcode":"BLDG"},{"adminCode1":"LA","lng":"-91.82706","geonameId":4340197,"toponymName":"Saint Martinville City Hall","countryId":"6252001","fcl":"S","population":0,"countryCode":"US","name":"Saint Martinville City Hall","fclName":"spot, building, farm","adminCodes1":{"ISO3166_2":"LA"},"countryName":"United States","fcodeName":"building(s)","adminName1":"Louisiana","lat":"30.1227","fcode":"BLDG"},{"adminCode1":"LA","lng":"-91.84612","geonameId":4340200,"toponymName":"Saint Martinville Junior High School","countryId":"6252001","fcl":"S","population":0,"countryCode":"US","name":"Saint Martinville Junior High School","fclName":"spot, building, farm","adminCodes1":{"ISO3166_2":"LA"},"countryName":"United States","fcodeName":"school","adminName1":"Louisiana","lat":"30.09268","fcode":"SCH"},{"adminCode1":"LA","lng":"-91.83012","geonameId":4340202,"toponymName":"Saint Martinville Post Office","countryId":"6252001","fcl":"S","population":0,"countryCode":"US","name":"Saint Martinville Post Office","fclName":"spot, building, farm","adminCodes1":{"ISO3166_2":"LA"},"countryName":"United States","fcodeName":"post office","adminName1":"Louisiana","lat":"30.12187","fcode":"PO"},{"adminCode1":"LA","lng":"-91.82648","geonameId":4340203,"toponymName":"Saint Martinville Primary School","countryId":"6252001","fcl":"S","population":0,"countryCode":"US","name":"Saint Martinville Primary School","fclName":"spot, building, farm","adminCodes1":{"ISO3166_2":"LA"},"countryName":"United States","fcodeName":"school","adminName1":"Louisiana","lat":"30.12987","fcode":"SCH"},{"adminCode1":"LA","lng":"-91.82643","geonameId":4340205,"toponymName":"Saint Martinville Senior High School","countryId":"6252001","fcl":"S","population":0,"countryCode":"US","name":"Saint Martinville Senior High School","fclName":"spot, building, farm","adminCodes1":{"ISO3166_2":"LA"},"countryName":"United States","fcodeName":"school","adminName1":"Louisiana","lat":"30.13134","fcode":"SCH"},{"adminCode1":"TX","lng":"-95.99329","geonameId":4725320,"toponymName":"Saint Martinville Church","countryId":"6252001","fcl":"S","population":0,"countryCode":"US","name":"Saint Martinville Church","fclName":"spot, building, farm","adminCodes1":{"ISO3166_2":"TX"},"countryName":"United States","fcodeName":"church","adminName1":"Texas","lat":"30.35271","fcode":"CH"},{"adminCode1":"LA","lng":"-91.82211","geonameId":7708547,"toponymName":"Saint Martinville Rehabilitation and Nursing Center","countryId":"6252001","fcl":"S","population":0,"countryCode":"US","name":"Saint Martinville Rehabilitation and Nursing Center","fclName":"spot, building, farm","adminCodes1":{"ISO3166_2":"LA"},"countryName":"United States","fcodeName":"building(s)","adminName1":"Louisiana","lat":"30.14462","fcode":"BLDG"},{"adminCode1":"LA","lng":"-91.83317","geonameId":7707732,"toponymName":"Saint Martinville Head Start Center School","countryId":"6252001","fcl":"S","population":0,"countryCode":"US","name":"Saint Martinville Head Start Center School","fclName":"spot, building, farm","adminCodes1":{"ISO3166_2":"LA"},"countryName":"United States","fcodeName":"school","adminName1":"Louisiana","lat":"30.12164","fcode":"SCH"}]}
