{"totalResultsCount":278,"geonames":[{"adminCode1":"VT","lng":"-73.08319","geonameId":5240569,"toponymName":"Saint Albans","countryId":"6252001","fcl":"P","population":6918,"countryCode":"US","name":"Saint Albans","fclName":"city, village,...","adminCodes1":{"ISO3166_2":"VT"},"countryName":"United States","fcodeName":"seat of a second-order administrative division","adminName1":"Vermont","lat":"44.81088","fcode":"PPLA2"},{"adminCode1":"WV","lng":"-81.83624","geonameId":4820938,"toponymName":"Saint Albans","countryId":"6252001","fcl":"P","population":11044,"countryCode":"US","name":"Saint Albans","fclName":"city, village,...","adminCodes1":{"ISO3166_2":"WV"},"countryName":"United States","fcodeName":"populated place","adminName1":"West Virginia","lat":"38.38565","fcode":"PPL"},{"adminCode1":"ME","lng":"-69.41005","geonameId":4977288,"toponymName":"Saint Albans","countryId":"6252001","fcl":"P","population":1909,"countryCode":"US","name":"Saint Albans","fclName":"city, village,...","adminCodes1":{"ISO3166_2":"ME"},"countryName":"United States","fcodeName":"populated place","adminName1":"Maine","lat":"44.91006","fcode":"PPL"},{"adminCode1":"VT","lng":"-73.14458","geonameId":5240573,"toponymName":"Saint Albans Bay State Park","countryId":"6252001","fcl":"L","population":0,"countryCode":"US","name":"Saint Albans Bay State Park","fclName":"parks,area, ...","adminCodes1":{"ISO3166_2":"VT"},"countryName":"United States","fcodeName":"park","adminName1":"Vermont","lat":"44.81088","fcode":"PRK"},{"adminCode1":"ME","lng":"-69.3922","geonameId":4977294,"toponymName":"Town of Saint Albans","countryId":"6252001","fcl":"A","population":0,"countryCode":"US","name":"Town of Saint Albans","fclName":"country, state, region,...","adminCodes1":{"ISO3166_2":"ME"},"countryName":"United States","fcodeName":"third-order administrative division","adminName1":"Maine","lat":"44.93189","fcode":"ADM3"},{"adminCode1":"MO","lng":"-90.77513","geonameId":4406770,"toponymName":"Saint Albans","countryId":"6252001","fcl":"P","population":0,"countryCode":"US","name":"Saint Albans","fclName":"city, village,...","adminCodes1":{"ISO3166_2":"MO"},"countryName":"United States","fcodeName":"populated place","adminName1":"Missouri","lat":"38.57922","fcode":"PPL"},{"adminCode1":"OH","lng":"-82.6185","geonameId":5168951,"toponymName":"Township of Saint Albans","countryId":"6252001","fcl":"A","population":0,"countryCode":"US","name":"Saint Albans Township","fclName":"country, state, region,...","adminCodes1":{"ISO3166_2":"OH"},"countryName":"United States","fcodeName":"third-order administrative division","adminName1":"Ohio","lat":"40.08168","fcode":"ADM3"},{"adminCode1":"OH","lng":"-82.61239","geonameId":5145537,"toponymName":"Alexandria","countryId":"6252001","fcl":"P","population":523,"countryCode":"US","name":"Alexandria","fclName":"city, village,...","adminCodes1":{"ISO3166_2":"OH"},"countryName":"United States","fcodeName":"populated place","adminName1":"Ohio","lat":"40.08895","fcode":"PPL"},{"adminCode1":"VT","lng":"-73.08472","geonameId":5240595,"toponymName":"City of Saint Albans","countryId":"6252001","fcl":"A","population":6918,"countryCode":"US","name":"City of Saint Albans","fclName":"country, state, region,...","adminCodes1":{"ISO3166_2":"VT"},"countryName":"United States","fcodeName":"third-order administrative division","adminName1":"Vermont","lat":"44.81175","fcode":"ADM3"},{"adminCode1":"VT","lng":"-73.14559","geonameId":5240596,"toponymName":"Town of Saint Albans","countryId":"6252001","fcl":"A","population":0,"countryCode":"US","name":"Town of Saint Albans","fclName":"country, state, region,...","adminCodes1":{"ISO3166_2":"VT"},"countryName":"United States","fcodeName":"third-order administrative division","adminName1":"Vermont","lat":"44.81075","fcode":"ADM3"},{"adminCode1":"VT","lng":"-73.1393","geonameId":5240571,"toponymName":"Saint Albans Bay","countryId":"6252001","fcl":"P","population":0,"countryCode":"US","name":"Saint Albans Bay","fclName":"city, village,...","adminCodes1":{"ISO3166_2":"VT"},"countryName":"United States","fcodeName":"populated place","adminName1":"Vermont","lat":"44.80782","fcode":"PPL"},{"adminCode1":"IL","lng":"-91.18264","geonameId":4916059,"toponymName":"West Point","countryId":"6252001","fcl":"P","population":174,"countryCode":"US","name":"West Point","fclName":"city, village,...","adminCodes1":{"ISO3166_2":"IL"},"countryName":"United States","fcodeName":"populated place","adminName1":"Illinois","lat":"40.25505","fcode":"PPL"},{"adminCode1":"IL","lng":"-91.20108","geonameId":4908479,"toponymName":"Township of Saint Albans","countryId":"6252001","fcl":"A","population":0,"countryCode":"US","name":"Saint Albans Township","fclName":"country, state, region,...","adminCodes1":{"ISO3166_2":"IL"},"countryName":"United States","fcodeName":"third-order administrative division","adminName1":"Illinois","lat":"40.24022","fcode":"ADM3"},{"adminCode1":"IL","lng":"-91.18292","geonameId":4912569,"toponymName":"Stillwell","countryId":"6252001","fcl":"P","population":0,"countryCode":"US","name":"Stillwell","fclName":"city, village,...","adminCodes1":{"ISO3166_2":"IL"},"countryName":"United States","fcodeName":"populated place","adminName1":"Illinois","lat":"40.21866","fcode":"PPL"},{"adminCode1":"OH","lng":"-82.60544","geonameId":5171507,"toponymName":"Scott Corners","countryId":"6252001","fcl":"P","population":0,"countryCode":"US","name":"Scott Corners","fclName":"city, village,...","adminCodes1":{"ISO3166_2":"OH"},"countryName":"United States","fcodeName":"populated place","adminName1":"Ohio","lat":"40.07451","fcode":"PPL"},{"adminCode1":"VT","lng":"-73.08375","geonameId":5240580,"toponymName":"Saint Albans Historic District","countryId":"6252001","fcl":"L","population":0,"countryCode":"US","name":"Saint Albans Historic District","fclName":"parks,area, ...","adminCodes1":{"ISO3166_2":"VT"},"countryName":"United States","fcodeName":"park","adminName1":"Vermont","lat":"44.81088","fcode":"PRK"},{"adminCode1":"VT","lng":"-73.09958","geonameId":5240594,"toponymName":"Saint Albans Town Industrial Park","countryId":"6252001","fcl":"L","population":0,"countryCode":"US","name":"Saint Albans Town Industrial Park","fclName":"parks,area, ...","adminCodes1":{"ISO3166_2":"VT"},"countryName":"United States","fcodeName":"industrial area","adminName1":"Vermont","lat":"44.80088","fcode":"INDS"},{"adminCode1":"MN","lng":"-93.5524","geonameId":5044235,"toponymName":"Saint Albans Bay","countryId":"6252001","fcl":"H","population":0,"countryCode":"US","name":"Saint Albans Bay","fclName":"stream, lake, ...","adminCodes1":{"ISO3166_2":"MN"},"countryName":"United States","fcodeName":"lake","adminName1":"Minnesota","lat":"44.90724","fcode":"LK"},{"adminCode1":"ME","lng":"-69.32922","geonameId":4977291,"toponymName":"Saint Albans Game Management Area","countryId":"6252001","fcl":"L","population":0,"countryCode":"US","name":"Saint Albans Game Management Area","fclName":"parks,area, ...","adminCodes1":{"ISO3166_2":"ME"},"countryName":"United States","fcodeName":"park","adminName1":"Maine","lat":"44.89753","fcode":"PRK"},{"adminCode1":"VT","lng":"-73.065","geonameId":6353615,"toponymName":"Saint Albans Air Force Station (historical)","countryId":"6252001","fcl":"S","population":0,"countryCode":"US","name":"Saint Albans Air Force Station (historical)","fclName":"spot, building, farm","adminCodes1":{"ISO3166_2":"VT"},"countryName":"United States","fcodeName":"military installation","adminName1":"Vermont","lat":"44.78167","fcode":"INSM"},{"adminCode1":"WV","lng":"-81.8198","geonameId":7316550,"toponymName":"City of Saint Albans","countryId":"6252001","fcl":"A","population":11044,"countryCode":"US","name":"City of Saint Albans","fclName":"country, state, region,...","adminCodes1":{"ISO3166_2":"WV"},"countryName":"United States","fcodeName":"administrative division","adminName1":"West Virginia","lat":"38.37693","fcode":"ADMD"},{"adminCode1":"NY","lng":"-73.76069","geonameId":5134861,"toponymName":"Saint Albans","countryId":"6252001","fcl":"P","population":0,"countryCode":"US","name":"Saint Albans","fclName":"city, village,...","adminCodes1":{"ISO3166_2":"NY"},"countryName":"United States","fcodeName":"populated place","adminName1":"New York","lat":"40.69844","fcode":"PPL"},{"adminCode1":"NY","lng":"-73.77847","geonameId":5134863,"toponymName":"Saint Albans Memorial Park","countryId":"6252001","fcl":"L","population":0,"countryCode":"US","name":"Saint Albans Memorial Park","fclName":"parks,area, ...","adminCodes1":{"ISO3166_2":"NY"},"countryName":"United States","fcodeName":"park","adminName1":"New York","lat":"40.69288","fcode":"PRK"},{"adminCode1":"VT","lng":"-73.08599","geonameId":5240593,"toponymName":"Saint Albans Town Educational Center","countryId":"6252001","fcl":"S","population":0,"countryCode":"US","name":"Saint Albans Town Educational Center","fclName":"spot, building, farm","adminCodes1":{"ISO3166_2":"VT"},"countryName":"United States","fcodeName":"school","adminName1":"Vermont","lat":"44.80165","fcode":"SCH"},{"adminCode1":"WV","lng":"-81.81513","geonameId":4820941,"toponymName":"Saint Albans City Park","countryId":"6252001","fcl":"L","population":0,"countryCode":"US","name":"Saint Albans City Park","fclName":"parks,area, ...","adminCodes1":{"ISO3166_2":"WV"},"countryName":"United States","fcodeName":"park","adminName1":"West Virginia","lat":"38.36787","fcode":"PRK"},{"adminCode1":"ME","lng":"-70.22116","geonameId":4977290,"toponymName":"Saint Albans Episcopal Church","countryId":"6252001","fcl":"S","population":0,"countryCode":"US","name":"Saint Albans Episcopal Church","fclName":"spot, building, farm","adminCodes1":{"ISO3166_2":"ME"},"countryName":"United States","fcodeName":"church","adminName1":"Maine","lat":"43.62869","fcode":"CH"},{"adminCode1":"AK","lng":"-133.93763","geonameId":5556435,"toponymName":"Point Saint Albans Reef","countryId":"6252001","fcl":"T","population":0,"countryCode":"US","name":"Point Saint Albans Reef","fclName":"mountain,hill,rock,... ","adminCodes1":{"ISO3166_2":"AK"},"countryName":"United States","fcodeName":"bar","adminName1":"Alaska","lat":"56.0919","fcode":"BAR"},{"adminCode1":"IL","lng":"-91.24292","geonameId":4888064,"toponymName":"Clair Landing Strip","countryId":"6252001","fcl":"S","population":0,"countryCode":"US","name":"Clair Landing Strip","fclName":"spot, building, farm","adminCodes1":{"ISO3166_2":"IL"},"countryName":"United States","fcodeName":"airport","adminName1":"Illinois","lat":"40.2056","fcode":"AIRP"},{"adminCode1":"MO","lng":"-90.76791","geonameId":4406771,"toponymName":"Saint Albans Island","countryId":"6252001","fcl":"T","population":0,"countryCode":"US","name":"Saint Albans Island","fclName":"mountain,hill,rock,... ","adminCodes1":{"ISO3166_2":"MO"},"countryName":"United States","fcodeName":"island","adminName1":"Missouri","lat":"38.59255","fcode":"ISL"},{"adminCode1":"VT","lng":"-73.0611","geonameId":5240587,"toponymName":"St. Albans North Reservoir Dam","countryId":"6252001","fcl":"S","population":0,"countryCode":"US","name":"St. Albans North Reservoir Dam","fclName":"spot, building, farm","adminCodes1":{"ISO3166_2":"VT"},"countryName":"United States","fcodeName":"dam","adminName1":"Vermont","lat":"44.76196","fcode":"DAM"},{"adminCode1":"VT","lng":"-73.06475","geonameId":5240588,"toponymName":"St. Albans South Reservoir Dam","countryId":"6252001","fcl":"S","population":0,"countryCode":"US","name":"St. Albans South Reservoir Dam","fclName":"spot, building, farm","adminCodes1":{"ISO3166_2":"VT"},"countryName":"United States","fcodeName":"dam","adminName1":"Vermont","lat":"44.75528","fcode":"DAM"},{"adminCode1":"AK","lng":"-133.97115","geonameId":5556880,"toponymName":"Point Saint Albans","countryId":"6252001","fcl":"T","population":0,"countryCode":"US","name":"Point Saint Albans","fclName":"mountain,hill,rock,... ","adminCodes1":{"ISO3166_2":"AK"},"countryName":"United States","fcodeName":"cape","adminName1":"Alaska","lat":"56.08248","fcode":"CAPE"},{"adminCode1":"UT","lng":"-111.95549","geonameId":5780909,"toponymName":"Saint Albans","countryId":"6252001","fcl":"P","population":0,"countryCode":"US","name":"Saint Albans","fclName":"city, village,...","adminCodes1":{"ISO3166_2":"UT"},"countryName":"United States","fcodeName":"section of populated place","adminName1":"Utah","lat":"40.71661","fcode":"PPLX"},{"adminCode1":"DC","lng":"-77.0697","geonameId":4140975,"toponymName":"Washington Cathedral","countryId":"6252001","fcl":"S","population":0,"countryCode":"US","name":"Washington Cathedral","fclName":"spot, building, farm","adminCodes1":{"ISO3166_2":"DC"},"countryName":"United States","fcodeName":"church","adminName1":"Washington, D.C.","lat":"38.93067","fcode":"CH"},{"adminCode1":"VT","lng":"-73.15917","geonameId":5240570,"toponymName":"Saint Albans Bay","countryId":"6252001","fcl":"H","population":0,"countryCode":"US","name":"Saint Albans Bay","fclName":"stream, lake, ...","adminCodes1":{"ISO3166_2":"VT"},"countryName":"United States","fcodeName":"bay","adminName1":"Vermont","lat":"44.78417","fcode":"BAY"},{"adminCode1":"VA","lng":"-80.505","geonameId":4783404,"toponymName":"Carilion Saint Albans Hospital of Christiansburg","countryId":"6252001","fcl":"S","population":0,"countryCode":"US","name":"Carilion Saint Albans Hospital of Christiansburg","fclName":"spot, building, farm","adminCodes1":{"ISO3166_2":"VA"},"countryName":"United States","fcodeName":"building(s)","adminName1":"Virginia","lat":"37.09112","fcode":"BLDG"},{"adminCode1":"DC","lng":"-77.07248","geonameId":4140289,"toponymName":"Saint Albans Episcopal Church","countryId":"6252001","fcl":"S","population":0,"countryCode":"US","name":"Saint Albans Episcopal Church","fclName":"spot, building, farm","adminCodes1":{"ISO3166_2":"DC"},"countryName":"United States","fcodeName":"church","adminName1":"Washington, D.C.","lat":"38.92956","fcode":"CH"},{"adminCode1":"VT","lng":"-73.2018","geonameId":5234423,"toponymName":"Burton Island State Park Nature Center","countryId":"6252001","fcl":"S","population":0,"countryCode":"US","name":"Burton Island State Park Nature Center","fclName":"spot, building, farm","adminCodes1":{"ISO3166_2":"VT"},"countryName":"United States","fcodeName":"building(s)","adminName1":"Vermont","lat":"44.77116","fcode":"BLDG"},{"adminCode1":"VT","lng":"-73.08014","geonameId":5236896,"toponymName":"Hathaways Tavern","countryId":"6252001","fcl":"S","population":0,"countryCode":"US","name":"Hathaways Tavern","fclName":"spot, building, farm","adminCodes1":{"ISO3166_2":"VT"},"countryName":"United States","fcodeName":"building(s)","adminName1":"Vermont","lat":"44.82421","fcode":"BLDG"},{"adminCode1":"VT","lng":"-73.07252","geonameId":5237650,"toponymName":"Northwestern Medical Center","countryId":"6252001","fcl":"S","population":0,"countryCode":"US","name":"Northwestern Medical Center","fclName":"spot, building, farm","adminCodes1":{"ISO3166_2":"VT"},"countryName":"United States","fcodeName":"hospital","adminName1":"Vermont","lat":"44.80766","fcode":"HSP"},{"adminCode1":"VT","lng":"-73.09875","geonameId":5240579,"toponymName":"Saint Albans Hill","countryId":"6252001","fcl":"T","population":0,"countryCode":"US","name":"Saint Albans Hill","fclName":"mountain,hill,rock,... ","adminCodes1":{"ISO3166_2":"VT"},"countryName":"United States","fcodeName":"mountain","adminName1":"Vermont","lat":"44.77505","fcode":"MT"},{"adminCode1":"VT","lng":"-73.17458","geonameId":5240583,"toponymName":"Saint Albans Point","countryId":"6252001","fcl":"T","population":0,"countryCode":"US","name":"Saint Albans Point","fclName":"mountain,hill,rock,... ","adminCodes1":{"ISO3166_2":"VT"},"countryName":"United States","fcodeName":"cape","adminName1":"Vermont","lat":"44.79754","fcode":"CAPE"},{"adminCode1":"ME","lng":"-69.45834","geonameId":4977292,"toponymName":"Saint Albans Mountain","countryId":"6252001","fcl":"T","population":0,"countryCode":"US","name":"Saint Albans Mountain","fclName":"mountain,hill,rock,... ","adminCodes1":{"ISO3166_2":"ME"},"countryName":"United States","fcodeName":"mountain","adminName1":"Maine","lat":"44.97551","fcode":"MT"},{"adminCode1":"WV","lng":"-81.81253","geonameId":4820943,"toponymName":"Saint Albans High School","countryId":"6252001","fcl":"S","population":0,"countryCode":"US","name":"Saint Albans High School","fclName":"spot, building, farm","adminCodes1":{"ISO3166_2":"WV"},"countryName":"United States","fcodeName":"school","adminName1":"West Virginia","lat":"38.37924","fcode":"SCH"},{"adminCode1":"WV","lng":"-81.92402","geonameId":4826110,"toponymName":"WKLC-FM (Saint Albans)","countryId":"6252001","fcl":"S","population":0,"countryCode":"US","name":"WKLC-FM (Saint Albans)","fclName":"spot, building, farm","adminCodes1":{"ISO3166_2":"WV"},"countryName":"United States","fcodeName":"tower","adminName1":"West Virginia","lat":"38.42092","fcode":"TOWR"},{"adminCode1":"NY","lng":"-73.7684","geonameId":5134864,"toponymName":"Saint Albans Veterans Administration - Extended Care Center","countryId":"6252001","fcl":"S","population":0,"countryCode":"US","name":"Saint Albans Veterans Administration - Extended Care Center","fclName":"spot, building, farm","adminCodes1":{"ISO3166_2":"NY"},"countryName":"United States","fcodeName":"building(s)","adminName1":"New York","lat":"40.69089","fcode":"BLDG"},{"adminCode1":"VT","lng":"-73.08041","geonameId":5240709,"toponymName":"Saint Marys Parish Church","countryId":"6252001","fcl":"S","population":0,"countryCode":"US","name":"Saint Marys Parish Church","fclName":"spot, building, farm","adminCodes1":{"ISO3166_2":"VT"},"countryName":"United States","fcodeName":"church","adminName1":"Vermont","lat":"44.81005","fcode":"CH"},{"adminCode1":"VT","lng":"-73.08153","geonameId":5240727,"toponymName":"Saint Pauls United Methodist Church","countryId":"6252001","fcl":"S","population":0,"countryCode":"US","name":"Saint Pauls United Methodist Church","fclName":"spot, building, farm","adminCodes1":{"ISO3166_2":"VT"},"countryName":"United States","fcodeName":"church","adminName1":"Vermont","lat":"44.81032","fcode":"CH"},{"adminCode1":"ME","lng":"-69.33005","geonameId":4970861,"toponymName":"Lyford Corner","countryId":"6252001","fcl":"P","population":0,"countryCode":"US","name":"Lyford Corner","fclName":"city, village,...","adminCodes1":{"ISO3166_2":"ME"},"countryName":"United States","fcodeName":"populated place","adminName1":"Maine","lat":"44.92478","fcode":"PPL"},{"adminCode1":"ME","lng":"-69.35505","geonameId":4973952,"toponymName":"Nutter Corner","countryId":"6252001","fcl":"P","population":0,"countryCode":"US","name":"Nutter Corner","fclName":"city, village,...","adminCodes1":{"ISO3166_2":"ME"},"countryName":"United States","fcodeName":"populated place","adminName1":"Maine","lat":"44.92089","fcode":"PPL"},{"adminCode1":"ME","lng":"-69.36005","geonameId":4974589,"toponymName":"Palmer Hill","countryId":"6252001","fcl":"T","population":0,"countryCode":"US","name":"Palmer Hill","fclName":"mountain,hill,rock,... ","adminCodes1":{"ISO3166_2":"ME"},"countryName":"United States","fcodeName":"mountain","adminName1":"Maine","lat":"44.89117","fcode":"MT"},{"adminCode1":"ME","lng":"-69.4706","geonameId":4980056,"toponymName":"Stronghold","countryId":"6252001","fcl":"P","population":0,"countryCode":"US","name":"Stronghold","fclName":"city, village,...","adminCodes1":{"ISO3166_2":"ME"},"countryName":"United States","fcodeName":"populated place","adminName1":"Maine","lat":"44.91673","fcode":"PPL"},{"adminCode1":"ME","lng":"-69.46421","geonameId":4983127,"toponymName":"Wildwood","countryId":"6252001","fcl":"P","population":0,"countryCode":"US","name":"Wildwood","fclName":"city, village,...","adminCodes1":{"ISO3166_2":"ME"},"countryName":"United States","fcodeName":"populated place","adminName1":"Maine","lat":"44.90589","fcode":"PPL"},{"adminCode1":"OH","lng":"-82.66295","geonameId":5174570,"toponymName":"Tylers Corners","countryId":"6252001","fcl":"P","population":0,"countryCode":"US","name":"Tylers Corners","fclName":"city, village,...","adminCodes1":{"ISO3166_2":"OH"},"countryName":"United States","fcodeName":"populated place","adminName1":"Ohio","lat":"40.09562","fcode":"PPL"},{"adminCode1":"ME","lng":"-69.32144","geonameId":4968433,"toponymName":"Johnson Corner","countryId":"6252001","fcl":"P","population":0,"countryCode":"US","name":"Johnson Corner","fclName":"city, village,...","adminCodes1":{"ISO3166_2":"ME"},"countryName":"United States","fcodeName":"populated place","adminName1":"Maine","lat":"44.90978","fcode":"PPL"},{"adminCode1":"ME","lng":"-69.32255","geonameId":4962595,"toponymName":"Dixie Corner","countryId":"6252001","fcl":"P","population":0,"countryCode":"US","name":"Dixie Corner","fclName":"city, village,...","adminCodes1":{"ISO3166_2":"ME"},"countryName":"United States","fcodeName":"populated place","adminName1":"Maine","lat":"44.94978","fcode":"PPL"},{"adminCode1":"ME","lng":"-69.35116","geonameId":4962781,"toponymName":"Dow Corner","countryId":"6252001","fcl":"P","population":0,"countryCode":"US","name":"Dow Corner","fclName":"city, village,...","adminCodes1":{"ISO3166_2":"ME"},"countryName":"United States","fcodeName":"populated place","adminName1":"Maine","lat":"44.90617","fcode":"PPL"},{"adminCode1":"OH","lng":"-82.61155","geonameId":5155906,"toponymName":"Goddard Corners","countryId":"6252001","fcl":"P","population":0,"countryCode":"US","name":"Goddard Corners","fclName":"city, village,...","adminCodes1":{"ISO3166_2":"OH"},"countryName":"United States","fcodeName":"populated place","adminName1":"Ohio","lat":"40.06006","fcode":"PPL"},{"adminCode1":"OH","lng":"-82.61572","geonameId":5156974,"toponymName":"Harrison Church","countryId":"6252001","fcl":"S","population":0,"countryCode":"US","name":"Harrison Church","fclName":"spot, building, farm","adminCodes1":{"ISO3166_2":"OH"},"countryName":"United States","fcodeName":"church","adminName1":"Ohio","lat":"40.04395","fcode":"CH"},{"adminCode1":"PA","lng":"-75.38992","geonameId":4560894,"toponymName":"Saint Albans","countryId":"6252001","fcl":"P","population":0,"countryCode":"US","name":"Saint Albans","fclName":"city, village,...","adminCodes1":{"ISO3166_2":"PA"},"countryName":"United States","fcodeName":"populated place","adminName1":"Pennsylvania","lat":"39.98872","fcode":"PPL"},{"adminCode1":"GA","lng":"-83.71323","geonameId":4220289,"toponymName":"Saint Albans Episcopal Church","countryId":"6252001","fcl":"S","population":0,"countryCode":"US","name":"Saint Albans Episcopal Church","fclName":"spot, building, farm","adminCodes1":{"ISO3166_2":"GA"},"countryName":"United States","fcodeName":"church","adminName1":"Georgia","lat":"33.7965","fcode":"CH"},{"adminCode1":"VT","lng":"-73.09141","geonameId":5240575,"toponymName":"Saint Albans City School","countryId":"6252001","fcl":"S","population":0,"countryCode":"US","name":"Saint Albans City School","fclName":"spot, building, farm","adminCodes1":{"ISO3166_2":"VT"},"countryName":"United States","fcodeName":"school","adminName1":"Vermont","lat":"44.8203","fcode":"SCH"},{"adminCode1":"VT","lng":"-73.08403","geonameId":5240576,"toponymName":"Saint Albans City Hall","countryId":"6252001","fcl":"S","population":0,"countryCode":"US","name":"Saint Albans City Hall","fclName":"spot, building, farm","adminCodes1":{"ISO3166_2":"VT"},"countryName":"United States","fcodeName":"building(s)","adminName1":"Vermont","lat":"44.81338","fcode":"BLDG"},{"adminCode1":"MS","lng":"-90.87955","geonameId":4428987,"toponymName":"Hankinson","countryId":"6252001","fcl":"P","population":0,"countryCode":"US","name":"Hankinson","fclName":"city, village,...","adminCodes1":{"ISO3166_2":"MS"},"countryName":"United States","fcodeName":"populated place","adminName1":"Mississippi","lat":"32.10654","fcode":"PPL"},{"adminCode1":"VT","lng":"-73.08208","geonameId":5240581,"toponymName":"Saint Albans Historical Museum","countryId":"6252001","fcl":"S","population":0,"countryCode":"US","name":"Saint Albans Historical Museum","fclName":"spot, building, farm","adminCodes1":{"ISO3166_2":"VT"},"countryName":"United States","fcodeName":"museum","adminName1":"Vermont","lat":"44.81088","fcode":"MUS"},{"adminCode1":"VT","lng":"-73.17347","geonameId":5240584,"toponymName":"Saint Albans Point Cemetery","countryId":"6252001","fcl":"S","population":0,"countryCode":"US","name":"Saint Albans Point Cemetery","fclName":"spot, building, farm","adminCodes1":{"ISO3166_2":"VT"},"countryName":"United States","fcodeName":"cemetery","adminName1":"Vermont","lat":"44.82643","fcode":"CMTY"},{"adminCode1":"IL","lng":"-91.16153","geonameId":4885500,"toponymName":"Breneman Farm Cemetery","countryId":"6252001","fcl":"S","population":0,"countryCode":"US","name":"Breneman Farm Cemetery","fclName":"spot, building, farm","adminCodes1":{"ISO3166_2":"IL"},"countryName":"United States","fcodeName":"cemetery","adminName1":"Illinois","lat":"40.20949","fcode":"CMTY"},{"adminCode1":"VT","lng":"-73.0693","geonameId":5233205,"toponymName":"Aldis Hill","countryId":"6252001","fcl":"T","population":0,"countryCode":"US","name":"Aldis Hill","fclName":"mountain,hill,rock,... ","adminCodes1":{"ISO3166_2":"VT"},"countryName":"United States","fcodeName":"mountain","adminName1":"Vermont","lat":"44.81838","fcode":"MT"},{"adminCode1":"VT","lng":"-73.06486","geonameId":5233712,"toponymName":"Bellevue Hill","countryId":"6252001","fcl":"T","population":0,"countryCode":"US","name":"Bellevue Hill","fclName":"mountain,hill,rock,... ","adminCodes1":{"ISO3166_2":"VT"},"countryName":"United States","fcodeName":"mountain","adminName1":"Vermont","lat":"44.78199","fcode":"MT"},{"adminCode1":"VA","lng":"-77.4811","geonameId":4783402,"toponymName":"Saint Albans Anglican Catholic Church","countryId":"6252001","fcl":"S","population":0,"countryCode":"US","name":"Saint Albans Anglican Catholic Church","fclName":"spot, building, farm","adminCodes1":{"ISO3166_2":"VA"},"countryName":"United States","fcodeName":"church","adminName1":"Virginia","lat":"37.55626","fcode":"CH"},{"adminCode1":"WI","lng":"-91.88851","geonameId":5269962,"toponymName":"Saint Albans Episcopal Church","countryId":"6252001","fcl":"S","population":0,"countryCode":"US","name":"Saint Albans Episcopal Church","fclName":"spot, building, farm","adminCodes1":{"ISO3166_2":"WI"},"countryName":"United States","fcodeName":"church","adminName1":"Wisconsin","lat":"45.82828","fcode":"CH"},{"adminCode1":"WI","lng":"-90.16374","geonameId":5269963,"toponymName":"Saint Albans Episcopal Church","countryId":"6252001","fcl":"S","population":0,"countryCode":"US","name":"Saint Albans Episcopal Church","fclName":"spot, building, farm","adminCodes1":{"ISO3166_2":"WI"},"countryName":"United States","fcodeName":"church","adminName1":"Wisconsin","lat":"44.65441","fcode":"CH"},{"adminCode1":"WI","lng":"-88.22371","geonameId":6350706,"toponymName":"Saint Albans Episcopal Church Cemetery","countryId":"6252001","fcl":"S","population":0,"countryCode":"US","name":"Saint Albans Episcopal Church Cemetery","fclName":"spot, building, farm","adminCodes1":{"ISO3166_2":"WI"},"countryName":"United States","fcodeName":"cemetery","adminName1":"Wisconsin","lat":"43.13407","fcode":"CMTY"},{"adminCode1":"MS","lng":"-90.74094","geonameId":4444182,"toponymName":"Saint Albans Church","countryId":"6252001","fcl":"S","population":0,"countryCode":"US","name":"Saint Albans Church","fclName":"spot, building, farm","adminCodes1":{"ISO3166_2":"MS"},"countryName":"United States","fcodeName":"church","adminName1":"Mississippi","lat":"32.34987","fcode":"CH"},{"adminCode1":"MD","lng":"-75.5702","geonameId":4367623,"toponymName":"Saint Albans Church","countryId":"6252001","fcl":"S","population":0,"countryCode":"US","name":"Saint Albans Church","fclName":"spot, building, farm","adminCodes1":{"ISO3166_2":"MD"},"countryName":"United States","fcodeName":"church","adminName1":"Maryland","lat":"38.36762","fcode":"CH"},{"adminCode1":"AL","lng":"-88.15947","geonameId":4087426,"toponymName":"Saint Albans Church","countryId":"6252001","fcl":"S","population":0,"countryCode":"US","name":"Saint Albans Church","fclName":"spot, building, farm","adminCodes1":{"ISO3166_2":"AL"},"countryName":"United States","fcodeName":"church","adminName1":"Alabama","lat":"32.81569","fcode":"CH"},{"adminCode1":"IN","lng":"-86.08332","geonameId":4264015,"toponymName":"Saint Albans Episcopal Church","countryId":"6252001","fcl":"S","population":0,"countryCode":"US","name":"Saint Albans Episcopal Church","fclName":"spot, building, farm","adminCodes1":{"ISO3166_2":"IN"},"countryName":"United States","fcodeName":"church","adminName1":"Indiana","lat":"39.84115","fcode":"CH"},{"adminCode1":"VT","lng":"-73.13902","geonameId":5240586,"toponymName":"Saint Albans Reservoir","countryId":"6252001","fcl":"H","population":0,"countryCode":"US","name":"Saint Albans Reservoir","fclName":"stream, lake, ...","adminCodes1":{"ISO3166_2":"VT"},"countryName":"United States","fcodeName":"reservoir(s)","adminName1":"Vermont","lat":"44.15786","fcode":"RSV"},{"adminCode1":"VT","lng":"-73.0617","geonameId":5240589,"toponymName":"Saint Albans Reservoir North","countryId":"6252001","fcl":"H","population":0,"countryCode":"US","name":"Saint Albans Reservoir North","fclName":"stream, lake, ...","adminCodes1":{"ISO3166_2":"VT"},"countryName":"United States","fcodeName":"reservoir(s)","adminName1":"Vermont","lat":"44.76428","fcode":"RSV"},{"adminCode1":"VT","lng":"-73.06342","geonameId":5240590,"toponymName":"Saint Albans Reservoir South","countryId":"6252001","fcl":"H","population":0,"countryCode":"US","name":"Saint Albans Reservoir South","fclName":"stream, lake, ...","adminCodes1":{"ISO3166_2":"VT"},"countryName":"United States","fcodeName":"reservoir(s)","adminName1":"Vermont","lat":"44.75678","fcode":"RSV"},{"adminCode1":"ME","lng":"-69.45501","geonameId":8107434,"toponymName":"Hartland Saint Albans Emergency Medical Services","countryId":"6252001","fcl":"S","population":0,"countryCode":"US","name":"Hartland Saint Albans Emergency Medical Services","fclName":"spot, building, farm","adminCodes1":{"ISO3166_2":"ME"},"countryName":"United States","fcodeName":"building(s)","adminName1":"Maine","lat":"44.88215","fcode":"BLDG"},{"adminCode1":"VT","lng":"-73.09402","geonameId":5240591,"toponymName":"Saint Albans Road Cemetery","countryId":"6252001","fcl":"S","population":0,"countryCode":"US","name":"Saint Albans Road Cemetery","fclName":"spot, building, farm","adminCodes1":{"ISO3166_2":"VT"},"countryName":"United States","fcodeName":"cemetery","adminName1":"Vermont","lat":"44.8956","fcode":"CMTY"},{"adminCode1":"IL","lng":"-88.08004","geonameId":4248667,"toponymName":"Saint Albans Episcopal Church","countryId":"6252001","fcl":"S","population":0,"countryCode":"US","name":"Saint Albans Episcopal Church","fclName":"spot, building, farm","adminCodes1":{"ISO3166_2":"IL"},"countryName":"United States","fcodeName":"church","adminName1":"Illinois","lat":"38.72894","fcode":"CH"},{"adminCode1":"CA","lng":"-122.28719","geonameId":5389838,"toponymName":"Saint Albans Episcopal Church","countryId":"6252001","fcl":"S","population":0,"countryCode":"US","name":"Saint Albans Episcopal Church","fclName":"spot, building, farm","adminCodes1":{"ISO3166_2":"CA"},"countryName":"United States","fcodeName":"church","adminName1":"California","lat":"37.89326","fcode":"CH"},{"adminCode1":"CT","lng":"-71.87979","geonameId":4841887,"toponymName":"Saint Albans Episcopal Church","countryId":"6252001","fcl":"S","population":0,"countryCode":"US","name":"Saint Albans Episcopal Church","fclName":"spot, building, farm","adminCodes1":{"ISO3166_2":"CT"},"countryName":"United States","fcodeName":"church","adminName1":"Connecticut","lat":"41.80649","fcode":"CH"},{"adminCode1":"IL","lng":"-87.80451","geonameId":4908478,"toponymName":"Saint Albans Episcopal Church","countryId":"6252001","fcl":"S","population":0,"countryCode":"US","name":"Saint Albans Episcopal Church","fclName":"spot, building, farm","adminCodes1":{"ISO3166_2":"IL"},"countryName":"United States","fcodeName":"church","adminName1":"Illinois","lat":"41.9942","fcode":"CH"},{"adminCode1":"DE","lng":"-75.5177","geonameId":4144413,"toponymName":"Saint Albans Episcopal Church","countryId":"6252001","fcl":"S","population":0,"countryCode":"US","name":"Saint Albans Episcopal Church","fclName":"spot, building, farm","adminCodes1":{"ISO3166_2":"DE"},"countryName":"United States","fcodeName":"church","adminName1":"Delaware","lat":"39.79317","fcode":"CH"},{"adminCode1":"VT","lng":"-73.06264","geonameId":5240582,"toponymName":"Saint Albans Municipal Forest","countryId":"6252001","fcl":"V","population":0,"countryCode":"US","name":"Saint Albans Municipal Forest","fclName":"forest,heath,...","adminCodes1":{"ISO3166_2":"VT"},"countryName":"United States","fcodeName":"forest(s)","adminName1":"Vermont","lat":"44.76866","fcode":"FRST"},{"adminCode1":"ME","lng":"-69.41131","geonameId":8500823,"toponymName":"Village Cemetery","countryId":"6252001","fcl":"S","population":0,"countryCode":"US","name":"Village Cemetery","fclName":"spot, building, farm","adminCodes1":{"ISO3166_2":"ME"},"countryName":"United States","fcodeName":"cemetery","adminName1":"Maine","lat":"44.90537","fcode":"CMTY"},{"adminCode1":"WV","lng":"-81.78106","geonameId":11390961,"toponymName":"Kanawha County Sheriff's Office Saint Albans Detachment","countryId":"6252001","fcl":"S","population":0,"countryCode":"US","name":"Kanawha County Sheriff's Office Saint Albans Detachment","fclName":"spot, building, farm","adminCodes1":{"ISO3166_2":"WV"},"countryName":"United States","fcodeName":"building(s)","adminName1":"West Virginia","lat":"38.37633","fcode":"BLDG"},{"adminCode1":"MD","lng":"-75.97911","geonameId":4365136,"toponymName":"Pearce Creek","countryId":"6252001","fcl":"H","population":0,"countryCode":"US","name":"Pearce Creek","fclName":"stream, lake, ...","adminCodes1":{"ISO3166_2":"MD"},"countryName":"United States","fcodeName":"stream","adminName1":"Maryland","lat":"39.43873","fcode":"STM"},{"adminCode1":"CA","lng":"-118.43841","geonameId":5389839,"toponymName":"Saint Albans Episcopal Church","countryId":"6252001","fcl":"S","population":0,"countryCode":"US","name":"Saint Albans Episcopal Church","fclName":"spot, building, farm","adminCodes1":{"ISO3166_2":"CA"},"countryName":"United States","fcodeName":"church","adminName1":"California","lat":"34.06973","fcode":"CH"},{"adminCode1":"CA","lng":"-118.32285","geonameId":5389840,"toponymName":"Saint Albans Liberal Catholic Church","countryId":"6252001","fcl":"S","population":0,"countryCode":"US","name":"Saint Albans Liberal Catholic Church","fclName":"spot, building, farm","adminCodes1":{"ISO3166_2":"CA"},"countryName":"United States","fcodeName":"church","adminName1":"California","lat":"34.10834","fcode":"CH"},{"adminCode1":"VT","lng":"-73.13234","geonameId":5240577,"toponymName":"Northwest State Correctional Facility - Swanton","countryId":"6252001","fcl":"S","population":0,"countryCode":"US","name":"Northwest State Correctional Facility - Swanton","fclName":"spot, building, farm","adminCodes1":{"ISO3166_2":"VT"},"countryName":"United States","fcodeName":"building(s)","adminName1":"Vermont","lat":"44.85022","fcode":"BLDG"},{"adminCode1":"VT","lng":"-73.0668","geonameId":5237038,"toponymName":"Hill Farm Estates","countryId":"6252001","fcl":"P","population":0,"countryCode":"US","name":"Hill Farm Estates","fclName":"city, village,...","adminCodes1":{"ISO3166_2":"VT"},"countryName":"United States","fcodeName":"section of populated place","adminName1":"Vermont","lat":"44.81116","fcode":"PPLX"},{"adminCode1":"IL","lng":"-91.23014","geonameId":4898657,"toponymName":"Kittle Cemetery","countryId":"6252001","fcl":"S","population":0,"countryCode":"US","name":"Kittle Cemetery","fclName":"spot, building, farm","adminCodes1":{"ISO3166_2":"IL"},"countryName":"United States","fcodeName":"cemetery","adminName1":"Illinois","lat":"40.2481","fcode":"CMTY"},{"adminCode1":"OH","lng":"-82.65933","geonameId":5151152,"toponymName":"Cornell Cemetery","countryId":"6252001","fcl":"S","population":0,"countryCode":"US","name":"Cornell Cemetery","fclName":"spot, building, farm","adminCodes1":{"ISO3166_2":"OH"},"countryName":"United States","fcodeName":"cemetery","adminName1":"Ohio","lat":"40.11229","fcode":"CMTY"},{"adminCode1":"OH","lng":"-82.61405","geonameId":5145540,"toponymName":"Alexandria United Methodist Church","countryId":"6252001","fcl":"S","population":0,"countryCode":"US","name":"Alexandria United Methodist Church","fclName":"spot, building, farm","adminCodes1":{"ISO3166_2":"OH"},"countryName":"United States","fcodeName":"church","adminName1":"Ohio","lat":"40.09034","fcode":"CH"},{"adminCode1":"ME","lng":"-69.4244","geonameId":8500829,"toponymName":"Watson Cemetery","countryId":"6252001","fcl":"S","population":0,"countryCode":"US","name":"Watson Cemetery","fclName":"spot, building, farm","adminCodes1":{"ISO3166_2":"ME"},"countryName":"United States","fcodeName":"cemetery","adminName1":"Maine","lat":"44.97242","fcode":"CMTY"},{"adminCode1":"VT","lng":"-73.08069","geonameId":5240690,"toponymName":"Saint Lukes Episcopal Church","countryId":"6252001","fcl":"S","population":0,"countryCode":"US","name":"Saint Lukes Episcopal Church","fclName":"spot, building, farm","adminCodes1":{"ISO3166_2":"VT"},"countryName":"United States","fcodeName":"church","adminName1":"Vermont","lat":"44.81088","fcode":"CH"}]}
