{"totalResultsCount":9,"geonames":[{"adminCode1":"CA","lng":"-121.12797","geonameId":5391318,"toponymName":"Salinas Valley Fairgrounds","countryId":"6252001","fcl":"L","population":0,"countryCode":"US","name":"Salinas Valley Fairgrounds","fclName":"parks,area, ...","adminCodes1":{"ISO3166_2":"CA"},"countryName":"United States","fcodeName":"park","adminName1":"California","lat":"36.20469","fcode":"PRK"},{"adminCode1":"CA","lng":"-121.52257","geonameId":12122400,"toponymName":"Salinas Valley","countryId":"6252001","fcl":"L","population":0,"countryCode":"US","name":"Salinas Valley","fclName":"parks,area, ...","adminCodes1":{"ISO3166_2":"CA"},"countryName":"United States","fcodeName":"area","adminName1":"California","lat":"36.58947","fcode":"AREA"},{"adminCode1":"CA","lng":"-117.81591","geonameId":5391323,"toponymName":"Saline Valley","countryId":"6252001","fcl":"T","population":0,"countryCode":"US","name":"Saline Valley","fclName":"mountain,hill,rock,... ","adminCodes1":{"ISO3166_2":"CA"},"countryName":"United States","fcodeName":"valley","adminName1":"California","lat":"36.70299","fcode":"VAL"},{"adminCode1":"CA","lng":"-121.64614","geonameId":5391319,"toponymName":"Salinas Valley Memorial Healthcare System","countryId":"6252001","fcl":"S","population":0,"countryCode":"US","name":"Salinas Valley Memorial Healthcare System","fclName":"spot, building, farm","adminCodes1":{"ISO3166_2":"CA"},"countryName":"United States","fcodeName":"hospital","adminName1":"California","lat":"36.65893","fcode":"HSP"},{"adminCode1":"CA","lng":"-121.37604","geonameId":5397032,"toponymName":"Salinas Valley State Prison","countryId":"6252001","fcl":"S","population":0,"countryCode":"US","name":"Salinas Valley State Prison","fclName":"spot, building, farm","adminCodes1":{"ISO3166_2":"CA"},"countryName":"United States","fcodeName":"building(s)","adminName1":"California","lat":"36.48135","fcode":"BLDG"},{"adminCode1":"CA","lng":"-122.19621","geonameId":5386856,"toponymName":"Redwood Creek","countryId":"6252001","fcl":"H","population":0,"countryCode":"US","name":"Redwood Creek","fclName":"stream, lake, ...","adminCodes1":{"ISO3166_2":"CA"},"countryName":"United States","fcodeName":"stream","adminName1":"California","lat":"37.5264","fcode":"STM"},{"adminCode1":"CA","lng":"-121.6408","geonameId":6502322,"toponymName":"Best Western Salinas Valley Inn & Suites","countryId":"6252001","fcl":"S","population":0,"countryCode":"US","name":"Best Western Salinas Valley Inn & Suites","fclName":"spot, building, farm","adminCodes1":{"ISO3166_2":"CA"},"countryName":"United States","fcodeName":"hotel","adminName1":"California","lat":"36.6814","fcode":"HTL"},{"adminCode1":"CA","lng":"-121.64172","geonameId":9967697,"toponymName":"Best Western Plus Salinas Valley Inn & Suites","countryId":"6252001","fcl":"S","population":0,"countryCode":"US","name":"Best Western Plus Salinas Valley Inn & Suites","fclName":"spot, building, farm","adminCodes1":{"ISO3166_2":"CA"},"countryName":"United States","fcodeName":"hotel","adminName1":"California","lat":"36.6816","fcode":"HTL"},{"adminCode1":"CA","lng":"-121.7769","geonameId":5362169,"toponymName":"KSBW-TV (Salinas)","countryId":"6252001","fcl":"S","population":0,"countryCode":"US","name":"KSBW-TV (Salinas)","fclName":"spot, building, farm","adminCodes1":{"ISO3166_2":"CA"},"countryName":"United States","fcodeName":"tower","adminName1":"California","lat":"37.05828","fcode":"TOWR"}]}
