{"totalResultsCount":487,"geonames":[{"adminCode1":"CA","lng":"-121.89496","geonameId":5392171,"toponymName":"San Jose","countryId":"6252001","fcl":"P","population":1026908,"countryCode":"US","name":"San Jose","fclName":"city, village,...","adminCodes1":{"ISO3166_2":"CA"},"countryName":"United States","fcodeName":"seat of a second-order administrative division","adminName1":"California","lat":"37.33939","fcode":"PPLA2"},{"adminCode1":"CA","lng":"-121.92885","geonameId":5392196,"toponymName":"Norman Y. Mineta San José International Airport","countryId":"6252001","fcl":"S","population":0,"countryCode":"US","name":"San José International Airport","fclName":"spot, building, farm","adminCodes1":{"ISO3166_2":"CA"},"countryName":"United States","fcodeName":"airport","adminName1":"California","lat":"37.36189","fcode":"AIRP"},{"adminCode1":"CA","lng":"-121.98857","geonameId":5350734,"toponymName":"Fremont","countryId":"6252001","fcl":"P","population":232206,"countryCode":"US","name":"Fremont","fclName":"city, village,...","adminCodes1":{"ISO3166_2":"CA"},"countryName":"United States","fcodeName":"populated place","adminName1":"California","lat":"37.54827","fcode":"PPL"},{"adminCode1":"NM","lng":"-107.38282","geonameId":5475044,"toponymName":"Laguna","countryId":"6252001","fcl":"P","population":1241,"countryCode":"US","name":"Laguna","fclName":"city, village,...","adminCodes1":{"ISO3166_2":"NM"},"countryName":"United States","fcodeName":"populated place","adminName1":"New Mexico","lat":"35.03671","fcode":"PPL"},{"adminCode1":"NM","lng":"-105.47501","geonameId":5489631,"toponymName":"San Jose","countryId":"6252001","fcl":"P","population":137,"countryCode":"US","name":"San Jose","fclName":"city, village,...","adminCodes1":{"ISO3166_2":"NM"},"countryName":"United States","fcodeName":"populated place","adminName1":"New Mexico","lat":"35.39727","fcode":"PPL"},{"adminCode1":"CA","lng":"-117.90478","geonameId":5397777,"toponymName":"South San Jose Hills","countryId":"6252001","fcl":"P","population":20551,"countryCode":"US","name":"South San Jose Hills","fclName":"city, village,...","adminCodes1":{"ISO3166_2":"CA"},"countryName":"United States","fcodeName":"populated place","adminName1":"California","lat":"34.01279","fcode":"PPL"},{"adminCode1":"TX","lng":"-96.9336","geonameId":4726451,"toponymName":"San Jose Island","countryId":"6252001","fcl":"T","population":0,"countryCode":"US","name":"San Jose Island","fclName":"mountain,hill,rock,... ","adminCodes1":{"ISO3166_2":"TX"},"countryName":"United States","fcodeName":"island","adminName1":"Texas","lat":"28.0003","fcode":"ISL"},{"adminCode1":"AZ","lng":"-109.59202","geonameId":5312885,"toponymName":"San Jose","countryId":"6252001","fcl":"P","population":506,"countryCode":"US","name":"San Jose","fclName":"city, village,...","adminCodes1":{"ISO3166_2":"AZ"},"countryName":"United States","fcodeName":"populated place","adminName1":"Arizona","lat":"32.82007","fcode":"PPL"},{"adminCode1":"CA","lng":"-122.42719","geonameId":5329118,"toponymName":"Black Point","countryId":"6252001","fcl":"T","population":0,"countryCode":"US","name":"Black Point","fclName":"mountain,hill,rock,... ","adminCodes1":{"ISO3166_2":"CA"},"countryName":"United States","fcodeName":"cape","adminName1":"California","lat":"37.80771","fcode":"CAPE"},{"adminCode1":"CA","lng":"-116.6903","geonameId":5392185,"toponymName":"San Jose Del Valle","countryId":"6252001","fcl":"A","population":0,"countryCode":"US","name":"San Jose Del Valle","fclName":"country, state, region,...","adminCodes1":{"ISO3166_2":"CA"},"countryName":"United States","fcodeName":"administrative division","adminName1":"California","lat":"33.28393","fcode":"ADMD"},{"adminCode1":"CA","lng":"-121.50498","geonameId":5566554,"toponymName":"Lassen Peak","countryId":"6252001","fcl":"T","population":0,"countryCode":"US","name":"Lassen Peak","fclName":"mountain,hill,rock,... ","adminCodes1":{"ISO3166_2":"CA"},"countryName":"United States","fcodeName":"mountain","adminName1":"California","lat":"40.48766","fcode":"MT"},{"adminCode1":"CA","lng":"-116.70447","geonameId":5405337,"toponymName":"Valle De San Jose","countryId":"6252001","fcl":"A","population":0,"countryCode":"US","name":"Valle De San Jose","fclName":"country, state, region,...","adminCodes1":{"ISO3166_2":"CA"},"countryName":"United States","fcodeName":"administrative division","adminName1":"California","lat":"33.23698","fcode":"ADMD"},{"adminCode1":"CA","lng":"-120.29988","geonameId":5380995,"toponymName":"La Panza Range","countryId":"6252001","fcl":"T","population":0,"countryCode":"US","name":"La Panza Range","fclName":"mountain,hill,rock,... ","adminCodes1":{"ISO3166_2":"CA"},"countryName":"United States","fcodeName":"mountains","adminName1":"California","lat":"35.34108","fcode":"MTS"},{"adminCode1":"CA","lng":"-120.37655","geonameId":5384758,"toponymName":"Pozo","countryId":"6252001","fcl":"P","population":0,"countryCode":"US","name":"Pozo","fclName":"city, village,...","adminCodes1":{"ISO3166_2":"CA"},"countryName":"United States","fcodeName":"populated place","adminName1":"California","lat":"35.30358","fcode":"PPL"},{"adminCode1":"AK","lng":"-133.44861","geonameId":5556977,"toponymName":"Point San Jose","countryId":"6252001","fcl":"T","population":0,"countryCode":"US","name":"Point San Jose","fclName":"mountain,hill,rock,... ","adminCodes1":{"ISO3166_2":"AK"},"countryName":"United States","fcodeName":"cape","adminName1":"Alaska","lat":"55.28972","fcode":"CAPE"},{"adminCode1":"CA","lng":"-121.88276","geonameId":5392210,"toponymName":"San Jose State University","countryId":"6252001","fcl":"S","population":0,"countryCode":"US","name":"San Jose State University","fclName":"spot, building, farm","adminCodes1":{"ISO3166_2":"CA"},"countryName":"United States","fcodeName":"school","adminName1":"California","lat":"37.33604","fcode":"SCH"},{"adminCode1":"IL","lng":"-89.60288","geonameId":4910485,"toponymName":"San Jose","countryId":"6252001","fcl":"P","population":614,"countryCode":"US","name":"San Jose","fclName":"city, village,...","adminCodes1":{"ISO3166_2":"IL"},"countryName":"United States","fcodeName":"populated place","adminName1":"Illinois","lat":"40.3056","fcode":"PPL"},{"adminCode1":"AK","lng":"-164.18667","geonameId":5877242,"toponymName":"Unimak Island","countryId":"6252001","fcl":"T","population":0,"countryCode":"US","name":"Unimak Island","fclName":"mountain,hill,rock,... ","adminCodes1":{"ISO3166_2":"AK"},"countryName":"United States","fcodeName":"island","adminName1":"Alaska","lat":"54.76833","fcode":"ISL"},{"adminCode1":"CA","lng":"-121.9269","geonameId":5334295,"toponymName":"Carmel River State Beach","countryId":"6252001","fcl":"L","population":0,"countryCode":"US","name":"Carmel River State Beach","fclName":"parks,area, ...","adminCodes1":{"ISO3166_2":"CA"},"countryName":"United States","fcodeName":"park","adminName1":"California","lat":"36.53218","fcode":"PRK"},{"adminCode1":"TX","lng":"-97.47804","geonameId":4722805,"toponymName":"Rincon de San Jose","countryId":"6252001","fcl":"T","population":0,"countryCode":"US","name":"Rincon de San Jose","fclName":"mountain,hill,rock,... ","adminCodes1":{"ISO3166_2":"TX"},"countryName":"United States","fcodeName":"mountain","adminName1":"Texas","lat":"26.78589","fcode":"MT"},{"adminCode1":"AZ","lng":"-110.97231","geonameId":5312891,"toponymName":"San Jose de Sonoita","countryId":"6252001","fcl":"A","population":0,"countryCode":"US","name":"San Jose de Sonoita","fclName":"country, state, region,...","adminCodes1":{"ISO3166_2":"AZ"},"countryName":"United States","fcodeName":"administrative division","adminName1":"Arizona","lat":"31.46287","fcode":"ADMD"},{"adminCode1":"NM","lng":"-106.09808","geonameId":5489630,"toponymName":"San Jose","countryId":"6252001","fcl":"P","population":695,"countryCode":"US","name":"San Jose","fclName":"city, village,...","adminCodes1":{"ISO3166_2":"NM"},"countryName":"United States","fcodeName":"populated place","adminName1":"New Mexico","lat":"36.03919","fcode":"PPL"},{"adminCode1":"CA","lng":"-121.8219","geonameId":5405336,"toponymName":"Valle De San Jose","countryId":"6252001","fcl":"A","population":0,"countryCode":"US","name":"Valle De San Jose","fclName":"country, state, region,...","adminCodes1":{"ISO3166_2":"CA"},"countryName":"United States","fcodeName":"administrative division","adminName1":"California","lat":"37.62632","fcode":"ADMD"},{"adminCode1":"CA","lng":"-122.47692","geonameId":5350087,"toponymName":"Fort Point","countryId":"6252001","fcl":"T","population":0,"countryCode":"US","name":"Fort Point","fclName":"mountain,hill,rock,... ","adminCodes1":{"ISO3166_2":"CA"},"countryName":"United States","fcodeName":"cape","adminName1":"California","lat":"37.81048","fcode":"CAPE"},{"adminCode1":"CA","lng":"-121.97524","geonameId":5323631,"toponymName":"Alviso","countryId":"6252001","fcl":"P","population":0,"countryCode":"US","name":"Alviso","fclName":"city, village,...","adminCodes1":{"ISO3166_2":"CA"},"countryName":"United States","fcodeName":"section of populated place","adminName1":"California","lat":"37.42605","fcode":"PPLX"},{"adminCode1":"NM","lng":"-107.59922","geonameId":5489556,"toponymName":"San Fidel","countryId":"6252001","fcl":"P","population":138,"countryCode":"US","name":"San Fidel","fclName":"city, village,...","adminCodes1":{"ISO3166_2":"NM"},"countryName":"United States","fcodeName":"populated place","adminName1":"New Mexico","lat":"35.08226","fcode":"PPL"},{"adminCode1":"CA","lng":"-122.56331","geonameId":5392170,"toponymName":"San Jose","countryId":"6252001","fcl":"A","population":0,"countryCode":"US","name":"San Jose","fclName":"country, state, region,...","adminCodes1":{"ISO3166_2":"CA"},"countryName":"United States","fcodeName":"administrative division","adminName1":"California","lat":"38.06659","fcode":"ADMD"},{"adminCode1":"CA","lng":"-121.81741","geonameId":11789001,"toponymName":"City of San Jose","countryId":"6252001","fcl":"A","population":0,"countryCode":"US","name":"City of San Jose","fclName":"country, state, region,...","adminCodes1":{"ISO3166_2":"CA"},"countryName":"United States","fcodeName":"third-order administrative division","adminName1":"California","lat":"37.17333","fcode":"ADM3"},{"adminCode1":"IL","lng":"-89.60404","geonameId":7166853,"toponymName":"Village of San Jose","countryId":"6252001","fcl":"A","population":642,"countryCode":"US","name":"Village of San Jose","fclName":"country, state, region,...","adminCodes1":{"ISO3166_2":"IL"},"countryName":"United States","fcodeName":"administrative division","adminName1":"Illinois","lat":"40.30598","fcode":"ADMD"},{"adminCode1":"NM","lng":"-107.02781","geonameId":5489677,"toponymName":"Rio San Jose","countryId":"6252001","fcl":"H","population":0,"countryCode":"US","name":"Rio San Jose","fclName":"stream, lake, ...","adminCodes1":{"ISO3166_2":"NM"},"countryName":"United States","fcodeName":"stream","adminName1":"New Mexico","lat":"34.88061","fcode":"STM"},{"adminCode1":"CA","lng":"-117.77617","geonameId":5392181,"toponymName":"San Jose","countryId":"6252001","fcl":"A","population":0,"countryCode":"US","name":"San Jose","fclName":"country, state, region,...","adminCodes1":{"ISO3166_2":"CA"},"countryName":"United States","fcodeName":"administrative division","adminName1":"California","lat":"34.07779","fcode":"ADMD"},{"adminCode1":"CA","lng":"-121.90801","geonameId":5392213,"toponymName":"San Jose Y Sur Chiquito","countryId":"6252001","fcl":"A","population":0,"countryCode":"US","name":"San Jose Y Sur Chiquito","fclName":"country, state, region,...","adminCodes1":{"ISO3166_2":"CA"},"countryName":"United States","fcodeName":"administrative division","adminName1":"California","lat":"36.46607","fcode":"ADMD"},{"adminCode1":"CA","lng":"-117.84256","geonameId":5392193,"toponymName":"San Jose Hills","countryId":"6252001","fcl":"T","population":0,"countryCode":"US","name":"San Jose Hills","fclName":"mountain,hill,rock,... ","adminCodes1":{"ISO3166_2":"CA"},"countryName":"United States","fcodeName":"mountains","adminName1":"California","lat":"34.05918","fcode":"MTS"},{"adminCode1":"CA","lng":"-121.7919","geonameId":5367408,"toponymName":"Livermore Valley","countryId":"6252001","fcl":"T","population":0,"countryCode":"US","name":"Livermore Valley","fclName":"mountain,hill,rock,... ","adminCodes1":{"ISO3166_2":"CA"},"countryName":"United States","fcodeName":"valley","adminName1":"California","lat":"37.68021","fcode":"VAL"},{"adminCode1":"CO","lng":"-104.04747","geonameId":5441997,"toponymName":"Trinchera","countryId":"6252001","fcl":"P","population":0,"countryCode":"US","name":"Trinchera","fclName":"city, village,...","adminCodes1":{"ISO3166_2":"CO"},"countryName":"United States","fcodeName":"populated place","adminName1":"Colorado","lat":"37.04224","fcode":"PPL"},{"adminCode1":"CA","lng":"-121.53583","geonameId":7304715,"toponymName":"Jose Castro House","countryId":"6252001","fcl":"S","population":0,"countryCode":"US","name":"Jose Castro House","fclName":"spot, building, farm","adminCodes1":{"ISO3166_2":"CA"},"countryName":"United States","fcodeName":"building(s)","adminName1":"California","lat":"36.84472","fcode":"BLDG"},{"adminCode1":"CA","lng":"-121.82718","geonameId":5323566,"toponymName":"Alum Rock","countryId":"6252001","fcl":"P","population":15536,"countryCode":"US","name":"Alum Rock","fclName":"city, village,...","adminCodes1":{"ISO3166_2":"CA"},"countryName":"United States","fcodeName":"section of populated place","adminName1":"California","lat":"37.36605","fcode":"PPLX"},{"adminCode1":"CA","lng":"-121.8551","geonameId":12104228,"toponymName":"Communications Hill","countryId":"6252001","fcl":"P","population":11267,"countryCode":"US","name":"Communications Hill","fclName":"city, village,...","adminCodes1":{"ISO3166_2":"CA"},"countryName":"United States","fcodeName":"section of populated place","adminName1":"California","lat":"37.289","fcode":"PPLX"},{"adminCode1":"NM","lng":"-106.64503","geonameId":5482444,"toponymName":"Ojo de San Jose","countryId":"6252001","fcl":"A","population":0,"countryCode":"US","name":"Ojo de San Jose","fclName":"country, state, region,...","adminCodes1":{"ISO3166_2":"NM"},"countryName":"United States","fcodeName":"administrative division","adminName1":"New Mexico","lat":"35.67586","fcode":"ADMD"},{"adminCode1":"CA","lng":"-121.88773","geonameId":5392186,"toponymName":"San Jose Downtown Historic District","countryId":"6252001","fcl":"L","population":0,"countryCode":"US","name":"San Jose Downtown Historic District","fclName":"parks,area, ...","adminCodes1":{"ISO3166_2":"CA"},"countryName":"United States","fcodeName":"park","adminName1":"California","lat":"37.33633","fcode":"PRK"},{"adminCode1":"CA","lng":"-121.96302","geonameId":5347201,"toponymName":"Ex Mission San Jose","countryId":"6252001","fcl":"A","population":0,"countryCode":"US","name":"Ex Mission San Jose","fclName":"country, state, region,...","adminCodes1":{"ISO3166_2":"CA"},"countryName":"United States","fcodeName":"administrative division","adminName1":"California","lat":"37.55021","fcode":"ADMD"},{"adminCode1":"CA","lng":"-121.8569","geonameId":5385110,"toponymName":"Pueblo Lands of San Jose","countryId":"6252001","fcl":"A","population":0,"countryCode":"US","name":"Pueblo Lands of San Jose","fclName":"country, state, region,...","adminCodes1":{"ISO3166_2":"CA"},"countryName":"United States","fcodeName":"administrative division","adminName1":"California","lat":"37.31883","fcode":"ADMD"},{"adminCode1":"CA","lng":"-121.93718","geonameId":5373721,"toponymName":"Mission San Jose Community Park","countryId":"6252001","fcl":"L","population":0,"countryCode":"US","name":"Mission San Jose Community Park","fclName":"parks,area, ...","adminCodes1":{"ISO3166_2":"CA"},"countryName":"United States","fcodeName":"park","adminName1":"California","lat":"37.5466","fcode":"PRK"},{"adminCode1":"CA","lng":"-121.92357","geonameId":5373725,"toponymName":"Mission San Jose Park","countryId":"6252001","fcl":"L","population":0,"countryCode":"US","name":"Mission San Jose Park","fclName":"parks,area, ...","adminCodes1":{"ISO3166_2":"CA"},"countryName":"United States","fcodeName":"park","adminName1":"California","lat":"37.52771","fcode":"PRK"},{"adminCode1":"CA","lng":"-121.81278","geonameId":12036265,"toponymName":"Raging Waters San Jose","countryId":"6252001","fcl":"L","population":0,"countryCode":"US","name":"Raging Waters San Jose","fclName":"parks,area, ...","adminCodes1":{"ISO3166_2":"CA"},"countryName":"United States","fcodeName":"amusement park","adminName1":"California","lat":"37.33523","fcode":"AMUS"},{"adminCode1":"NM","lng":"-106.11947","geonameId":5471232,"toponymName":"Hernandez","countryId":"6252001","fcl":"P","population":946,"countryCode":"US","name":"Hernandez","fclName":"city, village,...","adminCodes1":{"ISO3166_2":"NM"},"countryName":"United States","fcodeName":"populated place","adminName1":"New Mexico","lat":"36.0628","fcode":"PPL"},{"adminCode1":"NM","lng":"-106.64972","geonameId":7158733,"toponymName":"South San Jose Park","countryId":"6252001","fcl":"L","population":0,"countryCode":"US","name":"South San Jose Park","fclName":"parks,area, ...","adminCodes1":{"ISO3166_2":"NM"},"countryName":"United States","fcodeName":"park","adminName1":"New Mexico","lat":"35.05444","fcode":"PRK"},{"adminCode1":"NM","lng":"-106.99949","geonameId":5489654,"toponymName":"San Jose Lakes","countryId":"6252001","fcl":"H","population":0,"countryCode":"US","name":"San Jose Lakes","fclName":"stream, lake, ...","adminCodes1":{"ISO3166_2":"NM"},"countryName":"United States","fcodeName":"lake","adminName1":"New Mexico","lat":"36.13335","fcode":"LK"},{"adminCode1":"CA","lng":"-117.84006","geonameId":5392172,"toponymName":"San Jose Addition","countryId":"6252001","fcl":"A","population":0,"countryCode":"US","name":"San Jose Addition","fclName":"country, state, region,...","adminCodes1":{"ISO3166_2":"CA"},"countryName":"United States","fcodeName":"administrative division","adminName1":"California","lat":"34.11529","fcode":"ADMD"},{"adminCode1":"CA","lng":"-118.43063","geonameId":5392225,"toponymName":"San Jose De Buenos Ayres","countryId":"6252001","fcl":"A","population":0,"countryCode":"US","name":"San Jose De Buenos Ayres","fclName":"country, state, region,...","adminCodes1":{"ISO3166_2":"CA"},"countryName":"United States","fcodeName":"administrative division","adminName1":"California","lat":"34.06501","fcode":"ADMD"},{"adminCode1":"NM","lng":"-105.51585","geonameId":5478936,"toponymName":"Punta de la Mesa de San Juan Jose","countryId":"6252001","fcl":"T","population":0,"countryCode":"US","name":"Punta de la Mesa de San Juan Jose","fclName":"mountain,hill,rock,... ","adminCodes1":{"ISO3166_2":"NM"},"countryName":"United States","fcodeName":"mountain","adminName1":"New Mexico","lat":"35.39421","fcode":"MT"},{"adminCode1":"CA","lng":"-121.83856","geonameId":5394588,"toponymName":"Seven Trees","countryId":"6252001","fcl":"P","population":1788,"countryCode":"US","name":"Seven Trees","fclName":"city, village,...","adminCodes1":{"ISO3166_2":"CA"},"countryName":"United States","fcodeName":"section of populated place","adminName1":"California","lat":"37.28605","fcode":"PPLX"},{"adminCode1":"CA","lng":"-121.7405","geonameId":5340300,"toponymName":"Coyote","countryId":"6252001","fcl":"P","population":0,"countryCode":"US","name":"Coyote","fclName":"city, village,...","adminCodes1":{"ISO3166_2":"CA"},"countryName":"United States","fcodeName":"section of populated place","adminName1":"California","lat":"37.21661","fcode":"PPLX"},{"adminCode1":"CA","lng":"-121.91662","geonameId":5331587,"toponymName":"Buena Vista","countryId":"6252001","fcl":"P","population":1704,"countryCode":"US","name":"Buena Vista","fclName":"city, village,...","adminCodes1":{"ISO3166_2":"CA"},"countryName":"United States","fcodeName":"section of populated place","adminName1":"California","lat":"37.32133","fcode":"PPLX"},{"adminCode1":"CA","lng":"-121.93162","geonameId":5331836,"toponymName":"Burbank","countryId":"6252001","fcl":"P","population":4926,"countryCode":"US","name":"Burbank","fclName":"city, village,...","adminCodes1":{"ISO3166_2":"CA"},"countryName":"United States","fcodeName":"section of populated place","adminName1":"California","lat":"37.32328","fcode":"PPLX"},{"adminCode1":"CA","lng":"-121.93079","geonameId":5333219,"toponymName":"Cambrian Park","countryId":"6252001","fcl":"P","population":3282,"countryCode":"US","name":"Cambrian Park","fclName":"city, village,...","adminCodes1":{"ISO3166_2":"CA"},"countryName":"United States","fcodeName":"section of populated place","adminName1":"California","lat":"37.25689","fcode":"PPLX"},{"adminCode1":"NM","lng":"-106.64889","geonameId":7158734,"toponymName":"East San Jose Park and Community Center","countryId":"6252001","fcl":"L","population":0,"countryCode":"US","name":"East San Jose Park and Community Center","fclName":"parks,area, ...","adminCodes1":{"ISO3166_2":"NM"},"countryName":"United States","fcodeName":"park","adminName1":"New Mexico","lat":"35.06417","fcode":"PRK"},{"adminCode1":"NM","lng":"-107.38282","geonameId":5489671,"toponymName":"San Jose de Laguna Mission Historical Marker","countryId":"6252001","fcl":"L","population":0,"countryCode":"US","name":"San Jose de Laguna Mission Historical Marker","fclName":"parks,area, ...","adminCodes1":{"ISO3166_2":"NM"},"countryName":"United States","fcodeName":"park","adminName1":"New Mexico","lat":"35.03671","fcode":"PRK"},{"adminCode1":"NM","lng":"-106.97282","geonameId":5489674,"toponymName":"Arroyo San Jose","countryId":"6252001","fcl":"H","population":0,"countryCode":"US","name":"Arroyo San Jose","fclName":"stream, lake, ...","adminCodes1":{"ISO3166_2":"NM"},"countryName":"United States","fcodeName":"stream","adminName1":"New Mexico","lat":"36.01668","fcode":"STM"},{"adminCode1":"TX","lng":"-96.98499","geonameId":4726424,"toponymName":"San Jose Island Airport","countryId":"6252001","fcl":"S","population":0,"countryCode":"US","name":"San Jose Island Airport","fclName":"spot, building, farm","adminCodes1":{"ISO3166_2":"TX"},"countryName":"United States","fcodeName":"airport","adminName1":"Texas","lat":"27.94447","fcode":"AIRP"},{"adminCode1":"FL","lng":"-81.62593","geonameId":4171798,"toponymName":"San Jose Episcopal Church","countryId":"6252001","fcl":"S","population":0,"countryCode":"US","name":"San Jose Episcopal Church","fclName":"spot, building, farm","adminCodes1":{"ISO3166_2":"FL"},"countryName":"United States","fcodeName":"church","adminName1":"Florida","lat":"30.24357","fcode":"CH"},{"adminCode1":"AZ","lng":"-109.73813","geonameId":5310438,"toponymName":"Rancho San Jose Airstrip","countryId":"6252001","fcl":"S","population":0,"countryCode":"US","name":"Rancho San Jose Airstrip","fclName":"spot, building, farm","adminCodes1":{"ISO3166_2":"AZ"},"countryName":"United States","fcodeName":"airport","adminName1":"Arizona","lat":"31.35149","fcode":"AIRP"},{"adminCode1":"CA","lng":"-116.6653","geonameId":5407219,"toponymName":"Warners Ranch","countryId":"6252001","fcl":"S","population":0,"countryCode":"US","name":"Warners Ranch","fclName":"spot, building, farm","adminCodes1":{"ISO3166_2":"CA"},"countryName":"United States","fcodeName":"","adminName1":"California","lat":"33.24254"},{"adminCode1":"CA","lng":"-121.76329","geonameId":5365231,"toponymName":"Las Positas","countryId":"6252001","fcl":"A","population":0,"countryCode":"US","name":"Las Positas","fclName":"country, state, region,...","adminCodes1":{"ISO3166_2":"CA"},"countryName":"United States","fcodeName":"administrative division","adminName1":"California","lat":"37.72632","fcode":"ADMD"},{"adminCode1":"CA","lng":"-121.77145","geonameId":7156422,"toponymName":"San Jose Evergreen Community College","countryId":"6252001","fcl":"S","population":0,"countryCode":"US","name":"San Jose Evergreen Community College","fclName":"spot, building, farm","adminCodes1":{"ISO3166_2":"CA"},"countryName":"United States","fcodeName":"school","adminName1":"California","lat":"37.30061","fcode":"SCH"},{"adminCode1":"CA","lng":"-121.89023","geonameId":5392201,"toponymName":"San Jose Museum of Art","countryId":"6252001","fcl":"S","population":0,"countryCode":"US","name":"San Jose Museum of Art","fclName":"spot, building, farm","adminCodes1":{"ISO3166_2":"CA"},"countryName":"United States","fcodeName":"museum","adminName1":"California","lat":"37.33383","fcode":"MUS"},{"adminCode1":"CA","lng":"-121.86746","geonameId":5361828,"toponymName":"KICU-TV (San Jose)","countryId":"6252001","fcl":"S","population":0,"countryCode":"US","name":"KICU-TV (San Jose)","fclName":"spot, building, farm","adminCodes1":{"ISO3166_2":"CA"},"countryName":"United States","fcodeName":"tower","adminName1":"California","lat":"37.48799","fcode":"TOWR"},{"adminCode1":"CA","lng":"-121.93367","geonameId":5373724,"toponymName":"Mission San Jose High School","countryId":"6252001","fcl":"S","population":0,"countryCode":"US","name":"Mission San Jose High School","fclName":"spot, building, farm","adminCodes1":{"ISO3166_2":"CA"},"countryName":"United States","fcodeName":"school","adminName1":"California","lat":"37.54506","fcode":"SCH"},{"adminCode1":"CA","lng":"-121.8669","geonameId":5362239,"toponymName":"KTEH-TV (San Jose)","countryId":"6252001","fcl":"S","population":0,"countryCode":"US","name":"KTEH-TV (San Jose)","fclName":"spot, building, farm","adminCodes1":{"ISO3166_2":"CA"},"countryName":"United States","fcodeName":"tower","adminName1":"California","lat":"37.48521","fcode":"TOWR"},{"adminCode1":"NM","lng":"-107.86698","geonameId":5465799,"toponymName":"Dwyer","countryId":"6252001","fcl":"P","population":0,"countryCode":"US","name":"Dwyer","fclName":"city, village,...","adminCodes1":{"ISO3166_2":"NM"},"countryName":"United States","fcodeName":"populated place","adminName1":"New Mexico","lat":"32.62841","fcode":"PPL"},{"adminCode1":"NM","lng":"-108.11199","geonameId":5462470,"toponymName":"Cobre","countryId":"6252001","fcl":"P","population":39,"countryCode":"US","name":"Cobre","fclName":"city, village,...","adminCodes1":{"ISO3166_2":"NM"},"countryName":"United States","fcodeName":"populated place","adminName1":"New Mexico","lat":"32.78063","fcode":"PPL"},{"adminCode1":"CA","lng":"-121.91523","geonameId":5333222,"toponymName":"Cambrian Park Station San Jose Post Office","countryId":"6252001","fcl":"S","population":0,"countryCode":"US","name":"Cambrian Park Station San Jose Post Office","fclName":"spot, building, farm","adminCodes1":{"ISO3166_2":"CA"},"countryName":"United States","fcodeName":"post office","adminName1":"California","lat":"37.26522","fcode":"PO"},{"adminCode1":"CA","lng":"-121.86245","geonameId":5323336,"toponymName":"Almaden Valley Station San Jose Post Office","countryId":"6252001","fcl":"S","population":0,"countryCode":"US","name":"Almaden Valley Station San Jose Post Office","fclName":"spot, building, farm","adminCodes1":{"ISO3166_2":"CA"},"countryName":"United States","fcodeName":"post office","adminName1":"California","lat":"37.21856","fcode":"PO"},{"adminCode1":"CA","lng":"-122.06357","geonameId":5398888,"toponymName":"Stevens Creek","countryId":"6252001","fcl":"H","population":0,"countryCode":"US","name":"Stevens Creek","fclName":"stream, lake, ...","adminCodes1":{"ISO3166_2":"CA"},"countryName":"United States","fcodeName":"stream","adminName1":"California","lat":"37.44577","fcode":"STM"},{"adminCode1":"CA","lng":"-121.8625","geonameId":7122378,"toponymName":"San Jose Municipal Baseball Stadium","countryId":"6252001","fcl":"S","population":0,"countryCode":"US","name":"San Jose Municipal Baseball Stadium","fclName":"spot, building, farm","adminCodes1":{"ISO3166_2":"CA"},"countryName":"United States","fcodeName":"stadium","adminName1":"California","lat":"37.32028","fcode":"STDM"},{"adminCode1":"CA","lng":"-121.88527","geonameId":6947775,"toponymName":"San Jose City Hall","countryId":"6252001","fcl":"S","population":0,"countryCode":"US","name":"San Jose City Hall","fclName":"spot, building, farm","adminCodes1":{"ISO3166_2":"CA"},"countryName":"United States","fcodeName":"building(s)","adminName1":"California","lat":"37.33766","fcode":"BLDG"},{"adminCode1":"CA","lng":"-121.92657","geonameId":5392175,"toponymName":"San Jose City College","countryId":"6252001","fcl":"S","population":0,"countryCode":"US","name":"San Jose City College","fclName":"spot, building, farm","adminCodes1":{"ISO3166_2":"CA"},"countryName":"United States","fcodeName":"school","adminName1":"California","lat":"37.31554","fcode":"SCH"},{"adminCode1":"CA","lng":"-121.88968","geonameId":5392176,"toponymName":"San Jose Civic Auditorium","countryId":"6252001","fcl":"S","population":0,"countryCode":"US","name":"San Jose Civic Auditorium","fclName":"spot, building, farm","adminCodes1":{"ISO3166_2":"CA"},"countryName":"United States","fcodeName":"building(s)","adminName1":"California","lat":"37.33077","fcode":"BLDG"},{"adminCode1":"CA","lng":"-121.88857","geonameId":5392178,"toponymName":"San Jose Convention Center","countryId":"6252001","fcl":"S","population":0,"countryCode":"US","name":"San Jose Convention Center","fclName":"spot, building, farm","adminCodes1":{"ISO3166_2":"CA"},"countryName":"United States","fcodeName":"building(s)","adminName1":"California","lat":"37.3305","fcode":"BLDG"},{"adminCode1":"CA","lng":"-121.85745","geonameId":5361929,"toponymName":"KLIV-AM (San Jose)","countryId":"6252001","fcl":"S","population":0,"countryCode":"US","name":"KLIV-AM (San Jose)","fclName":"spot, building, farm","adminCodes1":{"ISO3166_2":"CA"},"countryName":"United States","fcodeName":"tower","adminName1":"California","lat":"37.32911","fcode":"TOWR"},{"adminCode1":"NM","lng":"-106.65447","geonameId":5497535,"toponymName":"West San Jose School","countryId":"6252001","fcl":"S","population":0,"countryCode":"US","name":"West San Jose School","fclName":"spot, building, farm","adminCodes1":{"ISO3166_2":"NM"},"countryName":"United States","fcodeName":"school","adminName1":"New Mexico","lat":"35.06838","fcode":"SCH"},{"adminCode1":"CA","lng":"-121.90871","geonameId":7262639,"toponymName":"Sunol-Midtown","countryId":"6252001","fcl":"P","population":0,"countryCode":"US","name":"Sunol-Midtown","fclName":"city, village,...","adminCodes1":{"ISO3166_2":"CA"},"countryName":"United States","fcodeName":"section of populated place","adminName1":"California","lat":"37.32463","fcode":"PPLX"},{"adminCode1":"CA","lng":"-121.89773","geonameId":5409609,"toponymName":"Willow Glen","countryId":"6252001","fcl":"P","population":0,"countryCode":"US","name":"Willow Glen","fclName":"city, village,...","adminCodes1":{"ISO3166_2":"CA"},"countryName":"United States","fcodeName":"section of populated place","adminName1":"California","lat":"37.30413","fcode":"PPLX"},{"adminCode1":"CA","lng":"-121.9794","geonameId":5354619,"toponymName":"Guadalupe River","countryId":"6252001","fcl":"H","population":0,"countryCode":"US","name":"Guadalupe River","fclName":"stream, lake, ...","adminCodes1":{"ISO3166_2":"CA"},"countryName":"United States","fcodeName":"stream","adminName1":"California","lat":"37.42577","fcode":"STM"},{"adminCode1":"CA","lng":"-121.93275","geonameId":5351131,"toponymName":"Fruitdale","countryId":"6252001","fcl":"P","population":935,"countryCode":"US","name":"Fruitdale","fclName":"city, village,...","adminCodes1":{"ISO3166_2":"CA"},"countryName":"United States","fcodeName":"section of populated place","adminName1":"California","lat":"37.31086","fcode":"PPLX"},{"adminCode1":"TX","lng":"-96.97526","geonameId":4726411,"toponymName":"San Jose - Witcher Cemetery","countryId":"6252001","fcl":"S","population":0,"countryCode":"US","name":"San Jose - Witcher Cemetery","fclName":"spot, building, farm","adminCodes1":{"ISO3166_2":"TX"},"countryName":"United States","fcodeName":"cemetery","adminName1":"Texas","lat":"30.66214","fcode":"CMTY"},{"adminCode1":"NM","lng":"-107.18476","geonameId":5463261,"toponymName":"Correo","countryId":"6252001","fcl":"P","population":0,"countryCode":"US","name":"Correo","fclName":"city, village,...","adminCodes1":{"ISO3166_2":"NM"},"countryName":"United States","fcodeName":"populated place","adminName1":"New Mexico","lat":"34.95505","fcode":"PPL"},{"adminCode1":"NM","lng":"-107.99951","geonameId":5479709,"toponymName":"Mitchell Draw","countryId":"6252001","fcl":"T","population":0,"countryCode":"US","name":"Mitchell Draw","fclName":"mountain,hill,rock,... ","adminCodes1":{"ISO3166_2":"NM"},"countryName":"United States","fcodeName":"valley","adminName1":"New Mexico","lat":"35.28726","fcode":"VAL"},{"adminCode1":"CA","lng":"-121.92718","geonameId":5374061,"toponymName":"Monastery Beach","countryId":"6252001","fcl":"T","population":0,"countryCode":"US","name":"Monastery Beach","fclName":"mountain,hill,rock,... ","adminCodes1":{"ISO3166_2":"CA"},"countryName":"United States","fcodeName":"beach","adminName1":"California","lat":"36.52357","fcode":"BCH"},{"adminCode1":"CA","lng":"-121.91913","geonameId":5373727,"toponymName":"Mission San Jose de Guadalupe","countryId":"6252001","fcl":"S","population":0,"countryCode":"US","name":"Mission San Jose de Guadalupe","fclName":"spot, building, farm","adminCodes1":{"ISO3166_2":"CA"},"countryName":"United States","fcodeName":"church","adminName1":"California","lat":"37.53271","fcode":"CH"},{"adminCode1":"CA","lng":"-121.78915","geonameId":7237548,"toponymName":"Stratford School San Jose Campus","countryId":"6252001","fcl":"S","population":0,"countryCode":"US","name":"Stratford School San Jose Campus","fclName":"spot, building, farm","adminCodes1":{"ISO3166_2":"CA"},"countryName":"United States","fcodeName":"school","adminName1":"California","lat":"37.22998","fcode":"SCH"},{"adminCode1":"CA","lng":"-121.87205","geonameId":5392192,"toponymName":"San Jose High Academy Plus","countryId":"6252001","fcl":"S","population":0,"countryCode":"US","name":"San Jose High Academy Plus","fclName":"spot, building, farm","adminCodes1":{"ISO3166_2":"CA"},"countryName":"United States","fcodeName":"school","adminName1":"California","lat":"37.34978","fcode":"SCH"},{"adminCode1":"TX","lng":"-98.70557","geonameId":4726422,"toponymName":"San Jose Creek","countryId":"6252001","fcl":"H","population":0,"countryCode":"US","name":"San Jose Creek","fclName":"stream, lake, ...","adminCodes1":{"ISO3166_2":"TX"},"countryName":"United States","fcodeName":"stream","adminName1":"Texas","lat":"28.17195","fcode":"STM"},{"adminCode1":"NM","lng":"-105.41418","geonameId":5489678,"toponymName":"Rito San Jose","countryId":"6252001","fcl":"H","population":0,"countryCode":"US","name":"Rito San Jose","fclName":"stream, lake, ...","adminCodes1":{"ISO3166_2":"NM"},"countryName":"United States","fcodeName":"stream","adminName1":"New Mexico","lat":"35.83365","fcode":"STM"},{"adminCode1":"TX","lng":"-106.27331","geonameId":5528672,"toponymName":"Presidio Chapel of San Elizario","countryId":"6252001","fcl":"S","population":0,"countryCode":"US","name":"Presidio Chapel of San Elizario","fclName":"spot, building, farm","adminCodes1":{"ISO3166_2":"TX"},"countryName":"United States","fcodeName":"church","adminName1":"Texas","lat":"31.58484","fcode":"CH"},{"adminCode1":"CA","lng":"-121.92024","geonameId":5373722,"toponymName":"Mission San Jose District","countryId":"6252001","fcl":"P","population":0,"countryCode":"US","name":"Mission San Jose District","fclName":"city, village,...","adminCodes1":{"ISO3166_2":"CA"},"countryName":"United States","fcodeName":"section of populated place","adminName1":"California","lat":"37.53299","fcode":"PPLX"},{"adminCode1":"CA","lng":"-121.90194","geonameId":7132981,"toponymName":"SAP Center","countryId":"6252001","fcl":"S","population":0,"countryCode":"US","name":"SAP Center","fclName":"spot, building, farm","adminCodes1":{"ISO3166_2":"CA"},"countryName":"United States","fcodeName":"building(s)","adminName1":"California","lat":"37.3325","fcode":"BLDG"},{"adminCode1":"CA","lng":"-121.86829","geonameId":5398036,"toponymName":"CEFCU Stadium","countryId":"6252001","fcl":"S","population":0,"countryCode":"US","name":"CEFCU Stadium","fclName":"spot, building, farm","adminCodes1":{"ISO3166_2":"CA"},"countryName":"United States","fcodeName":"stadium","adminName1":"California","lat":"37.31966","fcode":"STDM"},{"adminCode1":"TX","lng":"-98.52974","geonameId":4726409,"toponymName":"San Jose","countryId":"6252001","fcl":"P","population":0,"countryCode":"US","name":"San Jose","fclName":"city, village,...","adminCodes1":{"ISO3166_2":"TX"},"countryName":"United States","fcodeName":"populated place","adminName1":"Texas","lat":"29.34662","fcode":"PPL"},{"adminCode1":"TX","lng":"-98.30584","geonameId":4726410,"toponymName":"San Jose","countryId":"6252001","fcl":"P","population":0,"countryCode":"US","name":"San Jose","fclName":"city, village,...","adminCodes1":{"ISO3166_2":"TX"},"countryName":"United States","fcodeName":"populated place","adminName1":"Texas","lat":"27.58364","fcode":"PPL"}]}
