{"totalResultsCount":577,"geonames":[{"adminCode1":"MN","lng":"-93.74608","geonameId":5018285,"toponymName":"Big Lake","countryId":"6252001","fcl":"P","population":10368,"countryCode":"US","name":"Big Lake","fclName":"city, village,...","adminCodes1":{"ISO3166_2":"MN"},"countryName":"United States","fcodeName":"populated place","adminName1":"Minnesota","lat":"45.33246","fcode":"PPL"},{"adminCode1":"MN","lng":"-93.87692","geonameId":5017660,"toponymName":"Becker","countryId":"6252001","fcl":"P","population":4700,"countryCode":"US","name":"Becker","fclName":"city, village,...","adminCodes1":{"ISO3166_2":"MN"},"countryName":"United States","fcodeName":"populated place","adminName1":"Minnesota","lat":"45.3933","fcode":"PPL"},{"adminCode1":"MN","lng":"-94.05972","geonameId":6299120,"toponymName":"St. Cloud Regional Airport","countryId":"6252001","fcl":"S","population":0,"countryCode":"US","name":"St. Cloud Regional Airport","fclName":"spot, building, farm","adminCodes1":{"ISO3166_2":"MN"},"countryName":"United States","fcodeName":"airport","adminName1":"Minnesota","lat":"45.54639","fcode":"AIRP"},{"adminCode1":"MN","lng":"-93.77459","geonameId":5047121,"toponymName":"Sherburne County","countryId":"6252001","fcl":"A","population":88499,"countryCode":"US","name":"Sherburne","fclName":"country, state, region,...","adminCodes1":{"ISO3166_2":"MN"},"countryName":"United States","fcodeName":"second-order administrative division","adminName1":"Minnesota","lat":"45.44395","fcode":"ADM2"},{"adminCode1":"MN","lng":"-93.72167","geonameId":5047127,"toponymName":"Sherburne National Wildlife Refuge","countryId":"6252001","fcl":"L","population":0,"countryCode":"US","name":"Sherburne National Wildlife Refuge","fclName":"parks,area, ...","adminCodes1":{"ISO3166_2":"MN"},"countryName":"United States","fcodeName":"park","adminName1":"Minnesota","lat":"45.49081","fcode":"PRK"},{"adminCode1":"MN","lng":"-93.93915","geonameId":5019262,"toponymName":"Briggs Lake","countryId":"6252001","fcl":"H","population":0,"countryCode":"US","name":"Briggs Lake","fclName":"stream, lake, ...","adminCodes1":{"ISO3166_2":"MN"},"countryName":"United States","fcodeName":"lake","adminName1":"Minnesota","lat":"45.4983","fcode":"LK"},{"adminCode1":"MN","lng":"-93.58996","geonameId":5033783,"toponymName":"Zimmerman","countryId":"6252001","fcl":"P","population":5350,"countryCode":"US","name":"Zimmerman","fclName":"city, village,...","adminCodes1":{"ISO3166_2":"MN"},"countryName":"United States","fcodeName":"populated place","adminName1":"Minnesota","lat":"45.4433","fcode":"PPL"},{"adminCode1":"MN","lng":"-93.56718","geonameId":5025471,"toponymName":"Elk River","countryId":"6252001","fcl":"P","population":23963,"countryCode":"US","name":"Elk River","fclName":"city, village,...","adminCodes1":{"ISO3166_2":"MN"},"countryName":"United States","fcodeName":"seat of a second-order administrative division","adminName1":"Minnesota","lat":"45.30385","fcode":"PPLA2"},{"adminCode1":"MN","lng":"-93.55722","geonameId":5016941,"toponymName":"Babcock Memorial Park","countryId":"6252001","fcl":"L","population":0,"countryCode":"US","name":"Babcock Memorial Park","fclName":"parks,area, ...","adminCodes1":{"ISO3166_2":"MN"},"countryName":"United States","fcodeName":"park","adminName1":"Minnesota","lat":"45.29","fcode":"PRK"},{"adminCode1":"MN","lng":"-93.5375","geonameId":5040190,"toponymName":"Oliver H Kelley Homestead Historical Marker","countryId":"6252001","fcl":"L","population":0,"countryCode":"US","name":"Oliver H Kelley Homestead Historical Marker","fclName":"parks,area, ...","adminCodes1":{"ISO3166_2":"MN"},"countryName":"United States","fcodeName":"park","adminName1":"Minnesota","lat":"45.25833","fcode":"PRK"},{"adminCode1":"MN","lng":"-93.99887","geonameId":5021492,"toponymName":"Clear Lake","countryId":"6252001","fcl":"P","population":645,"countryCode":"US","name":"Clear Lake","fclName":"city, village,...","adminCodes1":{"ISO3166_2":"MN"},"countryName":"United States","fcodeName":"populated place","adminName1":"Minnesota","lat":"45.44497","fcode":"PPL"},{"adminCode1":"MN","lng":"-93.81997","geonameId":5045960,"toponymName":"Santiago","countryId":"6252001","fcl":"P","population":0,"countryCode":"US","name":"Santiago","fclName":"city, village,...","adminCodes1":{"ISO3166_2":"MN"},"countryName":"United States","fcodeName":"populated place","adminName1":"Minnesota","lat":"45.53913","fcode":"PPL"},{"adminCode1":"MN","lng":"-93.93609","geonameId":5019263,"toponymName":"Briggs Lake","countryId":"6252001","fcl":"P","population":0,"countryCode":"US","name":"Briggs Lake","fclName":"city, village,...","adminCodes1":{"ISO3166_2":"MN"},"countryName":"United States","fcodeName":"populated place","adminName1":"Minnesota","lat":"45.50858","fcode":"PPL"},{"adminCode1":"MN","lng":"-94.07415","geonameId":5019915,"toponymName":"Cable","countryId":"6252001","fcl":"P","population":0,"countryCode":"US","name":"Cable","fclName":"city, village,...","adminCodes1":{"ISO3166_2":"MN"},"countryName":"United States","fcodeName":"populated place","adminName1":"Minnesota","lat":"45.51163","fcode":"PPL"},{"adminCode1":"MN","lng":"-93.77747","geonameId":5041514,"toponymName":"Pilots Cove Airport","countryId":"6252001","fcl":"S","population":0,"countryCode":"US","name":"Pilots Cove Airport","fclName":"spot, building, farm","adminCodes1":{"ISO3166_2":"MN"},"countryName":"United States","fcodeName":"airport","adminName1":"Minnesota","lat":"45.31802","fcode":"AIRP"},{"adminCode1":"MN","lng":"-93.81942","geonameId":5045776,"toponymName":"Salida","countryId":"6252001","fcl":"P","population":0,"countryCode":"US","name":"Salida","fclName":"city, village,...","adminCodes1":{"ISO3166_2":"MN"},"countryName":"United States","fcodeName":"populated place","adminName1":"Minnesota","lat":"45.35663","fcode":"PPL"},{"adminCode1":"MN","lng":"-93.51896","geonameId":5045935,"toponymName":"Sandy Lake","countryId":"6252001","fcl":"H","population":0,"countryCode":"US","name":"Sandy Lake","fclName":"stream, lake, ...","adminCodes1":{"ISO3166_2":"MN"},"countryName":"United States","fcodeName":"lake","adminName1":"Minnesota","lat":"45.48652","fcode":"LK"},{"adminCode1":"MN","lng":"-93.97109","geonameId":5034351,"toponymName":"Leaders Clear Lake Airport","countryId":"6252001","fcl":"S","population":0,"countryCode":"US","name":"Leaders Clear Lake Airport","fclName":"spot, building, farm","adminCodes1":{"ISO3166_2":"MN"},"countryName":"United States","fcodeName":"airport","adminName1":"Minnesota","lat":"45.44441","fcode":"AIRP"},{"adminCode1":"MN","lng":"-93.5375","geonameId":5028565,"toponymName":"Grange Shrine - Oliver Hudson Kelley Home Historical Marker","countryId":"6252001","fcl":"L","population":0,"countryCode":"US","name":"Grange Shrine - Oliver Hudson Kelley Home Historical Marker","fclName":"parks,area, ...","adminCodes1":{"ISO3166_2":"MN"},"countryName":"United States","fcodeName":"park","adminName1":"Minnesota","lat":"45.25833","fcode":"PRK"},{"adminCode1":"MN","lng":"-93.68877","geonameId":5016421,"toponymName":"Lake Ann","countryId":"6252001","fcl":"H","population":0,"countryCode":"US","name":"Lake Ann","fclName":"stream, lake, ...","adminCodes1":{"ISO3166_2":"MN"},"countryName":"United States","fcodeName":"lake","adminName1":"Minnesota","lat":"45.42554","fcode":"LK"},{"adminCode1":"MN","lng":"-93.66524","geonameId":5017003,"toponymName":"Bailey","countryId":"6252001","fcl":"P","population":0,"countryCode":"US","name":"Bailey","fclName":"city, village,...","adminCodes1":{"ISO3166_2":"MN"},"countryName":"United States","fcodeName":"populated place","adminName1":"Minnesota","lat":"45.31691","fcode":"PPL"},{"adminCode1":"MN","lng":"-93.75765","geonameId":5037923,"toponymName":"Lake Mitchell","countryId":"6252001","fcl":"H","population":0,"countryCode":"US","name":"Lake Mitchell","fclName":"stream, lake, ...","adminCodes1":{"ISO3166_2":"MN"},"countryName":"United States","fcodeName":"lake","adminName1":"Minnesota","lat":"45.34675","fcode":"LK"},{"adminCode1":"MN","lng":"-93.73636","geonameId":5040353,"toponymName":"Orrock","countryId":"6252001","fcl":"P","population":0,"countryCode":"US","name":"Orrock","fclName":"city, village,...","adminCodes1":{"ISO3166_2":"MN"},"countryName":"United States","fcodeName":"populated place","adminName1":"Minnesota","lat":"45.44385","fcode":"PPL"},{"adminCode1":"MN","lng":"-93.52222","geonameId":7133335,"toponymName":"Lake Margritte","countryId":"6252001","fcl":"H","population":0,"countryCode":"US","name":"Lake Margritte","fclName":"stream, lake, ...","adminCodes1":{"ISO3166_2":"MN"},"countryName":"United States","fcodeName":"lake","adminName1":"Minnesota","lat":"45.52667","fcode":"LK"},{"adminCode1":"MN","lng":"-93.8779","geonameId":5019070,"toponymName":"Boyd Lake","countryId":"6252001","fcl":"H","population":0,"countryCode":"US","name":"Boyd Lake","fclName":"stream, lake, ...","adminCodes1":{"ISO3166_2":"MN"},"countryName":"United States","fcodeName":"lake","adminName1":"Minnesota","lat":"45.52018","fcode":"LK"},{"adminCode1":"MN","lng":"-93.80201","geonameId":5019568,"toponymName":"Bucks Lake","countryId":"6252001","fcl":"H","population":0,"countryCode":"US","name":"Bucks Lake","fclName":"stream, lake, ...","adminCodes1":{"ISO3166_2":"MN"},"countryName":"United States","fcodeName":"lake","adminName1":"Minnesota","lat":"45.36806","fcode":"LK"},{"adminCode1":"MN","lng":"-93.62833","geonameId":5020112,"toponymName":"Camp Cozy Park","countryId":"6252001","fcl":"L","population":0,"countryCode":"US","name":"Camp Cozy Park","fclName":"parks,area, ...","adminCodes1":{"ISO3166_2":"MN"},"countryName":"United States","fcodeName":"park","adminName1":"Minnesota","lat":"45.30972","fcode":"PRK"},{"adminCode1":"MN","lng":"-93.9594","geonameId":5020156,"toponymName":"Camp Lake","countryId":"6252001","fcl":"H","population":0,"countryCode":"US","name":"Camp Lake","fclName":"stream, lake, ...","adminCodes1":{"ISO3166_2":"MN"},"countryName":"United States","fcodeName":"lake","adminName1":"Minnesota","lat":"45.44049","fcode":"LK"},{"adminCode1":"MN","lng":"-93.58707","geonameId":5020335,"toponymName":"Cantlin Lake","countryId":"6252001","fcl":"H","population":0,"countryCode":"US","name":"Cantlin Lake","fclName":"stream, lake, ...","adminCodes1":{"ISO3166_2":"MN"},"countryName":"United States","fcodeName":"lake","adminName1":"Minnesota","lat":"45.4868","fcode":"LK"},{"adminCode1":"MN","lng":"-94.02397","geonameId":5020490,"toponymName":"Carter Lake","countryId":"6252001","fcl":"H","population":0,"countryCode":"US","name":"Carter Lake","fclName":"stream, lake, ...","adminCodes1":{"ISO3166_2":"MN"},"countryName":"United States","fcodeName":"lake","adminName1":"Minnesota","lat":"45.4714","fcode":"LK"},{"adminCode1":"MN","lng":"-93.59722","geonameId":5021329,"toponymName":"City Hall Park","countryId":"6252001","fcl":"L","population":0,"countryCode":"US","name":"City Hall Park","fclName":"parks,area, ...","adminCodes1":{"ISO3166_2":"MN"},"countryName":"United States","fcodeName":"park","adminName1":"Minnesota","lat":"45.30306","fcode":"PRK"},{"adminCode1":"MN","lng":"-94.04508","geonameId":5021491,"toponymName":"Clear Lake","countryId":"6252001","fcl":"H","population":0,"countryCode":"US","name":"Clear Lake","fclName":"stream, lake, ...","adminCodes1":{"ISO3166_2":"MN"},"countryName":"United States","fcodeName":"lake","adminName1":"Minnesota","lat":"45.44652","fcode":"LK"},{"adminCode1":"MN","lng":"-93.99806","geonameId":5021516,"toponymName":"City of Clear Lake","countryId":"6252001","fcl":"A","population":0,"countryCode":"US","name":"City of Clear Lake","fclName":"country, state, region,...","adminCodes1":{"ISO3166_2":"MN"},"countryName":"United States","fcodeName":"third-order administrative division","adminName1":"Minnesota","lat":"45.44611","fcode":"ADM3"},{"adminCode1":"MN","lng":"-93.99338","geonameId":5021517,"toponymName":"Township of Clear Lake","countryId":"6252001","fcl":"A","population":0,"countryCode":"US","name":"Clear Lake Township","fclName":"country, state, region,...","adminCodes1":{"ISO3166_2":"MN"},"countryName":"United States","fcodeName":"third-order administrative division","adminName1":"Minnesota","lat":"45.43574","fcode":"ADM3"},{"adminCode1":"MN","lng":"-94.14278","geonameId":5021565,"toponymName":"Clemens Gardens","countryId":"6252001","fcl":"L","population":0,"countryCode":"US","name":"Clemens Gardens","fclName":"parks,area, ...","adminCodes1":{"ISO3166_2":"MN"},"countryName":"United States","fcodeName":"park","adminName1":"Minnesota","lat":"45.54972","fcode":"PRK"},{"adminCode1":"MN","lng":"-93.88515","geonameId":5021624,"toponymName":"Clitty Lake","countryId":"6252001","fcl":"H","population":0,"countryCode":"US","name":"Clitty Lake","fclName":"stream, lake, ...","adminCodes1":{"ISO3166_2":"MN"},"countryName":"United States","fcodeName":"lake","adminName1":"Minnesota","lat":"45.4156","fcode":"LK"},{"adminCode1":"MN","lng":"-93.97303","geonameId":5023383,"toponymName":"Crescent Lake","countryId":"6252001","fcl":"H","population":0,"countryCode":"US","name":"Crescent Lake","fclName":"stream, lake, ...","adminCodes1":{"ISO3166_2":"MN"},"countryName":"United States","fcodeName":"lake","adminName1":"Minnesota","lat":"45.42469","fcode":"LK"},{"adminCode1":"MN","lng":"-93.94443","geonameId":5040760,"toponymName":"Township of Palmer","countryId":"6252001","fcl":"A","population":0,"countryCode":"US","name":"Palmer Township","fclName":"country, state, region,...","adminCodes1":{"ISO3166_2":"MN"},"countryName":"United States","fcodeName":"third-order administrative division","adminName1":"Minnesota","lat":"45.516","fcode":"ADM3"},{"adminCode1":"MN","lng":"-94.0627","geonameId":5041368,"toponymName":"Pickerel Lake","countryId":"6252001","fcl":"H","population":0,"countryCode":"US","name":"Pickerel Lake","fclName":"stream, lake, ...","adminCodes1":{"ISO3166_2":"MN"},"countryName":"United States","fcodeName":"lake","adminName1":"Minnesota","lat":"45.46974","fcode":"LK"},{"adminCode1":"MN","lng":"-93.74667","geonameId":5042213,"toponymName":"Powell Park","countryId":"6252001","fcl":"L","population":0,"countryCode":"US","name":"Powell Park","fclName":"parks,area, ...","adminCodes1":{"ISO3166_2":"MN"},"countryName":"United States","fcodeName":"park","adminName1":"Minnesota","lat":"45.34611","fcode":"PRK"},{"adminCode1":"MN","lng":"-93.55913","geonameId":5042238,"toponymName":"Prairie Hill Lake","countryId":"6252001","fcl":"H","population":0,"countryCode":"US","name":"Prairie Hill Lake","fclName":"stream, lake, ...","adminCodes1":{"ISO3166_2":"MN"},"countryName":"United States","fcodeName":"lake","adminName1":"Minnesota","lat":"45.47608","fcode":"LK"},{"adminCode1":"MN","lng":"-93.93023","geonameId":5042254,"toponymName":"Prairie Lake","countryId":"6252001","fcl":"H","population":0,"countryCode":"US","name":"Prairie Lake","fclName":"stream, lake, ...","adminCodes1":{"ISO3166_2":"MN"},"countryName":"United States","fcodeName":"lake","adminName1":"Minnesota","lat":"45.43441","fcode":"LK"},{"adminCode1":"MN","lng":"-94.14278","geonameId":5042908,"toponymName":"Renaissance Fountain with Cranes","countryId":"6252001","fcl":"L","population":0,"countryCode":"US","name":"Renaissance Fountain with Cranes","fclName":"parks,area, ...","adminCodes1":{"ISO3166_2":"MN"},"countryName":"United States","fcodeName":"park","adminName1":"Minnesota","lat":"45.54972","fcode":"PRK"},{"adminCode1":"MN","lng":"-93.58441","geonameId":5043089,"toponymName":"Rice Lake","countryId":"6252001","fcl":"H","population":0,"countryCode":"US","name":"Rice Lake","fclName":"stream, lake, ...","adminCodes1":{"ISO3166_2":"MN"},"countryName":"United States","fcodeName":"lake","adminName1":"Minnesota","lat":"45.38413","fcode":"LK"},{"adminCode1":"MN","lng":"-93.9366","geonameId":5043090,"toponymName":"Rice Lake","countryId":"6252001","fcl":"H","population":0,"countryCode":"US","name":"Rice Lake","fclName":"stream, lake, ...","adminCodes1":{"ISO3166_2":"MN"},"countryName":"United States","fcodeName":"lake","adminName1":"Minnesota","lat":"45.54064","fcode":"LK"},{"adminCode1":"MN","lng":"-93.67228","geonameId":5043091,"toponymName":"Rice Lake","countryId":"6252001","fcl":"H","population":0,"countryCode":"US","name":"Rice Lake","fclName":"stream, lake, ...","adminCodes1":{"ISO3166_2":"MN"},"countryName":"United States","fcodeName":"lake","adminName1":"Minnesota","lat":"45.48605","fcode":"LK"},{"adminCode1":"MN","lng":"-93.56889","geonameId":5043245,"toponymName":"Ridgewood East Park","countryId":"6252001","fcl":"L","population":0,"countryCode":"US","name":"Ridgewood East Park","fclName":"parks,area, ...","adminCodes1":{"ISO3166_2":"MN"},"countryName":"United States","fcodeName":"park","adminName1":"Minnesota","lat":"45.32083","fcode":"PRK"},{"adminCode1":"MN","lng":"-93.56639","geonameId":5043330,"toponymName":"Rivers Edge Commons","countryId":"6252001","fcl":"L","population":0,"countryCode":"US","name":"Rivers Edge Commons","fclName":"parks,area, ...","adminCodes1":{"ISO3166_2":"MN"},"countryName":"United States","fcodeName":"park","adminName1":"Minnesota","lat":"45.30361","fcode":"PRK"},{"adminCode1":"MN","lng":"-94.14416","geonameId":5043388,"toponymName":"Riverside Park","countryId":"6252001","fcl":"L","population":0,"countryCode":"US","name":"Riverside Park","fclName":"parks,area, ...","adminCodes1":{"ISO3166_2":"MN"},"countryName":"United States","fcodeName":"park","adminName1":"Minnesota","lat":"45.54635","fcode":"PRK"},{"adminCode1":"MN","lng":"-93.93526","geonameId":5044037,"toponymName":"Rush Lake","countryId":"6252001","fcl":"H","population":0,"countryCode":"US","name":"Rush Lake","fclName":"stream, lake, ...","adminCodes1":{"ISO3166_2":"MN"},"countryName":"United States","fcodeName":"lake","adminName1":"Minnesota","lat":"45.4908","fcode":"LK"},{"adminCode1":"MN","lng":"-94.11944","geonameId":5044421,"toponymName":"Saint Cloud Historical Marker","countryId":"6252001","fcl":"L","population":0,"countryCode":"US","name":"Saint Cloud Historical Marker","fclName":"parks,area, ...","adminCodes1":{"ISO3166_2":"MN"},"countryName":"United States","fcodeName":"park","adminName1":"Minnesota","lat":"45.55","fcode":"PRK"},{"adminCode1":"MN","lng":"-93.82064","geonameId":5045963,"toponymName":"Township of Santiago","countryId":"6252001","fcl":"A","population":0,"countryCode":"US","name":"Santiago Township","fclName":"country, state, region,...","adminCodes1":{"ISO3166_2":"MN"},"countryName":"United States","fcodeName":"third-order administrative division","adminName1":"Minnesota","lat":"45.516","fcode":"ADM3"},{"adminCode1":"MN","lng":"-93.545","geonameId":5046858,"toponymName":"Sedge Meadow Park","countryId":"6252001","fcl":"L","population":0,"countryCode":"US","name":"Sedge Meadow Park","fclName":"parks,area, ...","adminCodes1":{"ISO3166_2":"MN"},"countryName":"United States","fcodeName":"park","adminName1":"Minnesota","lat":"45.33194","fcode":"PRK"},{"adminCode1":"MN","lng":"-94.13722","geonameId":5046873,"toponymName":"Selke Field","countryId":"6252001","fcl":"L","population":0,"countryCode":"US","name":"Selke Field","fclName":"parks,area, ...","adminCodes1":{"ISO3166_2":"MN"},"countryName":"United States","fcodeName":"park","adminName1":"Minnesota","lat":"45.55","fcode":"PRK"},{"adminCode1":"MN","lng":"-94.12778","geonameId":5048757,"toponymName":"Sterling Heights Park","countryId":"6252001","fcl":"L","population":0,"countryCode":"US","name":"Sterling Heights Park","fclName":"parks,area, ...","adminCodes1":{"ISO3166_2":"MN"},"countryName":"United States","fcodeName":"park","adminName1":"Minnesota","lat":"45.53472","fcode":"PRK"},{"adminCode1":"MN","lng":"-94.04437","geonameId":5048810,"toponymName":"Stickney Lake","countryId":"6252001","fcl":"H","population":0,"countryCode":"US","name":"Stickney Lake","fclName":"stream, lake, ...","adminCodes1":{"ISO3166_2":"MN"},"countryName":"United States","fcodeName":"lake","adminName1":"Minnesota","lat":"45.45775","fcode":"LK"},{"adminCode1":"MN","lng":"-93.52114","geonameId":5048868,"toponymName":"Stone Lake","countryId":"6252001","fcl":"H","population":0,"countryCode":"US","name":"Stone Lake","fclName":"stream, lake, ...","adminCodes1":{"ISO3166_2":"MN"},"countryName":"United States","fcodeName":"lake","adminName1":"Minnesota","lat":"45.4013","fcode":"LK"},{"adminCode1":"MN","lng":"-93.78818","geonameId":5048976,"toponymName":"Strand Lake","countryId":"6252001","fcl":"H","population":0,"countryCode":"US","name":"Strand Lake","fclName":"stream, lake, ...","adminCodes1":{"ISO3166_2":"MN"},"countryName":"United States","fcodeName":"lake","adminName1":"Minnesota","lat":"45.36314","fcode":"LK"},{"adminCode1":"MN","lng":"-94.14082","geonameId":5049628,"toponymName":"Talahi Park","countryId":"6252001","fcl":"L","population":0,"countryCode":"US","name":"Talahi Park","fclName":"parks,area, ...","adminCodes1":{"ISO3166_2":"MN"},"countryName":"United States","fcodeName":"park","adminName1":"Minnesota","lat":"45.54191","fcode":"PRK"},{"adminCode1":"MN","lng":"-93.93397","geonameId":5032487,"toponymName":"Julia Lake","countryId":"6252001","fcl":"H","population":0,"countryCode":"US","name":"Julia Lake","fclName":"stream, lake, ...","adminCodes1":{"ISO3166_2":"MN"},"countryName":"United States","fcodeName":"lake","adminName1":"Minnesota","lat":"45.49801","fcode":"LK"},{"adminCode1":"MN","lng":"-93.75245","geonameId":5032982,"toponymName":"Keller Lake","countryId":"6252001","fcl":"H","population":0,"countryCode":"US","name":"Keller Lake","fclName":"stream, lake, ...","adminCodes1":{"ISO3166_2":"MN"},"countryName":"United States","fcodeName":"lake","adminName1":"Minnesota","lat":"45.32959","fcode":"LK"},{"adminCode1":"MN","lng":"-93.5375","geonameId":5032988,"toponymName":"Kelley Farm Historical Marker","countryId":"6252001","fcl":"L","population":0,"countryCode":"US","name":"Kelley Farm Historical Marker","fclName":"parks,area, ...","adminCodes1":{"ISO3166_2":"MN"},"countryName":"United States","fcodeName":"park","adminName1":"Minnesota","lat":"45.25833","fcode":"PRK"},{"adminCode1":"MN","lng":"-93.74944","geonameId":5033108,"toponymName":"Kerber Lake","countryId":"6252001","fcl":"H","population":0,"countryCode":"US","name":"Kerber Lake","fclName":"stream, lake, ...","adminCodes1":{"ISO3166_2":"MN"},"countryName":"United States","fcodeName":"lake","adminName1":"Minnesota","lat":"45.35278","fcode":"LK"},{"adminCode1":"MN","lng":"-94.13333","geonameId":5033176,"toponymName":"Kiawanis Park","countryId":"6252001","fcl":"L","population":0,"countryCode":"US","name":"Kiawanis Park","fclName":"parks,area, ...","adminCodes1":{"ISO3166_2":"MN"},"countryName":"United States","fcodeName":"park","adminName1":"Minnesota","lat":"45.54139","fcode":"PRK"},{"adminCode1":"MN","lng":"-93.76111","geonameId":5033870,"toponymName":"Lake Mitchell Park","countryId":"6252001","fcl":"L","population":0,"countryCode":"US","name":"Lake Mitchell Park","fclName":"parks,area, ...","adminCodes1":{"ISO3166_2":"MN"},"countryName":"United States","fcodeName":"park","adminName1":"Minnesota","lat":"45.35111","fcode":"PRK"},{"adminCode1":"MN","lng":"-93.77083","geonameId":5033905,"toponymName":"Lake Ridge Park","countryId":"6252001","fcl":"L","population":0,"countryCode":"US","name":"Lake Ridge Park","fclName":"parks,area, ...","adminCodes1":{"ISO3166_2":"MN"},"countryName":"United States","fcodeName":"park","adminName1":"Minnesota","lat":"45.35361","fcode":"PRK"},{"adminCode1":"MN","lng":"-93.75694","geonameId":5034010,"toponymName":"Lakeside Park","countryId":"6252001","fcl":"L","population":0,"countryCode":"US","name":"Lakeside Park","fclName":"parks,area, ...","adminCodes1":{"ISO3166_2":"MN"},"countryName":"United States","fcodeName":"park","adminName1":"Minnesota","lat":"45.33472","fcode":"PRK"},{"adminCode1":"MN","lng":"-93.78969","geonameId":5034120,"toponymName":"Landis Lake","countryId":"6252001","fcl":"H","population":0,"countryCode":"US","name":"Landis Lake","fclName":"stream, lake, ...","adminCodes1":{"ISO3166_2":"MN"},"countryName":"United States","fcodeName":"lake","adminName1":"Minnesota","lat":"45.3483","fcode":"LK"},{"adminCode1":"MN","lng":"-93.66121","geonameId":5034189,"toponymName":"Larsen Slough","countryId":"6252001","fcl":"H","population":0,"countryCode":"US","name":"Larsen Slough","fclName":"stream, lake, ...","adminCodes1":{"ISO3166_2":"MN"},"countryName":"United States","fcodeName":"lake","adminName1":"Minnesota","lat":"45.40903","fcode":"LK"},{"adminCode1":"MN","lng":"-93.56889","geonameId":5034793,"toponymName":"Lions Park","countryId":"6252001","fcl":"L","population":0,"countryCode":"US","name":"Lions Park","fclName":"parks,area, ...","adminCodes1":{"ISO3166_2":"MN"},"countryName":"United States","fcodeName":"park","adminName1":"Minnesota","lat":"45.30694","fcode":"PRK"},{"adminCode1":"MN","lng":"-93.75056","geonameId":5034794,"toponymName":"Lions Park","countryId":"6252001","fcl":"L","population":0,"countryCode":"US","name":"Lions Park","fclName":"parks,area, ...","adminCodes1":{"ISO3166_2":"MN"},"countryName":"United States","fcodeName":"park","adminName1":"Minnesota","lat":"45.37556","fcode":"PRK"},{"adminCode1":"MN","lng":"-93.62159","geonameId":5034950,"toponymName":"Little Diann Lake","countryId":"6252001","fcl":"H","population":0,"countryCode":"US","name":"Little Diann Lake","fclName":"stream, lake, ...","adminCodes1":{"ISO3166_2":"MN"},"countryName":"United States","fcodeName":"lake","adminName1":"Minnesota","lat":"45.47834","fcode":"LK"},{"adminCode1":"MN","lng":"-93.56878","geonameId":5035364,"toponymName":"Township of Livonia","countryId":"6252001","fcl":"A","population":0,"countryCode":"US","name":"Livonia Township","fclName":"country, state, region,...","adminCodes1":{"ISO3166_2":"MN"},"countryName":"United States","fcodeName":"third-order administrative division","adminName1":"Minnesota","lat":"45.42732","fcode":"ADM3"},{"adminCode1":"MN","lng":"-94.07281","geonameId":5035572,"toponymName":"Long Lake","countryId":"6252001","fcl":"H","population":0,"countryCode":"US","name":"Long Lake","fclName":"stream, lake, ...","adminCodes1":{"ISO3166_2":"MN"},"countryName":"United States","fcodeName":"lake","adminName1":"Minnesota","lat":"45.46955","fcode":"LK"},{"adminCode1":"MN","lng":"-93.56081","geonameId":5035633,"toponymName":"Long Pond","countryId":"6252001","fcl":"H","population":0,"countryCode":"US","name":"Long Pond","fclName":"stream, lake, ...","adminCodes1":{"ISO3166_2":"MN"},"countryName":"United States","fcodeName":"lake","adminName1":"Minnesota","lat":"45.51178","fcode":"LK"},{"adminCode1":"MN","lng":"-93.5375","geonameId":5035979,"toponymName":"Lucy Earle Kelley Historical Marker","countryId":"6252001","fcl":"L","population":0,"countryCode":"US","name":"Lucy Earle Kelley Historical Marker","fclName":"parks,area, ...","adminCodes1":{"ISO3166_2":"MN"},"countryName":"United States","fcodeName":"park","adminName1":"Minnesota","lat":"45.25833","fcode":"PRK"},{"adminCode1":"MN","lng":"-93.77886","geonameId":5036011,"toponymName":"Lundberg Slough","countryId":"6252001","fcl":"H","population":0,"countryCode":"US","name":"Lundberg Slough","fclName":"stream, lake, ...","adminCodes1":{"ISO3166_2":"MN"},"countryName":"United States","fcodeName":"lake","adminName1":"Minnesota","lat":"45.41124","fcode":"LK"},{"adminCode1":"MN","lng":"-93.55722","geonameId":5027812,"toponymName":"Geology of the Elk River Region Historical Marker","countryId":"6252001","fcl":"L","population":0,"countryCode":"US","name":"Geology of the Elk River Region Historical Marker","fclName":"parks,area, ...","adminCodes1":{"ISO3166_2":"MN"},"countryName":"United States","fcodeName":"park","adminName1":"Minnesota","lat":"45.29","fcode":"PRK"},{"adminCode1":"MN","lng":"-93.61193","geonameId":5028307,"toponymName":"Goose Lake","countryId":"6252001","fcl":"H","population":0,"countryCode":"US","name":"Goose Lake","fclName":"stream, lake, ...","adminCodes1":{"ISO3166_2":"MN"},"countryName":"United States","fcodeName":"lake","adminName1":"Minnesota","lat":"45.4881","fcode":"LK"},{"adminCode1":"MN","lng":"-94.06983","geonameId":5029550,"toponymName":"Township of Haven","countryId":"6252001","fcl":"A","population":0,"countryCode":"US","name":"Haven Township","fclName":"country, state, region,...","adminCodes1":{"ISO3166_2":"MN"},"countryName":"United States","fcodeName":"third-order administrative division","adminName1":"Minnesota","lat":"45.51314","fcode":"ADM3"},{"adminCode1":"MN","lng":"-93.61683","geonameId":5029818,"toponymName":"Helene Lake","countryId":"6252001","fcl":"H","population":0,"countryCode":"US","name":"Helene Lake","fclName":"stream, lake, ...","adminCodes1":{"ISO3166_2":"MN"},"countryName":"United States","fcodeName":"lake","adminName1":"Minnesota","lat":"45.47528","fcode":"LK"},{"adminCode1":"MN","lng":"-93.78665","geonameId":5030027,"toponymName":"Hidden Lake","countryId":"6252001","fcl":"H","population":0,"countryCode":"US","name":"Hidden Lake","fclName":"stream, lake, ...","adminCodes1":{"ISO3166_2":"MN"},"countryName":"United States","fcodeName":"lake","adminName1":"Minnesota","lat":"45.36764","fcode":"LK"},{"adminCode1":"MN","lng":"-93.54556","geonameId":5030075,"toponymName":"Highland East Park","countryId":"6252001","fcl":"L","population":0,"countryCode":"US","name":"Highland East Park","fclName":"parks,area, ...","adminCodes1":{"ISO3166_2":"MN"},"countryName":"United States","fcodeName":"park","adminName1":"Minnesota","lat":"45.32639","fcode":"PRK"},{"adminCode1":"MN","lng":"-93.53611","geonameId":5030209,"toponymName":"Hillside City Park","countryId":"6252001","fcl":"L","population":0,"countryCode":"US","name":"Hillside City Park","fclName":"parks,area, ...","adminCodes1":{"ISO3166_2":"MN"},"countryName":"United States","fcodeName":"park","adminName1":"Minnesota","lat":"45.29722","fcode":"PRK"},{"adminCode1":"MN","lng":"-93.81712","geonameId":5031934,"toponymName":"Jim Lake","countryId":"6252001","fcl":"H","population":0,"countryCode":"US","name":"Jim Lake","fclName":"stream, lake, ...","adminCodes1":{"ISO3166_2":"MN"},"countryName":"United States","fcodeName":"lake","adminName1":"Minnesota","lat":"45.48739","fcode":"LK"},{"adminCode1":"MN","lng":"-93.7576","geonameId":5032072,"toponymName":"Johnson Slough","countryId":"6252001","fcl":"H","population":0,"countryCode":"US","name":"Johnson Slough","fclName":"stream, lake, ...","adminCodes1":{"ISO3166_2":"MN"},"countryName":"United States","fcodeName":"lake","adminName1":"Minnesota","lat":"45.46921","fcode":"LK"},{"adminCode1":"MN","lng":"-93.98214","geonameId":5032099,"toponymName":"Jones Lake","countryId":"6252001","fcl":"H","population":0,"countryCode":"US","name":"Jones Lake","fclName":"stream, lake, ...","adminCodes1":{"ISO3166_2":"MN"},"countryName":"United States","fcodeName":"lake","adminName1":"Minnesota","lat":"45.42833","fcode":"LK"},{"adminCode1":"MN","lng":"-93.60778","geonameId":5032110,"toponymName":"Joplin Park","countryId":"6252001","fcl":"L","population":0,"countryCode":"US","name":"Joplin Park","fclName":"parks,area, ...","adminCodes1":{"ISO3166_2":"MN"},"countryName":"United States","fcodeName":"park","adminName1":"Minnesota","lat":"45.29722","fcode":"PRK"},{"adminCode1":"MN","lng":"-93.68163","geonameId":5032127,"toponymName":"Lake Josephine","countryId":"6252001","fcl":"H","population":0,"countryCode":"US","name":"Lake Josephine","fclName":"stream, lake, ...","adminCodes1":{"ISO3166_2":"MN"},"countryName":"United States","fcodeName":"lake","adminName1":"Minnesota","lat":"45.45913","fcode":"LK"},{"adminCode1":"MN","lng":"-93.77776","geonameId":5050008,"toponymName":"Thompson Lake","countryId":"6252001","fcl":"H","population":0,"countryCode":"US","name":"Thompson Lake","fclName":"stream, lake, ...","adminCodes1":{"ISO3166_2":"MN"},"countryName":"United States","fcodeName":"lake","adminName1":"Minnesota","lat":"45.35856","fcode":"LK"},{"adminCode1":"MN","lng":"-93.5875","geonameId":5050223,"toponymName":"Top of the World Park","countryId":"6252001","fcl":"L","population":0,"countryCode":"US","name":"Top of the World Park","fclName":"parks,area, ...","adminCodes1":{"ISO3166_2":"MN"},"countryName":"United States","fcodeName":"park","adminName1":"Minnesota","lat":"45.33194","fcode":"PRK"},{"adminCode1":"MN","lng":"-93.53611","geonameId":5050564,"toponymName":"Trott Brook Park","countryId":"6252001","fcl":"L","population":0,"countryCode":"US","name":"Trott Brook Park","fclName":"parks,area, ...","adminCodes1":{"ISO3166_2":"MN"},"countryName":"United States","fcodeName":"park","adminName1":"Minnesota","lat":"45.305","fcode":"PRK"},{"adminCode1":"MN","lng":"-93.5186","geonameId":5052403,"toponymName":"West Hunter Lake","countryId":"6252001","fcl":"H","population":0,"countryCode":"US","name":"West Hunter Lake","fclName":"stream, lake, ...","adminCodes1":{"ISO3166_2":"MN"},"countryName":"United States","fcodeName":"lake","adminName1":"Minnesota","lat":"45.43162","fcode":"LK"},{"adminCode1":"MN","lng":"-93.79234","geonameId":5053337,"toponymName":"Wood Lake","countryId":"6252001","fcl":"H","population":0,"countryCode":"US","name":"Wood Lake","fclName":"stream, lake, ...","adminCodes1":{"ISO3166_2":"MN"},"countryName":"United States","fcodeName":"lake","adminName1":"Minnesota","lat":"45.35201","fcode":"LK"},{"adminCode1":"MN","lng":"-93.6","geonameId":5053397,"toponymName":"Woodland Trails Park","countryId":"6252001","fcl":"L","population":0,"countryCode":"US","name":"Woodland Trails Park","fclName":"parks,area, ...","adminCodes1":{"ISO3166_2":"MN"},"countryName":"United States","fcodeName":"park","adminName1":"Minnesota","lat":"45.34028","fcode":"PRK"},{"adminCode1":"MN","lng":"-93.51944","geonameId":5053608,"toponymName":"Youth Athletic Complex","countryId":"6252001","fcl":"L","population":0,"countryCode":"US","name":"Youth Athletic Complex","fclName":"parks,area, ...","adminCodes1":{"ISO3166_2":"MN"},"countryName":"United States","fcodeName":"park","adminName1":"Minnesota","lat":"45.26944","fcode":"PRK"},{"adminCode1":"MN","lng":"-93.59222","geonameId":5053646,"toponymName":"City of Zimmerman","countryId":"6252001","fcl":"A","population":0,"countryCode":"US","name":"City of Zimmerman","fclName":"country, state, region,...","adminCodes1":{"ISO3166_2":"MN"},"countryName":"United States","fcodeName":"third-order administrative division","adminName1":"Minnesota","lat":"45.44389","fcode":"ADM3"},{"adminCode1":"MN","lng":"-93.76857","geonameId":5023851,"toponymName":"Danzel Slough","countryId":"6252001","fcl":"H","population":0,"countryCode":"US","name":"Danzel Slough","fclName":"stream, lake, ...","adminCodes1":{"ISO3166_2":"MN"},"countryName":"United States","fcodeName":"lake","adminName1":"Minnesota","lat":"45.42789","fcode":"LK"},{"adminCode1":"MN","lng":"-93.55556","geonameId":5024111,"toponymName":"Deerfield Hill Park","countryId":"6252001","fcl":"L","population":0,"countryCode":"US","name":"Deerfield Hill Park","fclName":"parks,area, ...","adminCodes1":{"ISO3166_2":"MN"},"countryName":"United States","fcodeName":"park","adminName1":"Minnesota","lat":"45.32028","fcode":"PRK"},{"adminCode1":"MN","lng":"-93.60797","geonameId":5024306,"toponymName":"Diann Lake","countryId":"6252001","fcl":"H","population":0,"countryCode":"US","name":"Diann Lake","fclName":"stream, lake, ...","adminCodes1":{"ISO3166_2":"MN"},"countryName":"United States","fcodeName":"lake","adminName1":"Minnesota","lat":"45.47901","fcode":"LK"}]}
