{"totalResultsCount":1879,"geonames":[{"adminCode1":"AR","lng":"-94.12881","geonameId":4132093,"toponymName":"Springdale","countryId":"6252001","fcl":"P","population":77859,"countryCode":"US","name":"Springdale","fclName":"city, village,...","adminCodes1":{"ISO3166_2":"AR"},"countryName":"United States","fcodeName":"populated place","adminName1":"Arkansas","lat":"36.18674","fcode":"PPL"},{"adminCode1":"IL","lng":"-89.89732","geonameId":4249910,"toponymName":"Shiloh","countryId":"6252001","fcl":"P","population":12961,"countryCode":"US","name":"Shiloh","fclName":"city, village,...","adminCodes1":{"ISO3166_2":"IL"},"countryName":"United States","fcodeName":"populated place","adminName1":"Illinois","lat":"38.56144","fcode":"PPL"},{"adminCode1":"IL","lng":"-89.85035","geonameId":7259489,"toponymName":"Scott Air Force Base","countryId":"6252001","fcl":"P","population":3612,"countryCode":"US","name":"Scott Air Force Base","fclName":"city, village,...","adminCodes1":{"ISO3166_2":"IL"},"countryName":"United States","fcodeName":"populated place","adminName1":"Illinois","lat":"38.5427","fcode":"PPL"},{"adminCode1":"IL","lng":"-89.84693","geonameId":9670986,"toponymName":"MidAmerica St. Louis Airport","countryId":"6252001","fcl":"S","population":0,"countryCode":"US","name":"MidAmerica St. Louis Airport","fclName":"spot, building, farm","adminCodes1":{"ISO3166_2":"IL"},"countryName":"United States","fcodeName":"airport","adminName1":"Illinois","lat":"38.54502","fcode":"AIRP"},{"adminCode1":"TN","lng":"-88.34211","geonameId":4657330,"toponymName":"Shiloh National Battlefield","countryId":"6252001","fcl":"L","population":0,"countryCode":"US","name":"Shiloh National Battlefield","fclName":"parks,area, ...","adminCodes1":{"ISO3166_2":"TN"},"countryName":"United States","fcodeName":"park","adminName1":"Tennessee","lat":"35.13851","fcode":"PRK"},{"adminCode1":"OH","lng":"-82.60045","geonameId":5171968,"toponymName":"Shiloh","countryId":"6252001","fcl":"P","population":630,"countryCode":"US","name":"Shiloh","fclName":"city, village,...","adminCodes1":{"ISO3166_2":"OH"},"countryName":"United States","fcodeName":"populated place","adminName1":"Ohio","lat":"40.96672","fcode":"PPL"},{"adminCode1":"NJ","lng":"-75.29908","geonameId":4504091,"toponymName":"Shiloh","countryId":"6252001","fcl":"P","population":505,"countryCode":"US","name":"Shiloh","fclName":"city, village,...","adminCodes1":{"ISO3166_2":"NJ"},"countryName":"United States","fcodeName":"populated place","adminName1":"New Jersey","lat":"39.459","fcode":"PPL"},{"adminCode1":"GA","lng":"-84.69604","geonameId":4222433,"toponymName":"Shiloh","countryId":"6252001","fcl":"P","population":443,"countryCode":"US","name":"Shiloh","fclName":"city, village,...","adminCodes1":{"ISO3166_2":"GA"},"countryName":"United States","fcodeName":"populated place","adminName1":"Georgia","lat":"32.81013","fcode":"PPL"},{"adminCode1":"NC","lng":"-80.94938","geonameId":4493320,"toponymName":"Statesville Regional Airport","countryId":"6252001","fcl":"S","population":0,"countryCode":"US","name":"Statesville Regional Airport","fclName":"spot, building, farm","adminCodes1":{"ISO3166_2":"NC"},"countryName":"United States","fcodeName":"airport","adminName1":"North Carolina","lat":"35.76697","fcode":"AIRP"},{"adminCode1":"TN","lng":"-88.36171","geonameId":4657256,"toponymName":"Shiloh","countryId":"6252001","fcl":"P","population":0,"countryCode":"US","name":"Shiloh","fclName":"city, village,...","adminCodes1":{"ISO3166_2":"TN"},"countryName":"United States","fcodeName":"populated place","adminName1":"Tennessee","lat":"35.11536","fcode":"PPL"},{"adminCode1":"PA","lng":"-76.79719","geonameId":4561215,"toponymName":"Shiloh","countryId":"6252001","fcl":"P","population":11218,"countryCode":"US","name":"Shiloh","fclName":"city, village,...","adminCodes1":{"ISO3166_2":"PA"},"countryName":"United States","fcodeName":"populated place","adminName1":"Pennsylvania","lat":"39.97815","fcode":"PPL"},{"adminCode1":"OH","lng":"-84.23175","geonameId":7259497,"toponymName":"Shiloh","countryId":"6252001","fcl":"P","population":0,"countryCode":"US","name":"Shiloh","fclName":"city, village,...","adminCodes1":{"ISO3166_2":"OH"},"countryName":"United States","fcodeName":"populated place","adminName1":"Ohio","lat":"39.81589","fcode":"PPL"},{"adminCode1":"GA","lng":"-84.69896","geonameId":7170816,"toponymName":"City of Shiloh","countryId":"6252001","fcl":"A","population":445,"countryCode":"US","name":"City of Shiloh","fclName":"country, state, region,...","adminCodes1":{"ISO3166_2":"GA"},"countryName":"United States","fcodeName":"third-order administrative division","adminName1":"Georgia","lat":"32.81198","fcode":"ADM3"},{"adminCode1":"NC","lng":"-79.85101","geonameId":4488576,"toponymName":"Rockingham County NC Shiloh Airport","countryId":"6252001","fcl":"S","population":0,"countryCode":"US","name":"Rockingham County NC Shiloh Airport","fclName":"spot, building, farm","adminCodes1":{"ISO3166_2":"NC"},"countryName":"United States","fcodeName":"airport","adminName1":"North Carolina","lat":"36.43722","fcode":"AIRP"},{"adminCode1":"AL","lng":"-85.87969","geonameId":4089709,"toponymName":"Shiloh","countryId":"6252001","fcl":"P","population":275,"countryCode":"US","name":"Shiloh","fclName":"city, village,...","adminCodes1":{"ISO3166_2":"AL"},"countryName":"United States","fcodeName":"populated place","adminName1":"Alabama","lat":"34.46259","fcode":"PPL"},{"adminCode1":"IL","lng":"-89.62121","geonameId":4249941,"toponymName":"Shiloh Hill","countryId":"6252001","fcl":"P","population":0,"countryCode":"US","name":"Shiloh Hill","fclName":"city, village,...","adminCodes1":{"ISO3166_2":"IL"},"countryName":"United States","fcodeName":"populated place","adminName1":"Illinois","lat":"37.92533","fcode":"PPL"},{"adminCode1":"IA","lng":"-92.93853","geonameId":4881170,"toponymName":"Wellsburg","countryId":"6252001","fcl":"P","population":707,"countryCode":"US","name":"Wellsburg","fclName":"city, village,...","adminCodes1":{"ISO3166_2":"IA"},"countryName":"United States","fcodeName":"populated place","adminName1":"Iowa","lat":"42.45915","fcode":"PPL"},{"adminCode1":"AR","lng":"-91.06091","geonameId":4130962,"toponymName":"Township of Shiloh","countryId":"6252001","fcl":"A","population":0,"countryCode":"US","name":"Shiloh Township","fclName":"country, state, region,...","adminCodes1":{"ISO3166_2":"AR"},"countryName":"United States","fcodeName":"third-order administrative division","adminName1":"Arkansas","lat":"36.30541","fcode":"ADM3"},{"adminCode1":"IL","lng":"-89.87506","geonameId":4249964,"toponymName":"Township of Shiloh Valley","countryId":"6252001","fcl":"A","population":0,"countryCode":"US","name":"Shiloh Valley Township","fclName":"country, state, region,...","adminCodes1":{"ISO3166_2":"IL"},"countryName":"United States","fcodeName":"third-order administrative division","adminName1":"Illinois","lat":"38.52687","fcode":"ADM3"},{"adminCode1":"KS","lng":"-95.45247","geonameId":4279335,"toponymName":"Township of Shiloh","countryId":"6252001","fcl":"A","population":0,"countryCode":"US","name":"Shiloh Township","fclName":"country, state, region,...","adminCodes1":{"ISO3166_2":"KS"},"countryName":"United States","fcodeName":"third-order administrative division","adminName1":"Kansas","lat":"37.42761","fcode":"ADM3"},{"adminCode1":"IA","lng":"-92.94454","geonameId":4876285,"toponymName":"Township of Shiloh","countryId":"6252001","fcl":"A","population":0,"countryCode":"US","name":"Shiloh Township","fclName":"country, state, region,...","adminCodes1":{"ISO3166_2":"IA"},"countryName":"United States","fcodeName":"third-order administrative division","adminName1":"Iowa","lat":"42.42709","fcode":"ADM3"},{"adminCode1":"MD","lng":"-75.87077","geonameId":4369456,"toponymName":"Shiloh Church","countryId":"6252001","fcl":"P","population":0,"countryCode":"US","name":"Shiloh Church","fclName":"city, village,...","adminCodes1":{"ISO3166_2":"MD"},"countryName":"United States","fcodeName":"populated place","adminName1":"Maryland","lat":"38.58873","fcode":"PPL"},{"adminCode1":"TX","lng":"-94.86216","geonameId":4728381,"toponymName":"Shiloh","countryId":"6252001","fcl":"P","population":0,"countryCode":"US","name":"Shiloh","fclName":"city, village,...","adminCodes1":{"ISO3166_2":"TX"},"countryName":"United States","fcodeName":"populated place","adminName1":"Texas","lat":"32.57181","fcode":"PPL"},{"adminCode1":"IN","lng":"-87.29252","geonameId":4264714,"toponymName":"Shiloh","countryId":"6252001","fcl":"P","population":0,"countryCode":"US","name":"Shiloh","fclName":"city, village,...","adminCodes1":{"ISO3166_2":"IN"},"countryName":"United States","fcodeName":"populated place","adminName1":"Indiana","lat":"39.03893","fcode":"PPL"},{"adminCode1":"KY","lng":"-88.21365","geonameId":4308204,"toponymName":"Shiloh","countryId":"6252001","fcl":"P","population":0,"countryCode":"US","name":"Shiloh","fclName":"city, village,...","adminCodes1":{"ISO3166_2":"KY"},"countryName":"United States","fcodeName":"populated place","adminName1":"Kentucky","lat":"36.68589","fcode":"PPL"},{"adminCode1":"FL","lng":"-80.8045","geonameId":4172808,"toponymName":"Shiloh","countryId":"6252001","fcl":"P","population":0,"countryCode":"US","name":"Shiloh","fclName":"city, village,...","adminCodes1":{"ISO3166_2":"FL"},"countryName":"United States","fcodeName":"populated place","adminName1":"Florida","lat":"28.79055","fcode":"PPL"},{"adminCode1":"IL","lng":"-89.03257","geonameId":4253423,"toponymName":"Woodlawn","countryId":"6252001","fcl":"P","population":693,"countryCode":"US","name":"Woodlawn","fclName":"city, village,...","adminCodes1":{"ISO3166_2":"IL"},"countryName":"United States","fcodeName":"populated place","adminName1":"Illinois","lat":"38.33005","fcode":"PPL"},{"adminCode1":"NC","lng":"-76.08521","geonameId":4491341,"toponymName":"Shiloh","countryId":"6252001","fcl":"P","population":0,"countryCode":"US","name":"Shiloh","fclName":"city, village,...","adminCodes1":{"ISO3166_2":"NC"},"countryName":"United States","fcodeName":"populated place","adminName1":"North Carolina","lat":"36.27321","fcode":"PPL"},{"adminCode1":"ID","lng":"-116.39547","geonameId":5607110,"toponymName":"Shiloh","countryId":"6252001","fcl":"P","population":0,"countryCode":"US","name":"Shiloh","fclName":"city, village,...","adminCodes1":{"ISO3166_2":"ID"},"countryName":"United States","fcodeName":"populated place","adminName1":"Idaho","lat":"48.54493","fcode":"PPL"},{"adminCode1":"MI","lng":"-82.45668","geonameId":7314451,"toponymName":"Shiloh Baptist Church Historical Marker","countryId":"6252001","fcl":"L","population":0,"countryCode":"US","name":"Shiloh Baptist Church Historical Marker","fclName":"parks,area, ...","adminCodes1":{"ISO3166_2":"MI"},"countryName":"United States","fcodeName":"park","adminName1":"Michigan","lat":"42.94805","fcode":"PRK"},{"adminCode1":"MS","lng":"-89.97147","geonameId":4440988,"toponymName":"Pickens","countryId":"6252001","fcl":"P","population":1075,"countryCode":"US","name":"Pickens","fclName":"city, village,...","adminCodes1":{"ISO3166_2":"MS"},"countryName":"United States","fcodeName":"populated place","adminName1":"Mississippi","lat":"32.88374","fcode":"PPL"},{"adminCode1":"MS","lng":"-88.52892","geonameId":4419801,"toponymName":"Buckatunna","countryId":"6252001","fcl":"P","population":516,"countryCode":"US","name":"Buckatunna","fclName":"city, village,...","adminCodes1":{"ISO3166_2":"MS"},"countryName":"United States","fcodeName":"populated place","adminName1":"Mississippi","lat":"31.53905","fcode":"PPL"},{"adminCode1":"IL","lng":"-89.87316","geonameId":4247985,"toponymName":"Rentchler","countryId":"6252001","fcl":"P","population":34,"countryCode":"US","name":"Rentchler","fclName":"city, village,...","adminCodes1":{"ISO3166_2":"IL"},"countryName":"United States","fcodeName":"populated place","adminName1":"Illinois","lat":"38.49144","fcode":"PPL"},{"adminCode1":"IL","lng":"-88.99312","geonameId":4237267,"toponymName":"Drivers","countryId":"6252001","fcl":"P","population":0,"countryCode":"US","name":"Drivers","fclName":"city, village,...","adminCodes1":{"ISO3166_2":"IL"},"countryName":"United States","fcodeName":"populated place","adminName1":"Illinois","lat":"38.33061","fcode":"PPL"},{"adminCode1":"KS","lng":"-95.50776","geonameId":4275718,"toponymName":"Morehead","countryId":"6252001","fcl":"P","population":0,"countryCode":"US","name":"Morehead","fclName":"city, village,...","adminCodes1":{"ISO3166_2":"KS"},"countryName":"United States","fcodeName":"populated place","adminName1":"Kansas","lat":"37.38423","fcode":"PPL"},{"adminCode1":"IL","lng":"-87.85827","geonameId":4249965,"toponymName":"Township of Shiloh","countryId":"6252001","fcl":"A","population":0,"countryCode":"US","name":"Shiloh Township","fclName":"country, state, region,...","adminCodes1":{"ISO3166_2":"IL"},"countryName":"United States","fcodeName":"third-order administrative division","adminName1":"Illinois","lat":"39.74904","fcode":"ADM3"},{"adminCode1":"IL","lng":"-88.97934","geonameId":4249966,"toponymName":"Township of Shiloh","countryId":"6252001","fcl":"A","population":0,"countryCode":"US","name":"Shiloh Township","fclName":"country, state, region,...","adminCodes1":{"ISO3166_2":"IL"},"countryName":"United States","fcodeName":"third-order administrative division","adminName1":"Illinois","lat":"38.34381","fcode":"ADM3"},{"adminCode1":"MS","lng":"-88.59616","geonameId":4445826,"toponymName":"Shiloh","countryId":"6252001","fcl":"P","population":0,"countryCode":"US","name":"Shiloh","fclName":"city, village,...","adminCodes1":{"ISO3166_2":"MS"},"countryName":"United States","fcodeName":"populated place","adminName1":"Mississippi","lat":"34.134","fcode":"PPL"},{"adminCode1":"TN","lng":"-88.20754","geonameId":4657253,"toponymName":"Shiloh","countryId":"6252001","fcl":"P","population":0,"countryCode":"US","name":"Shiloh","fclName":"city, village,...","adminCodes1":{"ISO3166_2":"TN"},"countryName":"United States","fcodeName":"populated place","adminName1":"Tennessee","lat":"35.83284","fcode":"PPL"},{"adminCode1":"TN","lng":"-87.77725","geonameId":4657326,"toponymName":"Shiloh Hollow","countryId":"6252001","fcl":"T","population":0,"countryCode":"US","name":"Shiloh Hollow","fclName":"mountain,hill,rock,... ","adminCodes1":{"ISO3166_2":"TN"},"countryName":"United States","fcodeName":"valley","adminName1":"Tennessee","lat":"36.24117","fcode":"VAL"},{"adminCode1":"OH","lng":"-84.10882","geonameId":4524641,"toponymName":"Shiloh","countryId":"6252001","fcl":"P","population":0,"countryCode":"US","name":"Shiloh","fclName":"city, village,...","adminCodes1":{"ISO3166_2":"OH"},"countryName":"United States","fcodeName":"populated place","adminName1":"Ohio","lat":"39.23006","fcode":"PPL"},{"adminCode1":"GA","lng":"-83.22793","geonameId":4222435,"toponymName":"Shiloh","countryId":"6252001","fcl":"P","population":0,"countryCode":"US","name":"Shiloh","fclName":"city, village,...","adminCodes1":{"ISO3166_2":"GA"},"countryName":"United States","fcodeName":"populated place","adminName1":"Georgia","lat":"34.21705","fcode":"PPL"},{"adminCode1":"DC","lng":"-77.02442","geonameId":4140490,"toponymName":"Shiloh Baptist Church","countryId":"6252001","fcl":"S","population":0,"countryCode":"US","name":"Shiloh Baptist Church","fclName":"spot, building, farm","adminCodes1":{"ISO3166_2":"DC"},"countryName":"United States","fcodeName":"church","adminName1":"Washington, D.C.","lat":"38.90983","fcode":"CH"},{"adminCode1":"OH","lng":"-84.50444","geonameId":7125996,"toponymName":"Shiloh Knothole Fields","countryId":"6252001","fcl":"L","population":0,"countryCode":"US","name":"Shiloh Knothole Fields","fclName":"parks,area, ...","adminCodes1":{"ISO3166_2":"OH"},"countryName":"United States","fcodeName":"park","adminName1":"Ohio","lat":"39.465","fcode":"PRK"},{"adminCode1":"OH","lng":"-82.60146","geonameId":7167431,"toponymName":"Village of Shiloh","countryId":"6252001","fcl":"A","population":649,"countryCode":"US","name":"Village of Shiloh","fclName":"country, state, region,...","adminCodes1":{"ISO3166_2":"OH"},"countryName":"United States","fcodeName":"administrative division","adminName1":"Ohio","lat":"40.96939","fcode":"ADMD"},{"adminCode1":"IL","lng":"-89.91602","geonameId":7167432,"toponymName":"Village of Shiloh","countryId":"6252001","fcl":"A","population":12651,"countryCode":"US","name":"Village of Shiloh","fclName":"country, state, region,...","adminCodes1":{"ISO3166_2":"IL"},"countryName":"United States","fcodeName":"administrative division","adminName1":"Illinois","lat":"38.5538","fcode":"ADMD"},{"adminCode1":"AL","lng":"-85.87799","geonameId":7172538,"toponymName":"Town of Shiloh","countryId":"6252001","fcl":"A","population":274,"countryCode":"US","name":"Town of Shiloh","fclName":"country, state, region,...","adminCodes1":{"ISO3166_2":"AL"},"countryName":"United States","fcodeName":"administrative division","adminName1":"Alabama","lat":"34.46376","fcode":"ADMD"},{"adminCode1":"MN","lng":"-93.49944","geonameId":7119116,"toponymName":"Shiloh Park","countryId":"6252001","fcl":"L","population":0,"countryCode":"US","name":"Shiloh Park","fclName":"parks,area, ...","adminCodes1":{"ISO3166_2":"MN"},"countryName":"United States","fcodeName":"park","adminName1":"Minnesota","lat":"45.01028","fcode":"PRK"},{"adminCode1":"LA","lng":"-92.58487","geonameId":4341471,"toponymName":"Shiloh Gas Field","countryId":"6252001","fcl":"L","population":0,"countryCode":"US","name":"Shiloh Gas Field","fclName":"parks,area, ...","adminCodes1":{"ISO3166_2":"LA"},"countryName":"United States","fcodeName":"oilfield","adminName1":"Louisiana","lat":"32.82597","fcode":"OILF"},{"adminCode1":"OH","lng":"-84.22855","geonameId":4524642,"toponymName":"Shiloh","countryId":"6252001","fcl":"P","population":11272,"countryCode":"US","name":"Shiloh","fclName":"city, village,...","adminCodes1":{"ISO3166_2":"OH"},"countryName":"United States","fcodeName":"populated place","adminName1":"Ohio","lat":"39.81867","fcode":"PPL"},{"adminCode1":"OH","lng":"-84.22661","geonameId":4524657,"toponymName":"Shiloh Springs Park","countryId":"6252001","fcl":"L","population":0,"countryCode":"US","name":"Shiloh Springs Park","fclName":"parks,area, ...","adminCodes1":{"ISO3166_2":"OH"},"countryName":"United States","fcodeName":"park","adminName1":"Ohio","lat":"39.82311","fcode":"PRK"},{"adminCode1":"AL","lng":"-86.08773","geonameId":4089867,"toponymName":"Shiloh Lake","countryId":"6252001","fcl":"H","population":0,"countryCode":"US","name":"Shiloh Lake","fclName":"stream, lake, ...","adminCodes1":{"ISO3166_2":"AL"},"countryName":"United States","fcodeName":"lake","adminName1":"Alabama","lat":"31.37489","fcode":"LK"},{"adminCode1":"AR","lng":"-94.13215","geonameId":4130933,"toponymName":"Shiloh Historic District","countryId":"6252001","fcl":"L","population":0,"countryCode":"US","name":"Shiloh Historic District","fclName":"parks,area, ...","adminCodes1":{"ISO3166_2":"AR"},"countryName":"United States","fcodeName":"park","adminName1":"Arkansas","lat":"36.18619","fcode":"PRK"},{"adminCode1":"AR","lng":"-94.13159","geonameId":4130939,"toponymName":"Shiloh Memorial Park","countryId":"6252001","fcl":"L","population":0,"countryCode":"US","name":"Shiloh Memorial Park","fclName":"parks,area, ...","adminCodes1":{"ISO3166_2":"AR"},"countryName":"United States","fcodeName":"park","adminName1":"Arkansas","lat":"36.18758","fcode":"PRK"},{"adminCode1":"AR","lng":"-93.44351","geonameId":4130944,"toponymName":"Shiloh Oil and Gas Field","countryId":"6252001","fcl":"L","population":0,"countryCode":"US","name":"Shiloh Oil and Gas Field","fclName":"parks,area, ...","adminCodes1":{"ISO3166_2":"AR"},"countryName":"United States","fcodeName":"oilfield","adminName1":"Arkansas","lat":"33.37901","fcode":"OILF"},{"adminCode1":"AR","lng":"-93.13962","geonameId":4130945,"toponymName":"Shiloh Park","countryId":"6252001","fcl":"L","population":0,"countryCode":"US","name":"Shiloh Park","fclName":"parks,area, ...","adminCodes1":{"ISO3166_2":"AR"},"countryName":"United States","fcodeName":"park","adminName1":"Arkansas","lat":"35.31703","fcode":"PRK"},{"adminCode1":"AR","lng":"-92.14598","geonameId":4130947,"toponymName":"Shiloh Recreation Area","countryId":"6252001","fcl":"L","population":0,"countryCode":"US","name":"Shiloh Recreation Area","fclName":"parks,area, ...","adminCodes1":{"ISO3166_2":"AR"},"countryName":"United States","fcodeName":"park","adminName1":"Arkansas","lat":"35.53758","fcode":"PRK"},{"adminCode1":"IL","lng":"-89.89843","geonameId":4249939,"toponymName":"Shiloh Community Park","countryId":"6252001","fcl":"L","population":0,"countryCode":"US","name":"Shiloh Community Park","fclName":"parks,area, ...","adminCodes1":{"ISO3166_2":"IL"},"countryName":"United States","fcodeName":"park","adminName1":"Illinois","lat":"38.55755","fcode":"PRK"},{"adminCode1":"WI","lng":"-92.35573","geonameId":5273041,"toponymName":"Shiloh Lake","countryId":"6252001","fcl":"H","population":0,"countryCode":"US","name":"Shiloh Lake","fclName":"stream, lake, ...","adminCodes1":{"ISO3166_2":"WI"},"countryName":"United States","fcodeName":"lake","adminName1":"Wisconsin","lat":"45.40594","fcode":"LK"},{"adminCode1":"IL","lng":"-87.83341","geonameId":4911364,"toponymName":"Shiloh Park","countryId":"6252001","fcl":"L","population":0,"countryCode":"US","name":"Shiloh Park","fclName":"parks,area, ...","adminCodes1":{"ISO3166_2":"IL"},"countryName":"United States","fcodeName":"park","adminName1":"Illinois","lat":"42.45002","fcode":"PRK"},{"adminCode1":"IA","lng":"-93.83356","geonameId":4854485,"toponymName":"Drummer Boy at Shiloh Historical Marker","countryId":"6252001","fcl":"L","population":0,"countryCode":"US","name":"Drummer Boy at Shiloh Historical Marker","fclName":"parks,area, ...","adminCodes1":{"ISO3166_2":"IA"},"countryName":"United States","fcodeName":"park","adminName1":"Iowa","lat":"42.45831","fcode":"PRK"},{"adminCode1":"ME","lng":"-70.20735","geonameId":4978507,"toponymName":"Shiloh Pond","countryId":"6252001","fcl":"H","population":0,"countryCode":"US","name":"Shiloh Pond","fclName":"stream, lake, ...","adminCodes1":{"ISO3166_2":"ME"},"countryName":"United States","fcodeName":"lake","adminName1":"Maine","lat":"45.01257","fcode":"LK"},{"adminCode1":"MI","lng":"-83.04946","geonameId":8095941,"toponymName":"Greater Shiloh Baptist Church Historical Marker","countryId":"6252001","fcl":"L","population":0,"countryCode":"US","name":"Greater Shiloh Baptist Church Historical Marker","fclName":"parks,area, ...","adminCodes1":{"ISO3166_2":"MI"},"countryName":"United States","fcodeName":"park","adminName1":"Michigan","lat":"42.3487","fcode":"PRK"},{"adminCode1":"NC","lng":"-76.00267","geonameId":4491415,"toponymName":"Township of Shiloh","countryId":"6252001","fcl":"A","population":0,"countryCode":"US","name":"Shiloh Township","fclName":"country, state, region,...","adminCodes1":{"ISO3166_2":"NC"},"countryName":"United States","fcodeName":"third-order administrative division","adminName1":"North Carolina","lat":"36.21474","fcode":"ADM3"},{"adminCode1":"NC","lng":"-81.02256","geonameId":4491416,"toponymName":"Township of Shiloh","countryId":"6252001","fcl":"A","population":0,"countryCode":"US","name":"Shiloh Township","fclName":"country, state, region,...","adminCodes1":{"ISO3166_2":"NC"},"countryName":"United States","fcodeName":"third-order administrative division","adminName1":"North Carolina","lat":"35.76852","fcode":"ADM3"},{"adminCode1":"NJ","lng":"-75.29698","geonameId":4504093,"toponymName":"Borough of Shiloh","countryId":"6252001","fcl":"A","population":516,"countryCode":"US","name":"Borough of Shiloh","fclName":"country, state, region,...","adminCodes1":{"ISO3166_2":"NJ"},"countryName":"United States","fcodeName":"third-order administrative division","adminName1":"New Jersey","lat":"39.45939","fcode":"ADM3"},{"adminCode1":"VA","lng":"-77.1139","geonameId":4785443,"toponymName":"Shiloh District","countryId":"6252001","fcl":"A","population":0,"countryCode":"US","name":"Shiloh District","fclName":"country, state, region,...","adminCodes1":{"ISO3166_2":"VA"},"countryName":"United States","fcodeName":"administrative division","adminName1":"Virginia","lat":"38.22333","fcode":"ADMD"},{"adminCode1":"OH","lng":"-83.29159","geonameId":5157285,"toponymName":"Helena","countryId":"6252001","fcl":"P","population":221,"countryCode":"US","name":"Helena","fclName":"city, village,...","adminCodes1":{"ISO3166_2":"OH"},"countryName":"United States","fcodeName":"populated place","adminName1":"Ohio","lat":"41.34116","fcode":"PPL"},{"adminCode1":"OH","lng":"-83.60438","geonameId":5159175,"toponymName":"Jerry City","countryId":"6252001","fcl":"P","population":436,"countryCode":"US","name":"Jerry City","fclName":"city, village,...","adminCodes1":{"ISO3166_2":"OH"},"countryName":"United States","fcodeName":"populated place","adminName1":"Ohio","lat":"41.25394","fcode":"PPL"},{"adminCode1":"SC","lng":"-80.04091","geonameId":4595624,"toponymName":"Shiloh","countryId":"6252001","fcl":"P","population":214,"countryCode":"US","name":"Shiloh","fclName":"city, village,...","adminCodes1":{"ISO3166_2":"SC"},"countryName":"United States","fcodeName":"populated place","adminName1":"South Carolina","lat":"33.94016","fcode":"PPL"},{"adminCode1":"NC","lng":"-79.85115","geonameId":4491347,"toponymName":"Shiloh Airport","countryId":"6252001","fcl":"S","population":0,"countryCode":"US","name":"Shiloh Airport","fclName":"spot, building, farm","adminCodes1":{"ISO3166_2":"NC"},"countryName":"United States","fcodeName":"airport","adminName1":"North Carolina","lat":"36.43708","fcode":"AIRP"},{"adminCode1":"WV","lng":"-81.39261","geonameId":4822013,"toponymName":"Shiloh","countryId":"6252001","fcl":"P","population":0,"countryCode":"US","name":"Shiloh","fclName":"city, village,...","adminCodes1":{"ISO3166_2":"WV"},"countryName":"United States","fcodeName":"populated place","adminName1":"West Virginia","lat":"37.79956","fcode":"PPL"},{"adminCode1":"WV","lng":"-81.0115","geonameId":4822014,"toponymName":"Shiloh","countryId":"6252001","fcl":"P","population":0,"countryCode":"US","name":"Shiloh","fclName":"city, village,...","adminCodes1":{"ISO3166_2":"WV"},"countryName":"United States","fcodeName":"populated place","adminName1":"West Virginia","lat":"39.45619","fcode":"PPL"},{"adminCode1":"GA","lng":"-84.06927","geonameId":4222534,"toponymName":"Shiloh High School","countryId":"6252001","fcl":"S","population":0,"countryCode":"US","name":"Shiloh High School","fclName":"spot, building, farm","adminCodes1":{"ISO3166_2":"GA"},"countryName":"United States","fcodeName":"school","adminName1":"Georgia","lat":"33.82353","fcode":"SCH"},{"adminCode1":"GA","lng":"-81.99789","geonameId":4222540,"toponymName":"Shiloh Orphanage","countryId":"6252001","fcl":"S","population":0,"countryCode":"US","name":"Shiloh Orphanage","fclName":"spot, building, farm","adminCodes1":{"ISO3166_2":"GA"},"countryName":"United States","fcodeName":"building(s)","adminName1":"Georgia","lat":"33.45903","fcode":"BLDG"},{"adminCode1":"NC","lng":"-76.02687","geonameId":4483390,"toponymName":"Old Trap","countryId":"6252001","fcl":"P","population":0,"countryCode":"US","name":"Old Trap","fclName":"city, village,...","adminCodes1":{"ISO3166_2":"NC"},"countryName":"United States","fcodeName":"populated place","adminName1":"North Carolina","lat":"36.24071","fcode":"PPL"},{"adminCode1":"PA","lng":"-76.02942","geonameId":7221532,"toponymName":"Shiloh Hills Park","countryId":"6252001","fcl":"L","population":0,"countryCode":"US","name":"Shiloh Hills Park","fclName":"parks,area, ...","adminCodes1":{"ISO3166_2":"PA"},"countryName":"United States","fcodeName":"park","adminName1":"Pennsylvania","lat":"40.28634","fcode":"PRK"},{"adminCode1":"CA","lng":"-122.7536","geonameId":5395323,"toponymName":"Shiloh Ranch Regional Park","countryId":"6252001","fcl":"L","population":0,"countryCode":"US","name":"Shiloh Ranch Regional Park","fclName":"parks,area, ...","adminCodes1":{"ISO3166_2":"CA"},"countryName":"United States","fcodeName":"park","adminName1":"California","lat":"38.52547","fcode":"PRK"},{"adminCode1":"PA","lng":"-78.2914","geonameId":5211957,"toponymName":"Shiloh","countryId":"6252001","fcl":"P","population":11217,"countryCode":"US","name":"Shiloh","fclName":"city, village,...","adminCodes1":{"ISO3166_2":"PA"},"countryName":"United States","fcodeName":"populated place","adminName1":"Pennsylvania","lat":"41.04172","fcode":"PPL"},{"adminCode1":"OH","lng":"-83.96076","geonameId":4524640,"toponymName":"Shiloh","countryId":"6252001","fcl":"P","population":0,"countryCode":"US","name":"Shiloh","fclName":"city, village,...","adminCodes1":{"ISO3166_2":"OH"},"countryName":"United States","fcodeName":"populated place","adminName1":"Ohio","lat":"38.98868","fcode":"PPL"},{"adminCode1":"TX","lng":"-94.70881","geonameId":4728382,"toponymName":"Shiloh","countryId":"6252001","fcl":"P","population":0,"countryCode":"US","name":"Shiloh","fclName":"city, village,...","adminCodes1":{"ISO3166_2":"TX"},"countryName":"United States","fcodeName":"populated place","adminName1":"Texas","lat":"29.94883","fcode":"PPL"},{"adminCode1":"MO","lng":"-94.58635","geonameId":4408496,"toponymName":"Shiloh Creek","countryId":"6252001","fcl":"H","population":0,"countryCode":"US","name":"Shiloh Creek","fclName":"stream, lake, ...","adminCodes1":{"ISO3166_2":"MO"},"countryName":"United States","fcodeName":"stream","adminName1":"Missouri","lat":"37.86309","fcode":"STM"},{"adminCode1":"AL","lng":"-85.68186","geonameId":4089772,"toponymName":"Shiloh Cemetery","countryId":"6252001","fcl":"S","population":0,"countryCode":"US","name":"Shiloh Missionary Baptist Church Cemetery","fclName":"spot, building, farm","adminCodes1":{"ISO3166_2":"AL"},"countryName":"United States","fcodeName":"cemetery","adminName1":"Alabama","lat":"32.5188","fcode":"CMTY"},{"adminCode1":"AL","lng":"-85.6778","geonameId":4089823,"toponymName":"Shiloh Church","countryId":"6252001","fcl":"S","population":0,"countryCode":"US","name":"Shiloh Missionary Baptist Church","fclName":"spot, building, farm","adminCodes1":{"ISO3166_2":"AL"},"countryName":"United States","fcodeName":"church","adminName1":"Alabama","lat":"32.52798","fcode":"CH"},{"adminCode1":"AL","lng":"-85.67805","geonameId":4089880,"toponymName":"Shiloh School (historical)","countryId":"6252001","fcl":"S","population":0,"countryCode":"US","name":"Shiloh Rosenwald School","fclName":"spot, building, farm","adminCodes1":{"ISO3166_2":"AL"},"countryName":"United States","fcodeName":"school","adminName1":"Alabama","lat":"32.52724","fcode":"SCH"},{"adminCode1":"GA","lng":"-84.20714","geonameId":4222498,"toponymName":"Shiloh Church","countryId":"6252001","fcl":"S","population":0,"countryCode":"US","name":"Shiloh Church","fclName":"spot, building, farm","adminCodes1":{"ISO3166_2":"GA"},"countryName":"United States","fcodeName":"church","adminName1":"Georgia","lat":"34.13788","fcode":"CH"},{"adminCode1":"GA","lng":"-85.18579","geonameId":4222524,"toponymName":"Shiloh Church","countryId":"6252001","fcl":"S","population":0,"countryCode":"US","name":"Shiloh Church","fclName":"spot, building, farm","adminCodes1":{"ISO3166_2":"GA"},"countryName":"United States","fcodeName":"church","adminName1":"Georgia","lat":"34.63869","fcode":"CH"},{"adminCode1":"TN","lng":"-88.32282","geonameId":4649892,"toponymName":"Pittsburg Landing","countryId":"6252001","fcl":"P","population":0,"countryCode":"US","name":"Pittsburg Landing","fclName":"city, village,...","adminCodes1":{"ISO3166_2":"TN"},"countryName":"United States","fcodeName":"populated place","adminName1":"Tennessee","lat":"35.15231","fcode":"PPL"},{"adminCode1":"WV","lng":"-78.43167","geonameId":4822015,"toponymName":"Shiloh (historical)","countryId":"6252001","fcl":"P","population":0,"countryCode":"US","name":"Shiloh (historical)","fclName":"city, village,...","adminCodes1":{"ISO3166_2":"WV"},"countryName":"United States","fcodeName":"abandoned populated place","adminName1":"West Virginia","lat":"39.1826","fcode":"PPLQ"},{"adminCode1":"GA","lng":"-84.0757","geonameId":4222541,"toponymName":"Shiloh Elementary School","countryId":"6252001","fcl":"S","population":0,"countryCode":"US","name":"Shiloh Elementary School","fclName":"spot, building, farm","adminCodes1":{"ISO3166_2":"GA"},"countryName":"United States","fcodeName":"school","adminName1":"Georgia","lat":"33.82829","fcode":"SCH"},{"adminCode1":"GA","lng":"-84.07243","geonameId":4222542,"toponymName":"Shiloh Middle School","countryId":"6252001","fcl":"S","population":0,"countryCode":"US","name":"Shiloh Middle School","fclName":"spot, building, farm","adminCodes1":{"ISO3166_2":"GA"},"countryName":"United States","fcodeName":"school","adminName1":"Georgia","lat":"33.82605","fcode":"SCH"},{"adminCode1":"IL","lng":"-89.89816","geonameId":4249961,"toponymName":"Shiloh Station","countryId":"6252001","fcl":"P","population":0,"countryCode":"US","name":"Shiloh Station","fclName":"city, village,...","adminCodes1":{"ISO3166_2":"IL"},"countryName":"United States","fcodeName":"populated place","adminName1":"Illinois","lat":"38.53394","fcode":"PPL"},{"adminCode1":"OH","lng":"-82.98268","geonameId":4524643,"toponymName":"Shiloh Baptist Church","countryId":"6252001","fcl":"S","population":0,"countryCode":"US","name":"Shiloh Baptist Church","fclName":"spot, building, farm","adminCodes1":{"ISO3166_2":"OH"},"countryName":"United States","fcodeName":"church","adminName1":"Ohio","lat":"39.9709","fcode":"CH"},{"adminCode1":"TX","lng":"-97.12001","geonameId":4728386,"toponymName":"Shiloh Airport","countryId":"6252001","fcl":"S","population":0,"countryCode":"US","name":"Shiloh Airport","fclName":"spot, building, farm","adminCodes1":{"ISO3166_2":"TX"},"countryName":"United States","fcodeName":"airport","adminName1":"Texas","lat":"33.02512","fcode":"AIRP"},{"adminCode1":"AR","lng":"-94.1552","geonameId":4130899,"toponymName":"Shiloh Christian School","countryId":"6252001","fcl":"S","population":0,"countryCode":"US","name":"Shiloh Christian School","fclName":"spot, building, farm","adminCodes1":{"ISO3166_2":"AR"},"countryName":"United States","fcodeName":"school","adminName1":"Arkansas","lat":"36.16869","fcode":"SCH"},{"adminCode1":"AR","lng":"-94.13215","geonameId":4130925,"toponymName":"Shiloh Church","countryId":"6252001","fcl":"S","population":0,"countryCode":"US","name":"Shiloh Church","fclName":"spot, building, farm","adminCodes1":{"ISO3166_2":"AR"},"countryName":"United States","fcodeName":"church","adminName1":"Arkansas","lat":"36.18841","fcode":"CH"},{"adminCode1":"ME","lng":"-70.04672","geonameId":4978508,"toponymName":"Shiloh Temple","countryId":"6252001","fcl":"S","population":0,"countryCode":"US","name":"Shiloh Temple","fclName":"spot, building, farm","adminCodes1":{"ISO3166_2":"ME"},"countryName":"United States","fcodeName":"church","adminName1":"Maine","lat":"43.98036","fcode":"CH"},{"adminCode1":"OH","lng":"-81.65124","geonameId":5171970,"toponymName":"Shiloh Baptist Church","countryId":"6252001","fcl":"S","population":0,"countryCode":"US","name":"Shiloh Baptist Church","fclName":"spot, building, farm","adminCodes1":{"ISO3166_2":"OH"},"countryName":"United States","fcodeName":"church","adminName1":"Ohio","lat":"41.49144","fcode":"CH"},{"adminCode1":"TN","lng":"-88.32128","geonameId":10377164,"toponymName":"Shiloh Indian Mounds Site","countryId":"6252001","fcl":"S","population":0,"countryCode":"US","name":"Shiloh Indian Mounds Site","fclName":"spot, building, farm","adminCodes1":{"ISO3166_2":"TN"},"countryName":"United States","fcodeName":"historical site","adminName1":"Tennessee","lat":"35.14228","fcode":"HSTS"},{"adminCode1":"GA","lng":"-83.29016","geonameId":4222514,"toponymName":"Shiloh Church","countryId":"6252001","fcl":"S","population":0,"countryCode":"US","name":"Shiloh Church","fclName":"spot, building, farm","adminCodes1":{"ISO3166_2":"GA"},"countryName":"United States","fcodeName":"church","adminName1":"Georgia","lat":"34.60732","fcode":"CH"}]}
