{"totalResultsCount":6,"geonames":[{"adminCode1":"AL","lng":"-85.94218","geonameId":4089989,"toponymName":"Shopton","countryId":"6252001","fcl":"P","population":0,"countryCode":"US","name":"Shopton","fclName":"city, village,...","adminCodes1":{"ISO3166_2":"AL"},"countryName":"United States","fcodeName":"populated place","adminName1":"Alabama","lat":"32.11709","fcode":"PPL"},{"adminCode1":"OK","lng":"-95.35719","geonameId":4551289,"toponymName":"Shopton","countryId":"6252001","fcl":"P","population":0,"countryCode":"US","name":"Shopton","fclName":"city, village,...","adminCodes1":{"ISO3166_2":"OK"},"countryName":"United States","fcodeName":"populated place","adminName1":"Oklahoma","lat":"35.72649","fcode":"PPL"},{"adminCode1":"NC","lng":"-80.96146","geonameId":4491545,"toponymName":"Shopton","countryId":"6252001","fcl":"P","population":0,"countryCode":"US","name":"Shopton","fclName":"city, village,...","adminCodes1":{"ISO3166_2":"NC"},"countryName":"United States","fcodeName":"populated place","adminName1":"North Carolina","lat":"35.17153","fcode":"PPL"},{"adminCode1":"AL","lng":"-85.91273","geonameId":4089990,"toponymName":"Shopton Branch","countryId":"6252001","fcl":"H","population":0,"countryCode":"US","name":"Shopton Branch","fclName":"stream, lake, ...","adminCodes1":{"ISO3166_2":"AL"},"countryName":"United States","fcodeName":"stream","adminName1":"Alabama","lat":"32.1507","fcode":"STM"},{"adminCode1":"NC","lng":"-80.96591","geonameId":4483480,"toponymName":"Olympic Woods","countryId":"6252001","fcl":"P","population":0,"countryCode":"US","name":"Olympic Woods","fclName":"city, village,...","adminCodes1":{"ISO3166_2":"NC"},"countryName":"United States","fcodeName":"section of populated place","adminName1":"North Carolina","lat":"35.16959","fcode":"PPLX"},{"adminCode1":"NC","lng":"-80.95202","geonameId":4491546,"toponymName":"Shopton Road Church","countryId":"6252001","fcl":"S","population":0,"countryCode":"US","name":"Shopton Road Church","fclName":"spot, building, farm","adminCodes1":{"ISO3166_2":"NC"},"countryName":"United States","fcodeName":"church","adminName1":"North Carolina","lat":"35.17042","fcode":"CH"}]}
