{"totalResultsCount":129,"geonames":[{"adminCode1":"NY","lng":"-76.95741","geonameId":5138653,"toponymName":"Sodus Bay","countryId":"6252001","fcl":"H","population":0,"countryCode":"US","name":"Sodus Bay","fclName":"stream, lake, ...","adminCodes1":{"ISO3166_2":"NY"},"countryName":"United States","fcodeName":"lake","adminName1":"New York","lat":"43.25272","fcode":"LK"},{"adminCode1":"NY","lng":"-77.06136","geonameId":5138652,"toponymName":"Sodus","countryId":"6252001","fcl":"P","population":1755,"countryCode":"US","name":"Sodus","fclName":"city, village,...","adminCodes1":{"ISO3166_2":"NY"},"countryName":"United States","fcodeName":"populated place","adminName1":"New York","lat":"43.23784","fcode":"PPL"},{"adminCode1":"NY","lng":"-77.12009","geonameId":5144585,"toponymName":"Williamson-Sodus Airport","countryId":"6252001","fcl":"S","population":0,"countryCode":"US","name":"Williamson-Sodus Airport","fclName":"spot, building, farm","adminCodes1":{"ISO3166_2":"NY"},"countryName":"United States","fcodeName":"airport","adminName1":"New York","lat":"43.23621","fcode":"AIRP"},{"adminCode1":"MI","lng":"-86.37135","geonameId":5010312,"toponymName":"Township of Sodus","countryId":"6252001","fcl":"A","population":0,"countryCode":"US","name":"Sodus Township","fclName":"country, state, region,...","adminCodes1":{"ISO3166_2":"MI"},"countryName":"United States","fcodeName":"third-order administrative division","adminName1":"Michigan","lat":"42.0321","fcode":"ADM3"},{"adminCode1":"MN","lng":"-95.77566","geonameId":5047785,"toponymName":"Township of Sodus","countryId":"6252001","fcl":"A","population":0,"countryCode":"US","name":"Sodus Township","fclName":"country, state, region,...","adminCodes1":{"ISO3166_2":"MN"},"countryName":"United States","fcodeName":"third-order administrative division","adminName1":"Minnesota","lat":"44.32666","fcode":"ADM3"},{"adminCode1":"NY","lng":"-76.98914","geonameId":5138660,"toponymName":"Sodus Point","countryId":"6252001","fcl":"P","population":878,"countryCode":"US","name":"Sodus Point","fclName":"city, village,...","adminCodes1":{"ISO3166_2":"NY"},"countryName":"United States","fcodeName":"populated place","adminName1":"New York","lat":"43.27173","fcode":"PPL"},{"adminCode1":"NY","lng":"-76.70937","geonameId":5124863,"toponymName":"Little Sodus Bay","countryId":"6252001","fcl":"H","population":0,"countryCode":"US","name":"Little Sodus Bay","fclName":"stream, lake, ...","adminCodes1":{"ISO3166_2":"NY"},"countryName":"United States","fcodeName":"lake","adminName1":"New York","lat":"43.33035","fcode":"LK"},{"adminCode1":"MI","lng":"-86.36919","geonameId":5010318,"toponymName":"Sodus","countryId":"6252001","fcl":"P","population":0,"countryCode":"US","name":"Sodus","fclName":"city, village,...","adminCodes1":{"ISO3166_2":"MI"},"countryName":"United States","fcodeName":"populated place","adminName1":"Michigan","lat":"42.04365","fcode":"PPL"},{"adminCode1":"NY","lng":"-77.02441","geonameId":5138656,"toponymName":"Sodus Center","countryId":"6252001","fcl":"P","population":0,"countryCode":"US","name":"Sodus Center","fclName":"city, village,...","adminCodes1":{"ISO3166_2":"NY"},"countryName":"United States","fcodeName":"populated place","adminName1":"New York","lat":"43.20479","fcode":"PPL"},{"adminCode1":"NY","lng":"-77.05165","geonameId":5138661,"toponymName":"Town of Sodus","countryId":"6252001","fcl":"A","population":8179,"countryCode":"US","name":"Town of Sodus","fclName":"country, state, region,...","adminCodes1":{"ISO3166_2":"NY"},"countryName":"United States","fcodeName":"third-order administrative division","adminName1":"New York","lat":"43.21976","fcode":"ADM3"},{"adminCode1":"NY","lng":"-76.98052","geonameId":5107080,"toponymName":"Alton","countryId":"6252001","fcl":"P","population":0,"countryCode":"US","name":"Alton","fclName":"city, village,...","adminCodes1":{"ISO3166_2":"NY"},"countryName":"United States","fcodeName":"populated place","adminName1":"New York","lat":"43.21118","fcode":"PPL"},{"adminCode1":"LA","lng":"-93.51434","geonameId":4337529,"toponymName":"Pleasant Hill","countryId":"6252001","fcl":"P","population":718,"countryCode":"US","name":"Pleasant Hill","fclName":"city, village,...","adminCodes1":{"ISO3166_2":"LA"},"countryName":"United States","fcodeName":"populated place","adminName1":"Louisiana","lat":"31.81989","fcode":"PPL"},{"adminCode1":"NY","lng":"-77.06275","geonameId":7161889,"toponymName":"Village of Sodus","countryId":"6252001","fcl":"A","population":1819,"countryCode":"US","name":"Village of Sodus","fclName":"country, state, region,...","adminCodes1":{"ISO3166_2":"NY"},"countryName":"United States","fcodeName":"administrative division","adminName1":"New York","lat":"43.2371","fcode":"ADMD"},{"adminCode1":"NY","lng":"-76.99523","geonameId":7161890,"toponymName":"Village of Sodus Point","countryId":"6252001","fcl":"A","population":900,"countryCode":"US","name":"Village of Sodus Point","fclName":"country, state, region,...","adminCodes1":{"ISO3166_2":"NY"},"countryName":"United States","fcodeName":"administrative division","adminName1":"New York","lat":"43.26399","fcode":"ADMD"},{"adminCode1":"NY","lng":"-76.72821","geonameId":5109521,"toponymName":"Blind Sodus Bay","countryId":"6252001","fcl":"H","population":0,"countryCode":"US","name":"Blind Sodus Bay","fclName":"stream, lake, ...","adminCodes1":{"ISO3166_2":"NY"},"countryName":"United States","fcodeName":"lake","adminName1":"New York","lat":"43.33817","fcode":"LK"},{"adminCode1":"NY","lng":"-77.01247","geonameId":5143114,"toponymName":"Wallington","countryId":"6252001","fcl":"P","population":0,"countryCode":"US","name":"Wallington","fclName":"city, village,...","adminCodes1":{"ISO3166_2":"NY"},"countryName":"United States","fcodeName":"populated place","adminName1":"New York","lat":"43.22173","fcode":"PPL"},{"adminCode1":"NY","lng":"-76.98916","geonameId":7707186,"toponymName":"Sodus Bay Heights Golf Club","countryId":"6252001","fcl":"S","population":0,"countryCode":"US","name":"Sodus Bay Heights Golf Club","fclName":"spot, building, farm","adminCodes1":{"ISO3166_2":"NY"},"countryName":"United States","fcodeName":"golf course","adminName1":"New York","lat":"43.24824","fcode":"RECG"},{"adminCode1":"NY","lng":"-77.07111","geonameId":7161160,"toponymName":"Negro Hill","countryId":"6252001","fcl":"T","population":0,"countryCode":"US","name":"Negro Hill","fclName":"mountain,hill,rock,... ","adminCodes1":{"ISO3166_2":"NY"},"countryName":"United States","fcodeName":"mountain","adminName1":"New York","lat":"43.28139","fcode":"MT"},{"adminCode1":"NY","lng":"-76.97413","geonameId":5138659,"toponymName":"Sodus Outer Light","countryId":"6252001","fcl":"S","population":0,"countryCode":"US","name":"Sodus Outer Light","fclName":"spot, building, farm","adminCodes1":{"ISO3166_2":"NY"},"countryName":"United States","fcodeName":"","adminName1":"New York","lat":"43.27729"},{"adminCode1":"MI","lng":"-86.37288","geonameId":7159899,"toponymName":"Sodus Township Volunteer Fire Department","countryId":"6252001","fcl":"S","population":0,"countryCode":"US","name":"Sodus Township Volunteer Fire Department","fclName":"spot, building, farm","adminCodes1":{"ISO3166_2":"MI"},"countryName":"United States","fcodeName":"building(s)","adminName1":"Michigan","lat":"42.04312","fcode":"BLDG"},{"adminCode1":"MI","lng":"-86.39917","geonameId":7159904,"toponymName":"Meadow Streams Estate Mobile Home Park","countryId":"6252001","fcl":"P","population":0,"countryCode":"US","name":"Meadow Streams Estate Mobile Home Park","fclName":"city, village,...","adminCodes1":{"ISO3166_2":"MI"},"countryName":"United States","fcodeName":"populated place","adminName1":"Michigan","lat":"42.06139","fcode":"PPL"},{"adminCode1":"MI","lng":"-86.38696","geonameId":5004802,"toponymName":"Oxbow","countryId":"6252001","fcl":"P","population":0,"countryCode":"US","name":"Oxbow","fclName":"city, village,...","adminCodes1":{"ISO3166_2":"MI"},"countryName":"United States","fcodeName":"populated place","adminName1":"Michigan","lat":"42.02171","fcode":"PPL"},{"adminCode1":"MI","lng":"-86.39752","geonameId":4998187,"toponymName":"Kings Landing","countryId":"6252001","fcl":"P","population":0,"countryCode":"US","name":"Kings Landing","fclName":"city, village,...","adminCodes1":{"ISO3166_2":"MI"},"countryName":"United States","fcodeName":"populated place","adminName1":"Michigan","lat":"42.04365","fcode":"PPL"},{"adminCode1":"NY","lng":"-77.02917","geonameId":7224520,"toponymName":"Sodus Mobile Home Park","countryId":"6252001","fcl":"P","population":0,"countryCode":"US","name":"Sodus Mobile Home Park","fclName":"city, village,...","adminCodes1":{"ISO3166_2":"NY"},"countryName":"United States","fcodeName":"populated place","adminName1":"New York","lat":"43.22694","fcode":"PPL"},{"adminCode1":"NY","lng":"-76.98691","geonameId":5139002,"toponymName":"South Sodus","countryId":"6252001","fcl":"P","population":0,"countryCode":"US","name":"South Sodus","fclName":"city, village,...","adminCodes1":{"ISO3166_2":"NY"},"countryName":"United States","fcodeName":"populated place","adminName1":"New York","lat":"43.16729","fcode":"PPL"},{"adminCode1":"NY","lng":"-76.97083","geonameId":7272569,"toponymName":"Alasa Farms","countryId":"6252001","fcl":"S","population":0,"countryCode":"US","name":"Alasa Farms","fclName":"spot, building, farm","adminCodes1":{"ISO3166_2":"NY"},"countryName":"United States","fcodeName":"farm","adminName1":"New York","lat":"43.23361","fcode":"FRM"},{"adminCode1":"NY","lng":"-77.12056","geonameId":7161168,"toponymName":"Lime Kiln","countryId":"6252001","fcl":"P","population":0,"countryCode":"US","name":"Lime Kiln","fclName":"city, village,...","adminCodes1":{"ISO3166_2":"NY"},"countryName":"United States","fcodeName":"populated place","adminName1":"New York","lat":"43.17278","fcode":"PPL"},{"adminCode1":"NY","lng":"-76.97861","geonameId":7224304,"toponymName":"Alton Mobile Home Park","countryId":"6252001","fcl":"P","population":0,"countryCode":"US","name":"Alton Mobile Home Park","fclName":"city, village,...","adminCodes1":{"ISO3166_2":"NY"},"countryName":"United States","fcodeName":"populated place","adminName1":"New York","lat":"43.21278","fcode":"PPL"},{"adminCode1":"NY","lng":"-77.01","geonameId":7224522,"toponymName":"Idlewood On The Lake","countryId":"6252001","fcl":"P","population":0,"countryCode":"US","name":"Idlewood On The Lake","fclName":"city, village,...","adminCodes1":{"ISO3166_2":"NY"},"countryName":"United States","fcodeName":"populated place","adminName1":"New York","lat":"43.26917","fcode":"PPL"},{"adminCode1":"NY","lng":"-77.01108","geonameId":5140894,"toponymName":"Thorntons Corner","countryId":"6252001","fcl":"P","population":0,"countryCode":"US","name":"Thorntons Corner","fclName":"city, village,...","adminCodes1":{"ISO3166_2":"NY"},"countryName":"United States","fcodeName":"populated place","adminName1":"New York","lat":"43.17479","fcode":"PPL"},{"adminCode1":"NY","lng":"-77.09303","geonameId":5122912,"toponymName":"Joy","countryId":"6252001","fcl":"P","population":0,"countryCode":"US","name":"Joy","fclName":"city, village,...","adminCodes1":{"ISO3166_2":"NY"},"countryName":"United States","fcodeName":"populated place","adminName1":"New York","lat":"43.19229","fcode":"PPL"},{"adminCode1":"NY","lng":"-77.05914","geonameId":5118946,"toponymName":"Governor Hill","countryId":"6252001","fcl":"T","population":0,"countryCode":"US","name":"Governor Hill","fclName":"mountain,hill,rock,... ","adminCodes1":{"ISO3166_2":"NY"},"countryName":"United States","fcodeName":"mountain","adminName1":"New York","lat":"43.19451","fcode":"MT"},{"adminCode1":"MI","lng":"-86.43611","geonameId":7257335,"toponymName":"Interchange 28","countryId":"6252001","fcl":"R","population":0,"countryCode":"US","name":"Interchange 28","fclName":"road, railroad ","adminCodes1":{"ISO3166_2":"MI"},"countryName":"United States","fcodeName":"road junction","adminName1":"Michigan","lat":"42.06833","fcode":"RDJCT"},{"adminCode1":"NY","lng":"-76.64134","geonameId":5124864,"toponymName":"Little Sodus Creek","countryId":"6252001","fcl":"H","population":0,"countryCode":"US","name":"Little Sodus Creek","fclName":"stream, lake, ...","adminCodes1":{"ISO3166_2":"NY"},"countryName":"United States","fcodeName":"stream","adminName1":"New York","lat":"43.20784","fcode":"STM"},{"adminCode1":"NY","lng":"-77.0616","geonameId":7224570,"toponymName":"Old Mill Street Cemetery","countryId":"6252001","fcl":"S","population":0,"countryCode":"US","name":"Old Mill Street Cemetery","fclName":"spot, building, farm","adminCodes1":{"ISO3166_2":"NY"},"countryName":"United States","fcodeName":"cemetery","adminName1":"New York","lat":"43.2347","fcode":"CMTY"},{"adminCode1":"MI","lng":"-86.3675","geonameId":7159897,"toponymName":"Sodus Township Library","countryId":"6252001","fcl":"S","population":0,"countryCode":"US","name":"Sodus Township Library","fclName":"spot, building, farm","adminCodes1":{"ISO3166_2":"MI"},"countryName":"United States","fcodeName":"library","adminName1":"Michigan","lat":"42.04306","fcode":"LIBR"},{"adminCode1":"MI","lng":"-86.37028","geonameId":7159898,"toponymName":"Sodus Post Office","countryId":"6252001","fcl":"S","population":0,"countryCode":"US","name":"Sodus Post Office","fclName":"spot, building, farm","adminCodes1":{"ISO3166_2":"MI"},"countryName":"United States","fcodeName":"post office","adminName1":"Michigan","lat":"42.04306","fcode":"PO"},{"adminCode1":"MI","lng":"-86.37417","geonameId":7159900,"toponymName":"Sodus Township Hall","countryId":"6252001","fcl":"S","population":0,"countryCode":"US","name":"Sodus Township Hall","fclName":"spot, building, farm","adminCodes1":{"ISO3166_2":"MI"},"countryName":"United States","fcodeName":"building(s)","adminName1":"Michigan","lat":"42.04417","fcode":"BLDG"},{"adminCode1":"MI","lng":"-86.36944","geonameId":7270646,"toponymName":"Sodus Station (historical)","countryId":"6252001","fcl":"S","population":0,"countryCode":"US","name":"Sodus Station (historical)","fclName":"spot, building, farm","adminCodes1":{"ISO3166_2":"MI"},"countryName":"United States","fcodeName":"","adminName1":"Michigan","lat":"42.04333"},{"adminCode1":"NY","lng":"-77.0116","geonameId":7224575,"toponymName":"Kitchen Burial Plot","countryId":"6252001","fcl":"S","population":0,"countryCode":"US","name":"Kitchen Burial Plot","fclName":"spot, building, farm","adminCodes1":{"ISO3166_2":"NY"},"countryName":"United States","fcodeName":"cemetery","adminName1":"New York","lat":"43.2399","fcode":"CMTY"},{"adminCode1":"IA","lng":"-90.32152","geonameId":4876826,"toponymName":"Sodus Creek","countryId":"6252001","fcl":"H","population":0,"countryCode":"US","name":"Sodus Creek","fclName":"stream, lake, ...","adminCodes1":{"ISO3166_2":"IA"},"countryName":"United States","fcodeName":"stream","adminName1":"Iowa","lat":"41.74309","fcode":"STM"},{"adminCode1":"IA","lng":"-90.33596","geonameId":4876836,"toponymName":"Sodus School (historical)","countryId":"6252001","fcl":"S","population":0,"countryCode":"US","name":"Sodus School (historical)","fclName":"spot, building, farm","adminCodes1":{"ISO3166_2":"IA"},"countryName":"United States","fcodeName":"school","adminName1":"Iowa","lat":"41.75642","fcode":"SCH"},{"adminCode1":"MI","lng":"-86.34472","geonameId":7158054,"toponymName":"Lett Cemetery","countryId":"6252001","fcl":"S","population":0,"countryCode":"US","name":"Lett Cemetery","fclName":"spot, building, farm","adminCodes1":{"ISO3166_2":"MI"},"countryName":"United States","fcodeName":"cemetery","adminName1":"Michigan","lat":"42.00389","fcode":"CMTY"},{"adminCode1":"MI","lng":"-86.40139","geonameId":7158055,"toponymName":"Bethel Cemetery","countryId":"6252001","fcl":"S","population":0,"countryCode":"US","name":"Bethel Cemetery","fclName":"spot, building, farm","adminCodes1":{"ISO3166_2":"MI"},"countryName":"United States","fcodeName":"cemetery","adminName1":"Michigan","lat":"42.06528","fcode":"CMTY"},{"adminCode1":"MI","lng":"-86.35917","geonameId":7159901,"toponymName":"Chapel Hill United Methodist Church","countryId":"6252001","fcl":"S","population":0,"countryCode":"US","name":"Chapel Hill United Methodist Church","fclName":"spot, building, farm","adminCodes1":{"ISO3166_2":"MI"},"countryName":"United States","fcodeName":"church","adminName1":"Michigan","lat":"42.04361","fcode":"CH"},{"adminCode1":"MI","lng":"-86.36778","geonameId":7159902,"toponymName":"Saint Paul's Lutheran Church","countryId":"6252001","fcl":"S","population":0,"countryCode":"US","name":"Saint Paul's Lutheran Church","fclName":"spot, building, farm","adminCodes1":{"ISO3166_2":"MI"},"countryName":"United States","fcodeName":"church","adminName1":"Michigan","lat":"42.04361","fcode":"CH"},{"adminCode1":"MI","lng":"-86.3675","geonameId":7159903,"toponymName":"Saint Paul's Lutheran School","countryId":"6252001","fcl":"S","population":0,"countryCode":"US","name":"Saint Paul's Lutheran School","fclName":"spot, building, farm","adminCodes1":{"ISO3166_2":"MI"},"countryName":"United States","fcodeName":"school","adminName1":"Michigan","lat":"42.04417","fcode":"SCH"},{"adminCode1":"MI","lng":"-86.34444","geonameId":7159937,"toponymName":"Macedonia Community Church","countryId":"6252001","fcl":"S","population":0,"countryCode":"US","name":"Macedonia Community Church","fclName":"spot, building, farm","adminCodes1":{"ISO3166_2":"MI"},"countryName":"United States","fcodeName":"church","adminName1":"Michigan","lat":"42.01194","fcode":"CH"},{"adminCode1":"MI","lng":"-86.40083","geonameId":7160980,"toponymName":"New Bethel Baptist Church","countryId":"6252001","fcl":"S","population":0,"countryCode":"US","name":"New Bethel Baptist Church","fclName":"spot, building, farm","adminCodes1":{"ISO3166_2":"MI"},"countryName":"United States","fcodeName":"church","adminName1":"Michigan","lat":"42.07222","fcode":"CH"},{"adminCode1":"MI","lng":"-86.385","geonameId":7160981,"toponymName":"Safe Harbor Church","countryId":"6252001","fcl":"S","population":0,"countryCode":"US","name":"Safe Harbor Church","fclName":"spot, building, farm","adminCodes1":{"ISO3166_2":"MI"},"countryName":"United States","fcodeName":"church","adminName1":"Michigan","lat":"42.05361","fcode":"CH"},{"adminCode1":"MI","lng":"-86.3875","geonameId":7157877,"toponymName":"First General Baptist Church","countryId":"6252001","fcl":"S","population":0,"countryCode":"US","name":"First General Baptist Church","fclName":"spot, building, farm","adminCodes1":{"ISO3166_2":"MI"},"countryName":"United States","fcodeName":"church","adminName1":"Michigan","lat":"42.06944","fcode":"CH"},{"adminCode1":"MI","lng":"-86.39696","geonameId":5007250,"toponymName":"River School","countryId":"6252001","fcl":"S","population":0,"countryCode":"US","name":"River School","fclName":"spot, building, farm","adminCodes1":{"ISO3166_2":"MI"},"countryName":"United States","fcodeName":"school","adminName1":"Michigan","lat":"42.03754","fcode":"SCH"},{"adminCode1":"MI","lng":"-86.41863","geonameId":5011406,"toponymName":"Stump School","countryId":"6252001","fcl":"S","population":0,"countryCode":"US","name":"Stump School","fclName":"spot, building, farm","adminCodes1":{"ISO3166_2":"MI"},"countryName":"United States","fcodeName":"school","adminName1":"Michigan","lat":"42.06838","fcode":"SCH"},{"adminCode1":"MI","lng":"-86.37058","geonameId":5013536,"toponymName":"WIRX-FM (Saint Joseph)","countryId":"6252001","fcl":"S","population":0,"countryCode":"US","name":"WIRX-FM (Saint Joseph)","fclName":"spot, building, farm","adminCodes1":{"ISO3166_2":"MI"},"countryName":"United States","fcodeName":"tower","adminName1":"Michigan","lat":"42.07199","fcode":"TOWR"},{"adminCode1":"MI","lng":"-86.37058","geonameId":5013820,"toponymName":"WXSB-FM (Benton Harbor)","countryId":"6252001","fcl":"S","population":0,"countryCode":"US","name":"WXSB-FM (Benton Harbor)","fclName":"spot, building, farm","adminCodes1":{"ISO3166_2":"MI"},"countryName":"United States","fcodeName":"tower","adminName1":"Michigan","lat":"42.07199","fcode":"TOWR"},{"adminCode1":"MI","lng":"-86.38808","geonameId":4984270,"toponymName":"Antioch Church","countryId":"6252001","fcl":"S","population":0,"countryCode":"US","name":"Antioch Church","fclName":"spot, building, farm","adminCodes1":{"ISO3166_2":"MI"},"countryName":"United States","fcodeName":"church","adminName1":"Michigan","lat":"42.06865","fcode":"CH"},{"adminCode1":"MI","lng":"-86.35807","geonameId":5002715,"toponymName":"Mount Pleasant Cemetery","countryId":"6252001","fcl":"S","population":0,"countryCode":"US","name":"Mount Pleasant Cemetery","fclName":"spot, building, farm","adminCodes1":{"ISO3166_2":"MI"},"countryName":"United States","fcodeName":"cemetery","adminName1":"Michigan","lat":"42.01949","fcode":"CMTY"},{"adminCode1":"NY","lng":"-77.0656","geonameId":7224559,"toponymName":"Sodus United Methodist Church","countryId":"6252001","fcl":"S","population":0,"countryCode":"US","name":"Sodus United Methodist Church","fclName":"spot, building, farm","adminCodes1":{"ISO3166_2":"NY"},"countryName":"United States","fcodeName":"church","adminName1":"New York","lat":"43.2362","fcode":"CH"},{"adminCode1":"NY","lng":"-77.0661","geonameId":7224561,"toponymName":"Sodus Primary School","countryId":"6252001","fcl":"S","population":0,"countryCode":"US","name":"Sodus Primary School","fclName":"spot, building, farm","adminCodes1":{"ISO3166_2":"NY"},"countryName":"United States","fcodeName":"school","adminName1":"New York","lat":"43.2273","fcode":"SCH"},{"adminCode1":"NY","lng":"-77.0623","geonameId":7224563,"toponymName":"Sodus Junior-Senior High School","countryId":"6252001","fcl":"S","population":0,"countryCode":"US","name":"Sodus Junior-Senior High School","fclName":"spot, building, farm","adminCodes1":{"ISO3166_2":"NY"},"countryName":"United States","fcodeName":"school","adminName1":"New York","lat":"43.229","fcode":"SCH"},{"adminCode1":"NY","lng":"-77.0609","geonameId":7224566,"toponymName":"Sodus Intermediate School","countryId":"6252001","fcl":"S","population":0,"countryCode":"US","name":"Sodus Intermediate School","fclName":"spot, building, farm","adminCodes1":{"ISO3166_2":"NY"},"countryName":"United States","fcodeName":"school","adminName1":"New York","lat":"43.2298","fcode":"SCH"},{"adminCode1":"NY","lng":"-77.0688","geonameId":7224567,"toponymName":"Sodus Rural Cemetery","countryId":"6252001","fcl":"S","population":0,"countryCode":"US","name":"Sodus Rural Cemetery","fclName":"spot, building, farm","adminCodes1":{"ISO3166_2":"NY"},"countryName":"United States","fcodeName":"cemetery","adminName1":"New York","lat":"43.2291","fcode":"CMTY"},{"adminCode1":"NY","lng":"-76.9863","geonameId":7224578,"toponymName":"South Sodus Cemetery","countryId":"6252001","fcl":"S","population":0,"countryCode":"US","name":"South Sodus Cemetery","fclName":"spot, building, farm","adminCodes1":{"ISO3166_2":"NY"},"countryName":"United States","fcodeName":"cemetery","adminName1":"New York","lat":"43.1668","fcode":"CMTY"},{"adminCode1":"NY","lng":"-77.03639","geonameId":7252586,"toponymName":"Sodus Quarry","countryId":"6252001","fcl":"S","population":0,"countryCode":"US","name":"Sodus Quarry","fclName":"spot, building, farm","adminCodes1":{"ISO3166_2":"NY"},"countryName":"United States","fcodeName":"mine(s)","adminName1":"New York","lat":"43.18417","fcode":"MN"},{"adminCode1":"NY","lng":"-76.97858","geonameId":5138654,"toponymName":"Sodus Bay Marina","countryId":"6252001","fcl":"S","population":0,"countryCode":"US","name":"Sodus Bay Marina","fclName":"spot, building, farm","adminCodes1":{"ISO3166_2":"NY"},"countryName":"United States","fcodeName":"marina","adminName1":"New York","lat":"43.26729","fcode":"MAR"},{"adminCode1":"NY","lng":"-77.06192","geonameId":5142882,"toponymName":"WSCS-FM (Sodus)","countryId":"6252001","fcl":"S","population":0,"countryCode":"US","name":"WSCS-FM (Sodus)","fclName":"spot, building, farm","adminCodes1":{"ISO3166_2":"NY"},"countryName":"United States","fcodeName":"tower","adminName1":"New York","lat":"43.22895","fcode":"TOWR"},{"adminCode1":"NY","lng":"-77.08926","geonameId":7705894,"toponymName":"Bible Baptist Church of Sodus","countryId":"6252001","fcl":"S","population":0,"countryCode":"US","name":"Bible Baptist Church of Sodus","fclName":"spot, building, farm","adminCodes1":{"ISO3166_2":"NY"},"countryName":"United States","fcodeName":"church","adminName1":"New York","lat":"43.23564","fcode":"CH"},{"adminCode1":"NY","lng":"-77.06174","geonameId":7706030,"toponymName":"Sodus Middle School","countryId":"6252001","fcl":"S","population":0,"countryCode":"US","name":"Sodus Middle School","fclName":"spot, building, farm","adminCodes1":{"ISO3166_2":"NY"},"countryName":"United States","fcodeName":"school","adminName1":"New York","lat":"43.22979","fcode":"SCH"},{"adminCode1":"NY","lng":"-77.06219","geonameId":7706884,"toponymName":"Sodus Free Library","countryId":"6252001","fcl":"S","population":0,"countryCode":"US","name":"Sodus Free Library","fclName":"spot, building, farm","adminCodes1":{"ISO3166_2":"NY"},"countryName":"United States","fcodeName":"library","adminName1":"New York","lat":"43.23724","fcode":"LIBR"},{"adminCode1":"NY","lng":"-76.98338","geonameId":7707156,"toponymName":"Sodus Point Post Office","countryId":"6252001","fcl":"S","population":0,"countryCode":"US","name":"Sodus Point Post Office","fclName":"spot, building, farm","adminCodes1":{"ISO3166_2":"NY"},"countryName":"United States","fcodeName":"post office","adminName1":"New York","lat":"43.27031","fcode":"PO"},{"adminCode1":"NY","lng":"-77.06402","geonameId":7707157,"toponymName":"Sodus Post Office","countryId":"6252001","fcl":"S","population":0,"countryCode":"US","name":"Sodus Post Office","fclName":"spot, building, farm","adminCodes1":{"ISO3166_2":"NY"},"countryName":"United States","fcodeName":"post office","adminName1":"New York","lat":"43.23647","fcode":"PO"},{"adminCode1":"NY","lng":"-77.04736","geonameId":8494532,"toponymName":"Sodus Town Ambulance Corps","countryId":"6252001","fcl":"S","population":0,"countryCode":"US","name":"Sodus Town Ambulance Corps","fclName":"spot, building, farm","adminCodes1":{"ISO3166_2":"NY"},"countryName":"United States","fcodeName":"building(s)","adminName1":"New York","lat":"43.23242","fcode":"BLDG"},{"adminCode1":"NY","lng":"-77.06177","geonameId":8494533,"toponymName":"Sodus Area Advanced Life Support Service","countryId":"6252001","fcl":"S","population":0,"countryCode":"US","name":"Sodus Area Advanced Life Support Service","fclName":"spot, building, farm","adminCodes1":{"ISO3166_2":"NY"},"countryName":"United States","fcodeName":"building(s)","adminName1":"New York","lat":"43.23545","fcode":"BLDG"},{"adminCode1":"NY","lng":"-77.06182","geonameId":8487379,"toponymName":"Sodus Fire Department","countryId":"6252001","fcl":"S","population":0,"countryCode":"US","name":"Sodus Fire Department","fclName":"spot, building, farm","adminCodes1":{"ISO3166_2":"NY"},"countryName":"United States","fcodeName":"building(s)","adminName1":"New York","lat":"43.23537","fcode":"BLDG"},{"adminCode1":"NY","lng":"-77.02566","geonameId":8487380,"toponymName":"Sodus Center Fire Department","countryId":"6252001","fcl":"S","population":0,"countryCode":"US","name":"Sodus Center Fire Department","fclName":"spot, building, farm","adminCodes1":{"ISO3166_2":"NY"},"countryName":"United States","fcodeName":"building(s)","adminName1":"New York","lat":"43.20203","fcode":"BLDG"},{"adminCode1":"NY","lng":"-76.98659","geonameId":8487381,"toponymName":"Sodus Point Fire Department","countryId":"6252001","fcl":"S","population":0,"countryCode":"US","name":"Sodus Point Fire Department","fclName":"spot, building, farm","adminCodes1":{"ISO3166_2":"NY"},"countryName":"United States","fcodeName":"building(s)","adminName1":"New York","lat":"43.27014","fcode":"BLDG"},{"adminCode1":"NY","lng":"-77.06263","geonameId":8479972,"toponymName":"Sodus High School","countryId":"6252001","fcl":"S","population":0,"countryCode":"US","name":"Sodus High School","fclName":"spot, building, farm","adminCodes1":{"ISO3166_2":"NY"},"countryName":"United States","fcodeName":"school","adminName1":"New York","lat":"43.22886","fcode":"SCH"},{"adminCode1":"NY","lng":"-76.97417","geonameId":7274860,"toponymName":"Sodus Point Lighthouse","countryId":"6252001","fcl":"S","population":0,"countryCode":"US","name":"Sodus Point Lighthouse","fclName":"spot, building, farm","adminCodes1":{"ISO3166_2":"NY"},"countryName":"United States","fcodeName":"lighthouse","adminName1":"New York","lat":"43.27694","fcode":"LTHSE"},{"adminCode1":"NY","lng":"-76.92635","geonameId":5138657,"toponymName":"Sodus Creek","countryId":"6252001","fcl":"H","population":0,"countryCode":"US","name":"Sodus Creek","fclName":"stream, lake, ...","adminCodes1":{"ISO3166_2":"NY"},"countryName":"United States","fcodeName":"stream","adminName1":"New York","lat":"43.21673","fcode":"STM"},{"adminCode1":"NY","lng":"-76.88579","geonameId":5138658,"toponymName":"Sodus Ditch","countryId":"6252001","fcl":"H","population":0,"countryCode":"US","name":"Sodus Ditch","fclName":"stream, lake, ...","adminCodes1":{"ISO3166_2":"NY"},"countryName":"United States","fcodeName":"canal","adminName1":"New York","lat":"43.1184","fcode":"CNL"},{"adminCode1":"NY","lng":"-76.72579","geonameId":5109520,"toponymName":"Blind Sodus Creek","countryId":"6252001","fcl":"H","population":0,"countryCode":"US","name":"Blind Sodus Creek","fclName":"stream, lake, ...","adminCodes1":{"ISO3166_2":"NY"},"countryName":"United States","fcodeName":"stream","adminName1":"New York","lat":"43.33257","fcode":"STM"},{"adminCode1":"NY","lng":"-76.94636","geonameId":5138655,"toponymName":"Sodus Bay Yacht Club","countryId":"6252001","fcl":"S","population":0,"countryCode":"US","name":"Sodus Bay Yacht Club","fclName":"spot, building, farm","adminCodes1":{"ISO3166_2":"NY"},"countryName":"United States","fcodeName":"","adminName1":"New York","lat":"43.26784"},{"adminCode1":"NY","lng":"-77.16081","geonameId":5142768,"toponymName":"WNNR-FM (Sodus)","countryId":"6252001","fcl":"S","population":0,"countryCode":"US","name":"WNNR-FM (Sodus)","fclName":"spot, building, farm","adminCodes1":{"ISO3166_2":"NY"},"countryName":"United States","fcodeName":"tower","adminName1":"New York","lat":"43.26812","fcode":"TOWR"},{"adminCode1":"NY","lng":"-76.98667","geonameId":7161152,"toponymName":"School Number 10 (historical)","countryId":"6252001","fcl":"S","population":0,"countryCode":"US","name":"School Number 10 (historical)","fclName":"spot, building, farm","adminCodes1":{"ISO3166_2":"NY"},"countryName":"United States","fcodeName":"school","adminName1":"New York","lat":"43.1675","fcode":"SCH"},{"adminCode1":"NY","lng":"-77.02917","geonameId":7161156,"toponymName":"School Number 2 (historical)","countryId":"6252001","fcl":"S","population":0,"countryCode":"US","name":"School Number 2 (historical)","fclName":"spot, building, farm","adminCodes1":{"ISO3166_2":"NY"},"countryName":"United States","fcodeName":"school","adminName1":"New York","lat":"43.26278","fcode":"SCH"},{"adminCode1":"NY","lng":"-77.11306","geonameId":7161157,"toponymName":"School Number 3 (historical)","countryId":"6252001","fcl":"S","population":0,"countryCode":"US","name":"School Number 3 (historical)","fclName":"spot, building, farm","adminCodes1":{"ISO3166_2":"NY"},"countryName":"United States","fcodeName":"school","adminName1":"New York","lat":"43.27528","fcode":"SCH"},{"adminCode1":"NY","lng":"-77.11194","geonameId":7161158,"toponymName":"School Number 6 (historical)","countryId":"6252001","fcl":"S","population":0,"countryCode":"US","name":"School Number 6 (historical)","fclName":"spot, building, farm","adminCodes1":{"ISO3166_2":"NY"},"countryName":"United States","fcodeName":"school","adminName1":"New York","lat":"43.25111","fcode":"SCH"},{"adminCode1":"NY","lng":"-77.06333","geonameId":7161159,"toponymName":"School Number 14 (historical)","countryId":"6252001","fcl":"S","population":0,"countryCode":"US","name":"School Number 14 (historical)","fclName":"spot, building, farm","adminCodes1":{"ISO3166_2":"NY"},"countryName":"United States","fcodeName":"school","adminName1":"New York","lat":"43.25167","fcode":"SCH"},{"adminCode1":"NY","lng":"-77.01278","geonameId":7161170,"toponymName":"School Number 8 (historical)","countryId":"6252001","fcl":"S","population":0,"countryCode":"US","name":"School Number 8 (historical)","fclName":"spot, building, farm","adminCodes1":{"ISO3166_2":"NY"},"countryName":"United States","fcodeName":"school","adminName1":"New York","lat":"43.22306","fcode":"SCH"},{"adminCode1":"NY","lng":"-77.01333","geonameId":7161171,"toponymName":"School Number 9 (historical)","countryId":"6252001","fcl":"S","population":0,"countryCode":"US","name":"School Number 9 (historical)","fclName":"spot, building, farm","adminCodes1":{"ISO3166_2":"NY"},"countryName":"United States","fcodeName":"school","adminName1":"New York","lat":"43.20111","fcode":"SCH"},{"adminCode1":"NY","lng":"-77.08472","geonameId":7161173,"toponymName":"School Number 15 (historical)","countryId":"6252001","fcl":"S","population":0,"countryCode":"US","name":"School Number 15 (historical)","fclName":"spot, building, farm","adminCodes1":{"ISO3166_2":"NY"},"countryName":"United States","fcodeName":"school","adminName1":"New York","lat":"43.17611","fcode":"SCH"},{"adminCode1":"NY","lng":"-77.01278","geonameId":7161176,"toponymName":"School Number 17 (historical)","countryId":"6252001","fcl":"S","population":0,"countryCode":"US","name":"School Number 17 (historical)","fclName":"spot, building, farm","adminCodes1":{"ISO3166_2":"NY"},"countryName":"United States","fcodeName":"school","adminName1":"New York","lat":"43.16472","fcode":"SCH"},{"adminCode1":"NY","lng":"-77.0925","geonameId":7161177,"toponymName":"School Number 18 (historical)","countryId":"6252001","fcl":"S","population":0,"countryCode":"US","name":"School Number 18 (historical)","fclName":"spot, building, farm","adminCodes1":{"ISO3166_2":"NY"},"countryName":"United States","fcodeName":"school","adminName1":"New York","lat":"43.19222","fcode":"SCH"},{"adminCode1":"NY","lng":"-77.06","geonameId":7161178,"toponymName":"School Number 19 (historical)","countryId":"6252001","fcl":"S","population":0,"countryCode":"US","name":"School Number 19 (historical)","fclName":"spot, building, farm","adminCodes1":{"ISO3166_2":"NY"},"countryName":"United States","fcodeName":"school","adminName1":"New York","lat":"43.18111","fcode":"SCH"},{"adminCode1":"NY","lng":"-77.12111","geonameId":7161180,"toponymName":"School Number 20 (historical)","countryId":"6252001","fcl":"S","population":0,"countryCode":"US","name":"School Number 20 (historical)","fclName":"spot, building, farm","adminCodes1":{"ISO3166_2":"NY"},"countryName":"United States","fcodeName":"school","adminName1":"New York","lat":"43.17139","fcode":"SCH"},{"adminCode1":"NY","lng":"-77.03028","geonameId":7161181,"toponymName":"School Number 21 (historical)","countryId":"6252001","fcl":"S","population":0,"countryCode":"US","name":"School Number 21 (historical)","fclName":"spot, building, farm","adminCodes1":{"ISO3166_2":"NY"},"countryName":"United States","fcodeName":"school","adminName1":"New York","lat":"43.18139","fcode":"SCH"},{"adminCode1":"NY","lng":"-77.03167","geonameId":7161182,"toponymName":"School Number 22 (historical)","countryId":"6252001","fcl":"S","population":0,"countryCode":"US","name":"School Number 22 (historical)","fclName":"spot, building, farm","adminCodes1":{"ISO3166_2":"NY"},"countryName":"United States","fcodeName":"school","adminName1":"New York","lat":"43.22944","fcode":"SCH"},{"adminCode1":"NY","lng":"-76.99306","geonameId":7161184,"toponymName":"School Number 13 (historical)","countryId":"6252001","fcl":"S","population":0,"countryCode":"US","name":"School Number 13 (historical)","fclName":"spot, building, farm","adminCodes1":{"ISO3166_2":"NY"},"countryName":"United States","fcodeName":"school","adminName1":"New York","lat":"43.25194","fcode":"SCH"},{"adminCode1":"NY","lng":"-77.0699","geonameId":7224551,"toponymName":"Church of the Epiphany","countryId":"6252001","fcl":"S","population":0,"countryCode":"US","name":"Church of the Epiphany","fclName":"spot, building, farm","adminCodes1":{"ISO3166_2":"NY"},"countryName":"United States","fcodeName":"church","adminName1":"New York","lat":"43.2358","fcode":"CH"},{"adminCode1":"NY","lng":"-77.0632","geonameId":7224553,"toponymName":"First Presbyterian Church","countryId":"6252001","fcl":"S","population":0,"countryCode":"US","name":"First Presbyterian Church","fclName":"spot, building, farm","adminCodes1":{"ISO3166_2":"NY"},"countryName":"United States","fcodeName":"church","adminName1":"New York","lat":"43.2354","fcode":"CH"}]}
