{"totalResultsCount":43,"geonames":[{"adminCode1":"NM","lng":"-104.48552","geonameId":5492396,"toponymName":"South Spring Acres","countryId":"6252001","fcl":"P","population":0,"countryCode":"US","name":"South Spring Acres","fclName":"city, village,...","adminCodes1":{"ISO3166_2":"NM"},"countryName":"United States","fcodeName":"populated place","adminName1":"New Mexico","lat":"33.34455","fcode":"PPL"},{"adminCode1":"NM","lng":"-104.52302","geonameId":5461733,"toponymName":"Chisums South Springs Ranch Historical Marker","countryId":"6252001","fcl":"L","population":0,"countryCode":"US","name":"Chisums South Springs Ranch Historical Marker","fclName":"parks,area, ...","adminCodes1":{"ISO3166_2":"NM"},"countryName":"United States","fcodeName":"park","adminName1":"New Mexico","lat":"33.39427","fcode":"PRK"},{"adminCode1":"NM","lng":"-104.41997","geonameId":5492140,"toponymName":"South Bitter Lake Oil Field","countryId":"6252001","fcl":"L","population":0,"countryCode":"US","name":"South Bitter Lake Oil Field","fclName":"parks,area, ...","adminCodes1":{"ISO3166_2":"NM"},"countryName":"United States","fcodeName":"oilfield","adminName1":"New Mexico","lat":"33.44204","fcode":"OILF"},{"adminCode1":"NM","lng":"-103.8519","geonameId":5492167,"toponymName":"South Caprock Oil Field","countryId":"6252001","fcl":"L","population":0,"countryCode":"US","name":"South Caprock Oil Field","fclName":"parks,area, ...","adminCodes1":{"ISO3166_2":"NM"},"countryName":"United States","fcodeName":"oilfield","adminName1":"New Mexico","lat":"32.98762","fcode":"OILF"},{"adminCode1":"NM","lng":"-104.83447","geonameId":5492274,"toponymName":"South Home Lake","countryId":"6252001","fcl":"H","population":0,"countryCode":"US","name":"South Home Lake","fclName":"stream, lake, ...","adminCodes1":{"ISO3166_2":"NM"},"countryName":"United States","fcodeName":"lake","adminName1":"New Mexico","lat":"34.0525","fcode":"LK"},{"adminCode1":"NM","lng":"-104.76813","geonameId":5492291,"toponymName":"South Lake","countryId":"6252001","fcl":"H","population":0,"countryCode":"US","name":"South Lake","fclName":"stream, lake, ...","adminCodes1":{"ISO3166_2":"NM"},"countryName":"United States","fcodeName":"lake","adminName1":"New Mexico","lat":"33.69559","fcode":"LK"},{"adminCode1":"NM","lng":"-105.27304","geonameId":5472583,"toponymName":"Indian Canyon","countryId":"6252001","fcl":"T","population":0,"countryCode":"US","name":"Indian Canyon","fclName":"mountain,hill,rock,... ","adminCodes1":{"ISO3166_2":"NM"},"countryName":"United States","fcodeName":"valley","adminName1":"New Mexico","lat":"33.07843","fcode":"VAL"},{"adminCode1":"NM","lng":"-104.85081","geonameId":5492246,"toponymName":"South Fork Rocky Draw","countryId":"6252001","fcl":"T","population":0,"countryCode":"US","name":"South Fork Rocky Draw","fclName":"mountain,hill,rock,... ","adminCodes1":{"ISO3166_2":"NM"},"countryName":"United States","fcodeName":"valley","adminName1":"New Mexico","lat":"33.30649","fcode":"VAL"},{"adminCode1":"NM","lng":"-104.47192","geonameId":5492517,"toponymName":"South Wylie Draw","countryId":"6252001","fcl":"T","population":0,"countryCode":"US","name":"South Wylie Draw","fclName":"mountain,hill,rock,... ","adminCodes1":{"ISO3166_2":"NM"},"countryName":"United States","fcodeName":"valley","adminName1":"New Mexico","lat":"33.99592","fcode":"VAL"},{"adminCode1":"NM","lng":"-104.85053","geonameId":5488259,"toponymName":"Rocky Draw","countryId":"6252001","fcl":"T","population":0,"countryCode":"US","name":"Rocky Draw","fclName":"mountain,hill,rock,... ","adminCodes1":{"ISO3166_2":"NM"},"countryName":"United States","fcodeName":"valley","adminName1":"New Mexico","lat":"33.30677","fcode":"VAL"},{"adminCode1":"NM","lng":"-104.41636","geonameId":5492398,"toponymName":"South Spring River","countryId":"6252001","fcl":"H","population":0,"countryCode":"US","name":"South Spring River","fclName":"stream, lake, ...","adminCodes1":{"ISO3166_2":"NM"},"countryName":"United States","fcodeName":"stream","adminName1":"New Mexico","lat":"33.36732","fcode":"STM"},{"adminCode1":"NM","lng":"-104.05941","geonameId":5492257,"toponymName":"South Fork White Draw","countryId":"6252001","fcl":"T","population":0,"countryCode":"US","name":"South Fork White Draw","fclName":"mountain,hill,rock,... ","adminCodes1":{"ISO3166_2":"NM"},"countryName":"United States","fcodeName":"valley","adminName1":"New Mexico","lat":"34.06091","fcode":"VAL"},{"adminCode1":"NM","lng":"-104.1444","geonameId":5492309,"toponymName":"South Mill","countryId":"6252001","fcl":"P","population":0,"countryCode":"US","name":"South Mill","fclName":"city, village,...","adminCodes1":{"ISO3166_2":"NM"},"countryName":"United States","fcodeName":"populated place","adminName1":"New Mexico","lat":"33.16733","fcode":"PPL"},{"adminCode1":"NM","lng":"-104.47275","geonameId":5492399,"toponymName":"South Spring","countryId":"6252001","fcl":"P","population":0,"countryCode":"US","name":"South Spring","fclName":"city, village,...","adminCodes1":{"ISO3166_2":"NM"},"countryName":"United States","fcodeName":"populated place","adminName1":"New Mexico","lat":"33.33566","fcode":"PPL"},{"adminCode1":"NM","lng":"-104.45997","geonameId":5457213,"toponymName":"Berrendo Creek","countryId":"6252001","fcl":"H","population":0,"countryCode":"US","name":"Berrendo Creek","fclName":"stream, lake, ...","adminCodes1":{"ISO3166_2":"NM"},"countryName":"United States","fcodeName":"stream","adminName1":"New Mexico","lat":"33.41204","fcode":"STM"},{"adminCode1":"NM","lng":"-108.15201","geonameId":5492170,"toponymName":"South Chaves","countryId":"6252001","fcl":"P","population":0,"countryCode":"US","name":"South Chaves","fclName":"city, village,...","adminCodes1":{"ISO3166_2":"NM"},"countryName":"United States","fcodeName":"populated place","adminName1":"New Mexico","lat":"35.38836","fcode":"PPL"},{"adminCode1":"NM","lng":"-105.14692","geonameId":5492456,"toponymName":"South Well","countryId":"6252001","fcl":"H","population":0,"countryCode":"US","name":"South Well","fclName":"stream, lake, ...","adminCodes1":{"ISO3166_2":"NM"},"countryName":"United States","fcodeName":"reservoir(s)","adminName1":"New Mexico","lat":"32.54094","fcode":"RSV"},{"adminCode1":"NM","lng":"-104.5225","geonameId":6346680,"toponymName":"South Springs Ranch Outbuildings","countryId":"6252001","fcl":"S","population":0,"countryCode":"US","name":"South Springs Ranch Outbuildings","fclName":"spot, building, farm","adminCodes1":{"ISO3166_2":"NM"},"countryName":"United States","fcodeName":"building(s)","adminName1":"New Mexico","lat":"33.39417","fcode":"BLDG"},{"adminCode1":"NM","lng":"-104.42024","geonameId":5474350,"toponymName":"Kerr Brothers South Ranch","countryId":"6252001","fcl":"S","population":0,"countryCode":"US","name":"Kerr Brothers South Ranch","fclName":"spot, building, farm","adminCodes1":{"ISO3166_2":"NM"},"countryName":"United States","fcodeName":"","adminName1":"New Mexico","lat":"33.14788"},{"adminCode1":"NM","lng":"-104.14774","geonameId":5492135,"toponymName":"South Ballard Tank","countryId":"6252001","fcl":"H","population":0,"countryCode":"US","name":"South Ballard Tank","fclName":"stream, lake, ...","adminCodes1":{"ISO3166_2":"NM"},"countryName":"United States","fcodeName":"water tank","adminName1":"New Mexico","lat":"33.83028","fcode":"RSVT"},{"adminCode1":"NM","lng":"-104.85137","geonameId":5492155,"toponymName":"South Camp","countryId":"6252001","fcl":"S","population":0,"countryCode":"US","name":"South Camp","fclName":"spot, building, farm","adminCodes1":{"ISO3166_2":"NM"},"countryName":"United States","fcodeName":"camp(s)","adminName1":"New Mexico","lat":"34.01758","fcode":"CMP"},{"adminCode1":"NM","lng":"-104.08385","geonameId":5492169,"toponymName":"South Chatten- Muncy Ranch","countryId":"6252001","fcl":"S","population":0,"countryCode":"US","name":"South Chatten- Muncy Ranch","fclName":"spot, building, farm","adminCodes1":{"ISO3166_2":"NM"},"countryName":"United States","fcodeName":"","adminName1":"New Mexico","lat":"33.74342"},{"adminCode1":"NM","lng":"-104.7747","geonameId":5492245,"toponymName":"South Fork Rocky Arroyo","countryId":"6252001","fcl":"H","population":0,"countryCode":"US","name":"South Fork Rocky Arroyo","fclName":"stream, lake, ...","adminCodes1":{"ISO3166_2":"NM"},"countryName":"United States","fcodeName":"stream","adminName1":"New Mexico","lat":"33.26788","fcode":"STM"},{"adminCode1":"NM","lng":"-104.51636","geonameId":5492272,"toponymName":"South Hill School","countryId":"6252001","fcl":"S","population":0,"countryCode":"US","name":"South Hill School","fclName":"spot, building, farm","adminCodes1":{"ISO3166_2":"NM"},"countryName":"United States","fcodeName":"school","adminName1":"New Mexico","lat":"33.38621","fcode":"SCH"},{"adminCode1":"NM","lng":"-104.52302","geonameId":5492301,"toponymName":"South Manor Baptist Church","countryId":"6252001","fcl":"S","population":0,"countryCode":"US","name":"South Manor Baptist Church","fclName":"spot, building, farm","adminCodes1":{"ISO3166_2":"NM"},"countryName":"United States","fcodeName":"church","adminName1":"New Mexico","lat":"33.39427","fcode":"CH"},{"adminCode1":"NM","lng":"-104.19913","geonameId":5492310,"toponymName":"South Mill Well","countryId":"6252001","fcl":"H","population":0,"countryCode":"US","name":"South Mill Well","fclName":"stream, lake, ...","adminCodes1":{"ISO3166_2":"NM"},"countryName":"United States","fcodeName":"well","adminName1":"New Mexico","lat":"33.49732","fcode":"WLL"},{"adminCode1":"NM","lng":"-104.51413","geonameId":5492323,"toponymName":"South Park Cemetery","countryId":"6252001","fcl":"S","population":0,"countryCode":"US","name":"South Park Cemetery","fclName":"spot, building, farm","adminCodes1":{"ISO3166_2":"NM"},"countryName":"United States","fcodeName":"cemetery","adminName1":"New Mexico","lat":"33.35871","fcode":"CMTY"},{"adminCode1":"NM","lng":"-105.31968","geonameId":5492326,"toponymName":"South Pasture Tank Number 1","countryId":"6252001","fcl":"H","population":0,"countryCode":"US","name":"South Pasture Tank Number 1","fclName":"stream, lake, ...","adminCodes1":{"ISO3166_2":"NM"},"countryName":"United States","fcodeName":"water tank","adminName1":"New Mexico","lat":"32.86544","fcode":"RSVT"},{"adminCode1":"NM","lng":"-105.31534","geonameId":5492327,"toponymName":"South Pasture Tank Number 2","countryId":"6252001","fcl":"H","population":0,"countryCode":"US","name":"South Pasture Tank Number 2","fclName":"stream, lake, ...","adminCodes1":{"ISO3166_2":"NM"},"countryName":"United States","fcodeName":"water tank","adminName1":"New Mexico","lat":"32.85565","fcode":"RSVT"},{"adminCode1":"NM","lng":"-104.17858","geonameId":5492366,"toponymName":"South Samples Well","countryId":"6252001","fcl":"H","population":0,"countryCode":"US","name":"South Samples Well","fclName":"stream, lake, ...","adminCodes1":{"ISO3166_2":"NM"},"countryName":"United States","fcodeName":"well","adminName1":"New Mexico","lat":"33.66981","fcode":"WLL"},{"adminCode1":"NM","lng":"-104.47025","geonameId":5492397,"toponymName":"South Spring Ranch","countryId":"6252001","fcl":"S","population":0,"countryCode":"US","name":"South Spring Ranch","fclName":"spot, building, farm","adminCodes1":{"ISO3166_2":"NM"},"countryName":"United States","fcodeName":"","adminName1":"New Mexico","lat":"33.34566"},{"adminCode1":"NM","lng":"-104.13224","geonameId":5492405,"toponymName":"South Tank","countryId":"6252001","fcl":"H","population":0,"countryCode":"US","name":"South Tank","fclName":"stream, lake, ...","adminCodes1":{"ISO3166_2":"NM"},"countryName":"United States","fcodeName":"water tank","adminName1":"New Mexico","lat":"33.14286","fcode":"RSVT"},{"adminCode1":"NM","lng":"-104.61674","geonameId":5492406,"toponymName":"South Tank","countryId":"6252001","fcl":"H","population":0,"countryCode":"US","name":"South Tank","fclName":"stream, lake, ...","adminCodes1":{"ISO3166_2":"NM"},"countryName":"United States","fcodeName":"water tank","adminName1":"New Mexico","lat":"33.94278","fcode":"RSVT"},{"adminCode1":"NM","lng":"-104.83933","geonameId":5492407,"toponymName":"South Tank","countryId":"6252001","fcl":"H","population":0,"countryCode":"US","name":"South Tank","fclName":"stream, lake, ...","adminCodes1":{"ISO3166_2":"NM"},"countryName":"United States","fcodeName":"water tank","adminName1":"New Mexico","lat":"33.91973","fcode":"RSVT"},{"adminCode1":"NM","lng":"-104.11721","geonameId":5492408,"toponymName":"South Tank","countryId":"6252001","fcl":"H","population":0,"countryCode":"US","name":"South Tank","fclName":"stream, lake, ...","adminCodes1":{"ISO3166_2":"NM"},"countryName":"United States","fcodeName":"water tank","adminName1":"New Mexico","lat":"33.58111","fcode":"RSVT"},{"adminCode1":"NM","lng":"-104.88087","geonameId":5492435,"toponymName":"South Taylor Tank","countryId":"6252001","fcl":"H","population":0,"countryCode":"US","name":"South Taylor Tank","fclName":"stream, lake, ...","adminCodes1":{"ISO3166_2":"NM"},"countryName":"United States","fcodeName":"water tank","adminName1":"New Mexico","lat":"32.55877","fcode":"RSVT"},{"adminCode1":"NM","lng":"-104.93581","geonameId":5492439,"toponymName":"South Turknett Well","countryId":"6252001","fcl":"H","population":0,"countryCode":"US","name":"South Turknett Well","fclName":"stream, lake, ...","adminCodes1":{"ISO3166_2":"NM"},"countryName":"United States","fcodeName":"well","adminName1":"New Mexico","lat":"33.03566","fcode":"WLL"},{"adminCode1":"NM","lng":"-104.17024","geonameId":5492446,"toponymName":"South Van Eaton Ranch","countryId":"6252001","fcl":"S","population":0,"countryCode":"US","name":"South Van Eaton Ranch","fclName":"spot, building, farm","adminCodes1":{"ISO3166_2":"NM"},"countryName":"United States","fcodeName":"","adminName1":"New Mexico","lat":"33.80453"},{"adminCode1":"NM","lng":"-103.9708","geonameId":5492457,"toponymName":"South Well","countryId":"6252001","fcl":"S","population":0,"countryCode":"US","name":"South Well","fclName":"spot, building, farm","adminCodes1":{"ISO3166_2":"NM"},"countryName":"United States","fcodeName":"","adminName1":"New Mexico","lat":"33.69898"},{"adminCode1":"NM","lng":"-104.31303","geonameId":5492458,"toponymName":"South Well","countryId":"6252001","fcl":"H","population":0,"countryCode":"US","name":"South Well","fclName":"stream, lake, ...","adminCodes1":{"ISO3166_2":"NM"},"countryName":"United States","fcodeName":"well","adminName1":"New Mexico","lat":"33.96203","fcode":"WLL"},{"adminCode1":"NM","lng":"-104.34914","geonameId":5492459,"toponymName":"South Well","countryId":"6252001","fcl":"S","population":0,"countryCode":"US","name":"South Well","fclName":"spot, building, farm","adminCodes1":{"ISO3166_2":"NM"},"countryName":"United States","fcodeName":"","adminName1":"New Mexico","lat":"33.83508"},{"adminCode1":"NM","lng":"-104.30802","geonameId":5492499,"toponymName":"South Windmill","countryId":"6252001","fcl":"S","population":0,"countryCode":"US","name":"South Windmill","fclName":"spot, building, farm","adminCodes1":{"ISO3166_2":"NM"},"countryName":"United States","fcodeName":"","adminName1":"New Mexico","lat":"33.54621"},{"adminCode1":"NM","lng":"-104.87137","geonameId":5492500,"toponymName":"South Windmill","countryId":"6252001","fcl":"S","population":0,"countryCode":"US","name":"South Windmill","fclName":"spot, building, farm","adminCodes1":{"ISO3166_2":"NM"},"countryName":"United States","fcodeName":"","adminName1":"New Mexico","lat":"33.57509"}]}
