{"totalResultsCount":6,"geonames":[{"adminCode1":"MO","lng":"-90.32845","geonameId":4409912,"toponymName":"Sprott","countryId":"6252001","fcl":"P","population":0,"countryCode":"US","name":"Sprott","fclName":"city, village,...","adminCodes1":{"ISO3166_2":"MO"},"countryName":"United States","fcodeName":"populated place","adminName1":"Missouri","lat":"37.86394","fcode":"PPL"},{"adminCode1":"AL","lng":"-87.22139","geonameId":4091552,"toponymName":"Sprott","countryId":"6252001","fcl":"P","population":0,"countryCode":"US","name":"Sprott","fclName":"city, village,...","adminCodes1":{"ISO3166_2":"AL"},"countryName":"United States","fcodeName":"populated place","adminName1":"Alabama","lat":"32.6768","fcode":"PPL"},{"adminCode1":"TX","lng":"-94.10907","geonameId":4733949,"toponymName":"Sprott Park","countryId":"6252001","fcl":"L","population":0,"countryCode":"US","name":"Sprott Park","fclName":"parks,area, ...","adminCodes1":{"ISO3166_2":"TX"},"countryName":"United States","fcodeName":"park","adminName1":"Texas","lat":"30.04355","fcode":"PRK"},{"adminCode1":"TN","lng":"-86.81861","geonameId":4659603,"toponymName":"Sprott Cemetery","countryId":"6252001","fcl":"S","population":0,"countryCode":"US","name":"Sprott Cemetery","fclName":"spot, building, farm","adminCodes1":{"ISO3166_2":"TN"},"countryName":"United States","fcodeName":"cemetery","adminName1":"Tennessee","lat":"35.76951","fcode":"CMTY"},{"adminCode1":"TX","lng":"-94.10907","geonameId":4733950,"toponymName":"Sprott Park Trail","countryId":"6252001","fcl":"R","population":0,"countryCode":"US","name":"Sprott Park Trail","fclName":"road, railroad ","adminCodes1":{"ISO3166_2":"TX"},"countryName":"United States","fcodeName":"trail","adminName1":"Texas","lat":"30.04355","fcode":"TRL"},{"adminCode1":"AL","lng":"-87.19779","geonameId":8120497,"toponymName":"Sprott Volunteer Fire Department","countryId":"6252001","fcl":"S","population":0,"countryCode":"US","name":"Sprott Volunteer Fire Department","fclName":"spot, building, farm","adminCodes1":{"ISO3166_2":"AL"},"countryName":"United States","fcodeName":"building(s)","adminName1":"Alabama","lat":"32.70656","fcode":"BLDG"}]}
