{"totalResultsCount":47,"geonames":[{"adminCode1":"ID","lng":"-115.05801","geonameId":5608737,"toponymName":"Stanley Lake","countryId":"6252001","fcl":"H","population":0,"countryCode":"US","name":"Stanley Lake","fclName":"stream, lake, ...","adminCodes1":{"ISO3166_2":"ID"},"countryName":"United States","fcodeName":"lake","adminName1":"Idaho","lat":"44.24433","fcode":"LK"},{"adminCode1":"SD","lng":"-101.01209","geonameId":5765456,"toponymName":"Hayes Lake State Access Area","countryId":"6252001","fcl":"L","population":0,"countryCode":"US","name":"Hayes Lake State Access Area","fclName":"parks,area, ...","adminCodes1":{"ISO3166_2":"SD"},"countryName":"United States","fcodeName":"park","adminName1":"South Dakota","lat":"44.36804","fcode":"PRK"},{"adminCode1":"PA","lng":"-76.04329","geonameId":5213630,"toponymName":"Stanley Lake","countryId":"6252001","fcl":"H","population":0,"countryCode":"US","name":"Stanley Lake","fclName":"stream, lake, ...","adminCodes1":{"ISO3166_2":"PA"},"countryName":"United States","fcodeName":"lake","adminName1":"Pennsylvania","lat":"41.94351","fcode":"LK"},{"adminCode1":"FL","lng":"-81.50014","geonameId":4173977,"toponymName":"Lake Stanley","countryId":"6252001","fcl":"H","population":0,"countryCode":"US","name":"Lake Stanley","fclName":"stream, lake, ...","adminCodes1":{"ISO3166_2":"FL"},"countryName":"United States","fcodeName":"lake","adminName1":"Florida","lat":"28.58183","fcode":"LK"},{"adminCode1":"GA","lng":"-83.62902","geonameId":4224316,"toponymName":"Stanley Bay","countryId":"6252001","fcl":"H","population":0,"countryCode":"US","name":"Stanley Bay","fclName":"stream, lake, ...","adminCodes1":{"ISO3166_2":"GA"},"countryName":"United States","fcodeName":"lake","adminName1":"Georgia","lat":"30.69992","fcode":"LK"},{"adminCode1":"OR","lng":"-123.90814","geonameId":5754335,"toponymName":"Stanley Lake","countryId":"6252001","fcl":"H","population":0,"countryCode":"US","name":"Stanley Lake","fclName":"stream, lake, ...","adminCodes1":{"ISO3166_2":"OR"},"countryName":"United States","fcodeName":"lake","adminName1":"Oregon","lat":"46.00797","fcode":"LK"},{"adminCode1":"MO","lng":"-93.25225","geonameId":4409996,"toponymName":"Stanley Lake","countryId":"6252001","fcl":"H","population":0,"countryCode":"US","name":"Stanley Lake","fclName":"stream, lake, ...","adminCodes1":{"ISO3166_2":"MO"},"countryName":"United States","fcodeName":"lake","adminName1":"Missouri","lat":"39.63759","fcode":"LK"},{"adminCode1":"FL","lng":"-86.14002","geonameId":4173978,"toponymName":"Lake Stanley","countryId":"6252001","fcl":"H","population":0,"countryCode":"US","name":"Lake Stanley","fclName":"stream, lake, ...","adminCodes1":{"ISO3166_2":"FL"},"countryName":"United States","fcodeName":"lake","adminName1":"Florida","lat":"30.73773","fcode":"LK"},{"adminCode1":"CO","lng":"-104.62859","geonameId":5440203,"toponymName":"Stanley Lake","countryId":"6252001","fcl":"H","population":0,"countryCode":"US","name":"Stanley Lake","fclName":"stream, lake, ...","adminCodes1":{"ISO3166_2":"CO"},"countryName":"United States","fcodeName":"lake","adminName1":"Colorado","lat":"37.51507","fcode":"LK"},{"adminCode1":"WI","lng":"-91.33924","geonameId":5274475,"toponymName":"Stanley Lake","countryId":"6252001","fcl":"H","population":0,"countryCode":"US","name":"Stanley Lake","fclName":"stream, lake, ...","adminCodes1":{"ISO3166_2":"WI"},"countryName":"United States","fcodeName":"lake","adminName1":"Wisconsin","lat":"45.16746","fcode":"LK"},{"adminCode1":"MI","lng":"-88.7081","geonameId":5011033,"toponymName":"Stanley Lake","countryId":"6252001","fcl":"H","population":0,"countryCode":"US","name":"Stanley Lake","fclName":"stream, lake, ...","adminCodes1":{"ISO3166_2":"MI"},"countryName":"United States","fcodeName":"lake","adminName1":"Michigan","lat":"46.05888","fcode":"LK"},{"adminCode1":"MI","lng":"-86.15471","geonameId":5011040,"toponymName":"Stanley Lake","countryId":"6252001","fcl":"H","population":0,"countryCode":"US","name":"Stanley Lake","fclName":"stream, lake, ...","adminCodes1":{"ISO3166_2":"MI"},"countryName":"United States","fcodeName":"lake","adminName1":"Michigan","lat":"46.48934","fcode":"LK"},{"adminCode1":"MN","lng":"-94.60901","geonameId":5048544,"toponymName":"Stanley Lake","countryId":"6252001","fcl":"H","population":0,"countryCode":"US","name":"Stanley Lake","fclName":"stream, lake, ...","adminCodes1":{"ISO3166_2":"MN"},"countryName":"United States","fcodeName":"lake","adminName1":"Minnesota","lat":"47.07714","fcode":"LK"},{"adminCode1":"MN","lng":"-93.96707","geonameId":5048545,"toponymName":"Stanley Lake","countryId":"6252001","fcl":"H","population":0,"countryCode":"US","name":"Stanley Lake","fclName":"stream, lake, ...","adminCodes1":{"ISO3166_2":"MN"},"countryName":"United States","fcodeName":"lake","adminName1":"Minnesota","lat":"46.56219","fcode":"LK"},{"adminCode1":"FL","lng":"-82.01445","geonameId":4173972,"toponymName":"Stanley Fish Hole","countryId":"6252001","fcl":"H","population":0,"countryCode":"US","name":"Stanley Fish Hole","fclName":"stream, lake, ...","adminCodes1":{"ISO3166_2":"FL"},"countryName":"United States","fcodeName":"lake","adminName1":"Florida","lat":"28.32318","fcode":"LK"},{"adminCode1":"FL","lng":"-83.51993","geonameId":4173975,"toponymName":"Stanley Sog","countryId":"6252001","fcl":"H","population":0,"countryCode":"US","name":"Stanley Sog","fclName":"stream, lake, ...","adminCodes1":{"ISO3166_2":"FL"},"countryName":"United States","fcodeName":"lake","adminName1":"Florida","lat":"29.82526","fcode":"LK"},{"adminCode1":"OK","lng":"-97.37031","geonameId":4540581,"toponymName":"Lake Stanley Draper","countryId":"6252001","fcl":"H","population":0,"countryCode":"US","name":"Lake Stanley Draper","fclName":"stream, lake, ...","adminCodes1":{"ISO3166_2":"OK"},"countryName":"United States","fcodeName":"reservoir(s)","adminName1":"Oklahoma","lat":"35.31173","fcode":"RSV"},{"adminCode1":"SC","lng":"-81.0682","geonameId":4597531,"toponymName":"Stanley Pond","countryId":"6252001","fcl":"H","population":0,"countryCode":"US","name":"Stanley Pond","fclName":"stream, lake, ...","adminCodes1":{"ISO3166_2":"SC"},"countryName":"United States","fcodeName":"lake","adminName1":"South Carolina","lat":"33.91231","fcode":"LK"},{"adminCode1":"OH","lng":"-83.51854","geonameId":5172916,"toponymName":"Stanley","countryId":"6252001","fcl":"P","population":0,"countryCode":"US","name":"Stanley","fclName":"city, village,...","adminCodes1":{"ISO3166_2":"OH"},"countryName":"United States","fcodeName":"populated place","adminName1":"Ohio","lat":"41.59199","fcode":"PPL"},{"adminCode1":"ID","lng":"-115.05342","geonameId":5608738,"toponymName":"Stanley Lake Campground","countryId":"6252001","fcl":"S","population":0,"countryCode":"US","name":"Stanley Lake Campground","fclName":"spot, building, farm","adminCodes1":{"ISO3166_2":"ID"},"countryName":"United States","fcodeName":"camp(s)","adminName1":"Idaho","lat":"44.24852","fcode":"CMP"},{"adminCode1":"ID","lng":"-115.00509","geonameId":5608739,"toponymName":"Stanley Lake Creek","countryId":"6252001","fcl":"H","population":0,"countryCode":"US","name":"Stanley Lake Creek","fclName":"stream, lake, ...","adminCodes1":{"ISO3166_2":"ID"},"countryName":"United States","fcodeName":"stream","adminName1":"Idaho","lat":"44.25352","fcode":"STM"},{"adminCode1":"OK","lng":"-97.35596","geonameId":4552125,"toponymName":"Stanley Draper Lake","countryId":"6252001","fcl":"H","population":0,"countryCode":"US","name":"Stanley Draper Lake","fclName":"stream, lake, ...","adminCodes1":{"ISO3166_2":"OK"},"countryName":"United States","fcodeName":"reservoir(s)","adminName1":"Oklahoma","lat":"35.34982","fcode":"RSV"},{"adminCode1":"NV","lng":"-119.82102","geonameId":5514915,"toponymName":"Wheeler Reservoir","countryId":"6252001","fcl":"H","population":0,"countryCode":"US","name":"Wheeler Reservoir","fclName":"stream, lake, ...","adminCodes1":{"ISO3166_2":"NV"},"countryName":"United States","fcodeName":"reservoir(s)","adminName1":"Nevada","lat":"39.46824","fcode":"RSV"},{"adminCode1":"GA","lng":"-82.79351","geonameId":4224330,"toponymName":"Stanley Lake","countryId":"6252001","fcl":"H","population":0,"countryCode":"US","name":"Stanley Lake","fclName":"stream, lake, ...","adminCodes1":{"ISO3166_2":"GA"},"countryName":"United States","fcodeName":"reservoir(s)","adminName1":"Georgia","lat":"32.64984","fcode":"RSV"},{"adminCode1":"GA","lng":"-82.79486","geonameId":4224331,"toponymName":"Stanley Lake Dam","countryId":"6252001","fcl":"S","population":0,"countryCode":"US","name":"Stanley Lake Dam","fclName":"spot, building, farm","adminCodes1":{"ISO3166_2":"GA"},"countryName":"United States","fcodeName":"dam","adminName1":"Georgia","lat":"32.65016","fcode":"DAM"},{"adminCode1":"SD","lng":"-101.01123","geonameId":5765455,"toponymName":"Hayes Lake","countryId":"6252001","fcl":"H","population":0,"countryCode":"US","name":"Hayes Lake","fclName":"stream, lake, ...","adminCodes1":{"ISO3166_2":"SD"},"countryName":"United States","fcodeName":"reservoir(s)","adminName1":"South Dakota","lat":"44.36273","fcode":"RSV"},{"adminCode1":"ID","lng":"-115.04203","geonameId":5608744,"toponymName":"Stanley Lake Fish Barrier Dam","countryId":"6252001","fcl":"S","population":0,"countryCode":"US","name":"Stanley Lake Fish Barrier Dam","fclName":"spot, building, farm","adminCodes1":{"ISO3166_2":"ID"},"countryName":"United States","fcodeName":"dam","adminName1":"Idaho","lat":"44.24935","fcode":"DAM"},{"adminCode1":"TX","lng":"-95.64867","geonameId":4734086,"toponymName":"Stanley Lake","countryId":"6252001","fcl":"H","population":0,"countryCode":"US","name":"Stanley Lake","fclName":"stream, lake, ...","adminCodes1":{"ISO3166_2":"TX"},"countryName":"United States","fcodeName":"reservoir(s)","adminName1":"Texas","lat":"30.38702","fcode":"RSV"},{"adminCode1":"OK","lng":"-96.35334","geonameId":4552128,"toponymName":"Stanley Lake","countryId":"6252001","fcl":"H","population":0,"countryCode":"US","name":"Stanley Lake","fclName":"stream, lake, ...","adminCodes1":{"ISO3166_2":"OK"},"countryName":"United States","fcodeName":"reservoir(s)","adminName1":"Oklahoma","lat":"35.30472","fcode":"RSV"},{"adminCode1":"OK","lng":"-96.35195","geonameId":4552129,"toponymName":"Stanley Lake Dam","countryId":"6252001","fcl":"S","population":0,"countryCode":"US","name":"Stanley Lake Dam","fclName":"spot, building, farm","adminCodes1":{"ISO3166_2":"OK"},"countryName":"United States","fcodeName":"dam","adminName1":"Oklahoma","lat":"35.30175","fcode":"DAM"},{"adminCode1":"AR","lng":"-93.73018","geonameId":4132211,"toponymName":"Stanley Lake Number One","countryId":"6252001","fcl":"H","population":0,"countryCode":"US","name":"Stanley Lake Number One","fclName":"stream, lake, ...","adminCodes1":{"ISO3166_2":"AR"},"countryName":"United States","fcodeName":"reservoir(s)","adminName1":"Arkansas","lat":"33.92011","fcode":"RSV"},{"adminCode1":"AR","lng":"-93.73018","geonameId":4132212,"toponymName":"Stanley Lake Number One Dam","countryId":"6252001","fcl":"S","population":0,"countryCode":"US","name":"Stanley Lake Number One Dam","fclName":"spot, building, farm","adminCodes1":{"ISO3166_2":"AR"},"countryName":"United States","fcodeName":"dam","adminName1":"Arkansas","lat":"33.92011","fcode":"DAM"},{"adminCode1":"AR","lng":"-93.74851","geonameId":4132213,"toponymName":"Stanley Lake Number Two","countryId":"6252001","fcl":"H","population":0,"countryCode":"US","name":"Stanley Lake Number Two","fclName":"stream, lake, ...","adminCodes1":{"ISO3166_2":"AR"},"countryName":"United States","fcodeName":"reservoir(s)","adminName1":"Arkansas","lat":"33.91011","fcode":"RSV"},{"adminCode1":"AR","lng":"-93.74851","geonameId":4132214,"toponymName":"Stanley Lake Number Two Dam","countryId":"6252001","fcl":"S","population":0,"countryCode":"US","name":"Stanley Lake Number Two Dam","fclName":"spot, building, farm","adminCodes1":{"ISO3166_2":"AR"},"countryName":"United States","fcodeName":"dam","adminName1":"Arkansas","lat":"33.91011","fcode":"DAM"},{"adminCode1":"FL","lng":"-86.14855","geonameId":4161374,"toponymName":"Lake Stanley Church","countryId":"6252001","fcl":"S","population":0,"countryCode":"US","name":"Lake Stanley Church","fclName":"spot, building, farm","adminCodes1":{"ISO3166_2":"FL"},"countryName":"United States","fcodeName":"church","adminName1":"Florida","lat":"30.73908","fcode":"CH"},{"adminCode1":"TX","lng":"-101.72754","geonameId":5531681,"toponymName":"Stanley Schaeffer Lake","countryId":"6252001","fcl":"H","population":0,"countryCode":"US","name":"Stanley Schaeffer Lake","fclName":"stream, lake, ...","adminCodes1":{"ISO3166_2":"TX"},"countryName":"United States","fcodeName":"reservoir(s)","adminName1":"Texas","lat":"34.82219","fcode":"RSV"},{"adminCode1":"MO","lng":"-93.86008","geonameId":5055862,"toponymName":"Landes-Stanley Lake","countryId":"6252001","fcl":"H","population":0,"countryCode":"US","name":"Landes-Stanley Lake","fclName":"stream, lake, ...","adminCodes1":{"ISO3166_2":"MO"},"countryName":"United States","fcodeName":"reservoir(s)","adminName1":"Missouri","lat":"40.30747","fcode":"RSV"},{"adminCode1":"MO","lng":"-93.86023","geonameId":5055863,"toponymName":"Landes-Stanley Lake Dam","countryId":"6252001","fcl":"S","population":0,"countryCode":"US","name":"Landes-Stanley Lake Dam","fclName":"spot, building, farm","adminCodes1":{"ISO3166_2":"MO"},"countryName":"United States","fcodeName":"dam","adminName1":"Missouri","lat":"40.30667","fcode":"DAM"},{"adminCode1":"MI","lng":"-86.15155","geonameId":5011034,"toponymName":"Stanley Lake Campground","countryId":"6252001","fcl":"S","population":0,"countryCode":"US","name":"Stanley Lake Campground","fclName":"spot, building, farm","adminCodes1":{"ISO3166_2":"MI"},"countryName":"United States","fcodeName":"camp(s)","adminName1":"Michigan","lat":"46.49108","fcode":"CMP"},{"adminCode1":"OH","lng":"-81.2302","geonameId":5172919,"toponymName":"Stanley Lake 006","countryId":"6252001","fcl":"H","population":0,"countryCode":"US","name":"Stanley Lake 006","fclName":"stream, lake, ...","adminCodes1":{"ISO3166_2":"OH"},"countryName":"United States","fcodeName":"reservoir(s)","adminName1":"Ohio","lat":"40.44535","fcode":"RSV"},{"adminCode1":"OH","lng":"-81.23641","geonameId":5172920,"toponymName":"Stanley Lake 007","countryId":"6252001","fcl":"H","population":0,"countryCode":"US","name":"Stanley Lake 007","fclName":"stream, lake, ...","adminCodes1":{"ISO3166_2":"OH"},"countryName":"United States","fcodeName":"reservoir(s)","adminName1":"Ohio","lat":"40.44421","fcode":"RSV"},{"adminCode1":"OH","lng":"-81.22816","geonameId":5172921,"toponymName":"Stanley Lake Dam 006","countryId":"6252001","fcl":"S","population":0,"countryCode":"US","name":"Stanley Lake Dam 006","fclName":"spot, building, farm","adminCodes1":{"ISO3166_2":"OH"},"countryName":"United States","fcodeName":"dam","adminName1":"Ohio","lat":"40.44507","fcode":"DAM"},{"adminCode1":"OH","lng":"-81.23483","geonameId":5172922,"toponymName":"Stanley Lake Dam 007","countryId":"6252001","fcl":"S","population":0,"countryCode":"US","name":"Stanley Lake Dam 007","fclName":"spot, building, farm","adminCodes1":{"ISO3166_2":"OH"},"countryName":"United States","fcodeName":"dam","adminName1":"Ohio","lat":"40.44507","fcode":"DAM"},{"adminCode1":"OH","lng":"-83.51632","geonameId":5172923,"toponymName":"Stanley Yard","countryId":"6252001","fcl":"S","population":0,"countryCode":"US","name":"Stanley Yard","fclName":"spot, building, farm","adminCodes1":{"ISO3166_2":"OH"},"countryName":"United States","fcodeName":"","adminName1":"Ohio","lat":"41.58144"},{"adminCode1":"AR","lng":"-91.41012","geonameId":4105335,"toponymName":"Chaney Lake Dam","countryId":"6252001","fcl":"S","population":0,"countryCode":"US","name":"Chaney Lake Dam","fclName":"spot, building, farm","adminCodes1":{"ISO3166_2":"AR"},"countryName":"United States","fcodeName":"dam","adminName1":"Arkansas","lat":"34.17677","fcode":"DAM"},{"adminCode1":"PA","lng":"-76.03965","geonameId":5213631,"toponymName":"Stanley Lake Dam","countryId":"6252001","fcl":"S","population":0,"countryCode":"US","name":"Stanley Lake Dam","fclName":"spot, building, farm","adminCodes1":{"ISO3166_2":"PA"},"countryName":"United States","fcodeName":"dam","adminName1":"Pennsylvania","lat":"41.96174","fcode":"DAM"},{"adminCode1":"WI","lng":"-91.73434","geonameId":5259264,"toponymName":"Lake Seven Movie Theatre","countryId":"6252001","fcl":"S","population":0,"countryCode":"US","name":"Lake Seven Movie Theatre","fclName":"spot, building, farm","adminCodes1":{"ISO3166_2":"WI"},"countryName":"United States","fcodeName":"building(s)","adminName1":"Wisconsin","lat":"45.4619","fcode":"BLDG"}]}
