{"totalResultsCount":588,"geonames":[{"adminCode1":"IA","lng":"-95.67139","geonameId":4878195,"toponymName":"Tabor","countryId":"6252001","fcl":"P","population":979,"countryCode":"US","name":"Tabor","fclName":"city, village,...","adminCodes1":{"ISO3166_2":"IA"},"countryName":"United States","fcodeName":"populated place","adminName1":"Iowa","lat":"40.89833","fcode":"PPL"},{"adminCode1":"VT","lng":"-72.9826","geonameId":5238865,"toponymName":"Mount Tabor","countryId":"6252001","fcl":"P","population":256,"countryCode":"US","name":"Mount Tabor","fclName":"city, village,...","adminCodes1":{"ISO3166_2":"VT"},"countryName":"United States","fcodeName":"populated place","adminName1":"Vermont","lat":"43.35063","fcode":"PPL"},{"adminCode1":"OH","lng":"-81.1526","geonameId":5173599,"toponymName":"Tabor","countryId":"6252001","fcl":"P","population":0,"countryCode":"US","name":"Tabor","fclName":"city, village,...","adminCodes1":{"ISO3166_2":"OH"},"countryName":"United States","fcodeName":"populated place","adminName1":"Ohio","lat":"40.55312","fcode":"PPL"},{"adminCode1":"OH","lng":"-81.37317","geonameId":5163774,"toponymName":"Mount Tabor","countryId":"6252001","fcl":"P","population":0,"countryCode":"US","name":"Mount Tabor","fclName":"city, village,...","adminCodes1":{"ISO3166_2":"OH"},"countryName":"United States","fcodeName":"populated place","adminName1":"Ohio","lat":"40.52006","fcode":"PPL"},{"adminCode1":"NC","lng":"-78.87669","geonameId":4494408,"toponymName":"Tabor City","countryId":"6252001","fcl":"P","population":3927,"countryCode":"US","name":"Tabor City","fclName":"city, village,...","adminCodes1":{"ISO3166_2":"NC"},"countryName":"United States","fcodeName":"populated place","adminName1":"North Carolina","lat":"34.14878","fcode":"PPL"},{"adminCode1":"WI","lng":"-92.28189","geonameId":5275353,"toponymName":"Tabor Lake","countryId":"6252001","fcl":"H","population":0,"countryCode":"US","name":"Tabor Lake","fclName":"stream, lake, ...","adminCodes1":{"ISO3166_2":"WI"},"countryName":"United States","fcodeName":"lake","adminName1":"Wisconsin","lat":"46.02837","fcode":"LK"},{"adminCode1":"MN","lng":"-96.8249","geonameId":5049603,"toponymName":"Township of Tabor","countryId":"6252001","fcl":"A","population":0,"countryCode":"US","name":"Tabor Township","fclName":"country, state, region,...","adminCodes1":{"ISO3166_2":"MN"},"countryName":"United States","fcodeName":"third-order administrative division","adminName1":"Minnesota","lat":"48.06459","fcode":"ADM3"},{"adminCode1":"IN","lng":"-86.63333","geonameId":4261825,"toponymName":"Mount Tabor","countryId":"6252001","fcl":"P","population":0,"countryCode":"US","name":"Mount Tabor","fclName":"city, village,...","adminCodes1":{"ISO3166_2":"IN"},"countryName":"United States","fcodeName":"populated place","adminName1":"Indiana","lat":"39.31143","fcode":"PPL"},{"adminCode1":"WI","lng":"-90.4543","geonameId":5263726,"toponymName":"Mount Tabor","countryId":"6252001","fcl":"P","population":0,"countryCode":"US","name":"Mount Tabor","fclName":"city, village,...","adminCodes1":{"ISO3166_2":"WI"},"countryName":"United States","fcodeName":"populated place","adminName1":"Wisconsin","lat":"43.70053","fcode":"PPL"},{"adminCode1":"IL","lng":"-89.13481","geonameId":4913158,"toponymName":"Tabor","countryId":"6252001","fcl":"P","population":0,"countryCode":"US","name":"Tabor","fclName":"city, village,...","adminCodes1":{"ISO3166_2":"IL"},"countryName":"United States","fcodeName":"populated place","adminName1":"Illinois","lat":"40.18059","fcode":"PPL"},{"adminCode1":"VT","lng":"-72.92814","geonameId":5238869,"toponymName":"Town of Mount Tabor","countryId":"6252001","fcl":"A","population":256,"countryCode":"US","name":"Town of Mount Tabor","fclName":"country, state, region,...","adminCodes1":{"ISO3166_2":"VT"},"countryName":"United States","fcodeName":"third-order administrative division","adminName1":"Vermont","lat":"43.34936","fcode":"ADM3"},{"adminCode1":"IA","lng":"-95.67371","geonameId":4878206,"toponymName":"City of Tabor","countryId":"6252001","fcl":"A","population":1040,"countryCode":"US","name":"City of Tabor","fclName":"country, state, region,...","adminCodes1":{"ISO3166_2":"IA"},"countryName":"United States","fcodeName":"third-order administrative division","adminName1":"Iowa","lat":"40.89494","fcode":"ADM3"},{"adminCode1":"SD","lng":"-97.65895","geonameId":5232294,"toponymName":"Tabor","countryId":"6252001","fcl":"P","population":412,"countryCode":"US","name":"Tabor","fclName":"city, village,...","adminCodes1":{"ISO3166_2":"SD"},"countryName":"United States","fcodeName":"populated place","adminName1":"South Dakota","lat":"42.94861","fcode":"PPL"},{"adminCode1":"OR","lng":"-122.59398","geonameId":5741715,"toponymName":"Mount Tabor Park","countryId":"6252001","fcl":"L","population":0,"countryCode":"US","name":"Mount Tabor Park","fclName":"parks,area, ...","adminCodes1":{"ISO3166_2":"OR"},"countryName":"United States","fcodeName":"park","adminName1":"Oregon","lat":"45.51151","fcode":"PRK"},{"adminCode1":"PA","lng":"-77.23943","geonameId":5202365,"toponymName":"Mount Tabor","countryId":"6252001","fcl":"P","population":0,"countryCode":"US","name":"Mount Tabor","fclName":"city, village,...","adminCodes1":{"ISO3166_2":"PA"},"countryName":"United States","fcodeName":"populated place","adminName1":"Pennsylvania","lat":"40.01343","fcode":"PPL"},{"adminCode1":"MD","lng":"-76.33107","geonameId":4363157,"toponymName":"Mount Tabor Church","countryId":"6252001","fcl":"S","population":0,"countryCode":"US","name":"Mount Tabor Church","fclName":"spot, building, farm","adminCodes1":{"ISO3166_2":"MD"},"countryName":"United States","fcodeName":"church","adminName1":"Maryland","lat":"39.5865","fcode":"CH"},{"adminCode1":"NV","lng":"-115.05505","geonameId":5708670,"toponymName":"Snake Mountains","countryId":"6252001","fcl":"T","population":0,"countryCode":"US","name":"Snake Mountains","fclName":"mountain,hill,rock,... ","adminCodes1":{"ISO3166_2":"NV"},"countryName":"United States","fcodeName":"mountains","adminName1":"Nevada","lat":"41.56297","fcode":"MTS"},{"adminCode1":"NE","lng":"-103.51694","geonameId":5694789,"toponymName":"Dewey Tabor Election Precinct","countryId":"6252001","fcl":"A","population":0,"countryCode":"US","name":"Dewey Tabor Election Precinct","fclName":"country, state, region,...","adminCodes1":{"ISO3166_2":"NE"},"countryName":"United States","fcodeName":"administrative division","adminName1":"Nebraska","lat":"41.89741","fcode":"ADMD"},{"adminCode1":"OH","lng":"-82.28376","geonameId":4526044,"toponymName":"Tabor Memorial Recreation Area","countryId":"6252001","fcl":"L","population":0,"countryCode":"US","name":"Tabor Memorial Recreation Area","fclName":"parks,area, ...","adminCodes1":{"ISO3166_2":"OH"},"countryName":"United States","fcodeName":"park","adminName1":"Ohio","lat":"39.54618","fcode":"PRK"},{"adminCode1":"KS","lng":"-96.95031","geonameId":4275919,"toponymName":"Mount Tabor Oil Field","countryId":"6252001","fcl":"L","population":0,"countryCode":"US","name":"Mount Tabor Oil Field","fclName":"parks,area, ...","adminCodes1":{"ISO3166_2":"KS"},"countryName":"United States","fcodeName":"oilfield","adminName1":"Kansas","lat":"37.48613","fcode":"OILF"},{"adminCode1":"CO","lng":"-106.65711","geonameId":5441023,"toponymName":"Tabor Lake","countryId":"6252001","fcl":"H","population":0,"countryCode":"US","name":"Tabor Lake","fclName":"stream, lake, ...","adminCodes1":{"ISO3166_2":"CO"},"countryName":"United States","fcodeName":"lake","adminName1":"Colorado","lat":"39.06262","fcode":"LK"},{"adminCode1":"VT","lng":"-72.47878","geonameId":5241798,"toponymName":"Tabor Pond","countryId":"6252001","fcl":"H","population":0,"countryCode":"US","name":"Tabor Pond","fclName":"stream, lake, ...","adminCodes1":{"ISO3166_2":"VT"},"countryName":"United States","fcodeName":"lake","adminName1":"Vermont","lat":"44.38736","fcode":"LK"},{"adminCode1":"IA","lng":"-95.675","geonameId":4878200,"toponymName":"Tabor City Park","countryId":"6252001","fcl":"L","population":0,"countryCode":"US","name":"Tabor City Park","fclName":"parks,area, ...","adminCodes1":{"ISO3166_2":"IA"},"countryName":"United States","fcodeName":"park","adminName1":"Iowa","lat":"40.89972","fcode":"PRK"},{"adminCode1":"OH","lng":"-81.15273","geonameId":5173601,"toponymName":"Tabor Lake","countryId":"6252001","fcl":"H","population":0,"countryCode":"US","name":"Tabor Lake","fclName":"stream, lake, ...","adminCodes1":{"ISO3166_2":"OH"},"countryName":"United States","fcodeName":"lake","adminName1":"Ohio","lat":"40.55102","fcode":"LK"},{"adminCode1":"MT","lng":"-114.17234","geonameId":5644498,"toponymName":"Charlo","countryId":"6252001","fcl":"P","population":379,"countryCode":"US","name":"Charlo","fclName":"city, village,...","adminCodes1":{"ISO3166_2":"MT"},"countryName":"United States","fcodeName":"populated place","adminName1":"Montana","lat":"47.43854","fcode":"PPL"},{"adminCode1":"KS","lng":"-97.5381","geonameId":4276027,"toponymName":"Munden","countryId":"6252001","fcl":"P","population":94,"countryCode":"US","name":"Munden","fclName":"city, village,...","adminCodes1":{"ISO3166_2":"KS"},"countryName":"United States","fcodeName":"populated place","adminName1":"Kansas","lat":"39.91389","fcode":"PPL"},{"adminCode1":"WI","lng":"-92.62978","geonameId":5275432,"toponymName":"Tarbert Lake","countryId":"6252001","fcl":"H","population":0,"countryCode":"US","name":"Tarbert Lake","fclName":"stream, lake, ...","adminCodes1":{"ISO3166_2":"WI"},"countryName":"United States","fcodeName":"lake","adminName1":"Wisconsin","lat":"45.59129","fcode":"LK"},{"adminCode1":"CT","lng":"-72.1973","geonameId":4843964,"toponymName":"Mount Tabor","countryId":"6252001","fcl":"T","population":0,"countryCode":"US","name":"Mount Tabor","fclName":"mountain,hill,rock,... ","adminCodes1":{"ISO3166_2":"CT"},"countryName":"United States","fcodeName":"mountain","adminName1":"Connecticut","lat":"41.35343","fcode":"MT"},{"adminCode1":"KS","lng":"-97.51699","geonameId":4280311,"toponymName":"Tabor","countryId":"6252001","fcl":"P","population":0,"countryCode":"US","name":"Tabor","fclName":"city, village,...","adminCodes1":{"ISO3166_2":"KS"},"countryName":"United States","fcodeName":"populated place","adminName1":"Kansas","lat":"39.85695","fcode":"PPL"},{"adminCode1":"SD","lng":"-97.6594","geonameId":5232302,"toponymName":"Town of Tabor","countryId":"6252001","fcl":"A","population":423,"countryCode":"US","name":"Town of Tabor","fclName":"country, state, region,...","adminCodes1":{"ISO3166_2":"SD"},"countryName":"United States","fcodeName":"third-order administrative division","adminName1":"South Dakota","lat":"42.94766","fcode":"ADM3"},{"adminCode1":"MO","lng":"-89.58926","geonameId":4399600,"toponymName":"Mount Tabor Park","countryId":"6252001","fcl":"L","population":0,"countryCode":"US","name":"Mount Tabor Park","fclName":"parks,area, ...","adminCodes1":{"ISO3166_2":"MO"},"countryName":"United States","fcodeName":"park","adminName1":"Missouri","lat":"37.27727","fcode":"PRK"},{"adminCode1":"CA","lng":"-122.01358","geonameId":5400866,"toponymName":"Tabor Park","countryId":"6252001","fcl":"L","population":0,"countryCode":"US","name":"Tabor Park","fclName":"parks,area, ...","adminCodes1":{"ISO3166_2":"CA"},"countryName":"United States","fcodeName":"park","adminName1":"California","lat":"38.26602","fcode":"PRK"},{"adminCode1":"SD","lng":"-97.65257","geonameId":5232295,"toponymName":"Township of Tabor (historical)","countryId":"6252001","fcl":"A","population":0,"countryCode":"US","name":"Tabor (historical) Township","fclName":"country, state, region,...","adminCodes1":{"ISO3166_2":"SD"},"countryName":"United States","fcodeName":"administrative division","adminName1":"South Dakota","lat":"42.97472","fcode":"ADMD"},{"adminCode1":"SD","lng":"-97.68562","geonameId":5232303,"toponymName":"Township of Tabor","countryId":"6252001","fcl":"A","population":0,"countryCode":"US","name":"Tabor Township","fclName":"country, state, region,...","adminCodes1":{"ISO3166_2":"SD"},"countryName":"United States","fcodeName":"administrative division","adminName1":"South Dakota","lat":"42.9375","fcode":"ADMD"},{"adminCode1":"VA","lng":"-80.40005","geonameId":4774718,"toponymName":"Mount Tabor","countryId":"6252001","fcl":"P","population":0,"countryCode":"US","name":"Mount Tabor","fclName":"city, village,...","adminCodes1":{"ISO3166_2":"VA"},"countryName":"United States","fcodeName":"populated place","adminName1":"Virginia","lat":"37.26652","fcode":"PPL"},{"adminCode1":"WI","lng":"-87.83508","geonameId":5275346,"toponymName":"Tabor","countryId":"6252001","fcl":"P","population":0,"countryCode":"US","name":"Tabor","fclName":"city, village,...","adminCodes1":{"ISO3166_2":"WI"},"countryName":"United States","fcodeName":"populated place","adminName1":"Wisconsin","lat":"42.81557","fcode":"PPL"},{"adminCode1":"MS","lng":"-89.27729","geonameId":4450203,"toponymName":"Walthall","countryId":"6252001","fcl":"P","population":139,"countryCode":"US","name":"Walthall","fclName":"city, village,...","adminCodes1":{"ISO3166_2":"MS"},"countryName":"United States","fcodeName":"seat of a second-order administrative division","adminName1":"Mississippi","lat":"33.60734","fcode":"PPLA2"},{"adminCode1":"IN","lng":"-86.58972","geonameId":4256349,"toponymName":"Crown Center","countryId":"6252001","fcl":"P","population":0,"countryCode":"US","name":"Crown Center","fclName":"city, village,...","adminCodes1":{"ISO3166_2":"IN"},"countryName":"United States","fcodeName":"populated place","adminName1":"Indiana","lat":"39.57949","fcode":"PPL"},{"adminCode1":"TX","lng":"-102.89794","geonameId":5532201,"toponymName":"Tesnus","countryId":"6252001","fcl":"P","population":0,"countryCode":"US","name":"Tesnus","fclName":"city, village,...","adminCodes1":{"ISO3166_2":"TX"},"countryName":"United States","fcodeName":"populated place","adminName1":"Texas","lat":"30.11824","fcode":"PPL"},{"adminCode1":"NC","lng":"-78.87369","geonameId":7171939,"toponymName":"Town of Tabor City","countryId":"6252001","fcl":"A","population":2511,"countryCode":"US","name":"Town of Tabor City","fclName":"country, state, region,...","adminCodes1":{"ISO3166_2":"NC"},"countryName":"United States","fcodeName":"administrative division","adminName1":"North Carolina","lat":"34.15392","fcode":"ADMD"},{"adminCode1":"NC","lng":"-78.88467","geonameId":7267104,"toponymName":"Tabor Industrial Park","countryId":"6252001","fcl":"L","population":0,"countryCode":"US","name":"Tabor Industrial Park","fclName":"parks,area, ...","adminCodes1":{"ISO3166_2":"NC"},"countryName":"United States","fcodeName":"industrial area","adminName1":"North Carolina","lat":"34.15977","fcode":"INDS"},{"adminCode1":"SD","lng":"-97.65368","geonameId":5232301,"toponymName":"Tabor Recreation Area","countryId":"6252001","fcl":"L","population":0,"countryCode":"US","name":"Tabor Recreation Area","fclName":"parks,area, ...","adminCodes1":{"ISO3166_2":"SD"},"countryName":"United States","fcodeName":"park","adminName1":"South Dakota","lat":"42.86055","fcode":"PRK"},{"adminCode1":"KY","lng":"-85.65916","geonameId":4301690,"toponymName":"Mount Tabor Baptist Church","countryId":"6252001","fcl":"S","population":0,"countryCode":"US","name":"Mount Tabor Baptist Church","fclName":"spot, building, farm","adminCodes1":{"ISO3166_2":"KY"},"countryName":"United States","fcodeName":"church","adminName1":"Kentucky","lat":"37.48914","fcode":"CH"},{"adminCode1":"WY","lng":"-108.74206","geonameId":5840556,"toponymName":"Tabor Gulch","countryId":"6252001","fcl":"T","population":0,"countryCode":"US","name":"Tabor Gulch","fclName":"mountain,hill,rock,... ","adminCodes1":{"ISO3166_2":"WY"},"countryName":"United States","fcodeName":"valley","adminName1":"Wyoming","lat":"42.49246","fcode":"VAL"},{"adminCode1":"MO","lng":"-92.14405","geonameId":4411157,"toponymName":"Tabor Creek","countryId":"6252001","fcl":"H","population":0,"countryCode":"US","name":"Tabor Creek","fclName":"stream, lake, ...","adminCodes1":{"ISO3166_2":"MO"},"countryName":"United States","fcodeName":"stream","adminName1":"Missouri","lat":"36.80089","fcode":"STM"},{"adminCode1":"MA","lng":"-70.76504","geonameId":4952545,"toponymName":"Tabor Academy","countryId":"6252001","fcl":"S","population":0,"countryCode":"US","name":"Tabor Academy","fclName":"spot, building, farm","adminCodes1":{"ISO3166_2":"MA"},"countryName":"United States","fcodeName":"school","adminName1":"Massachusetts","lat":"41.70788","fcode":"SCH"},{"adminCode1":"KS","lng":"-97.20087","geonameId":8124388,"toponymName":"Tabor College","countryId":"6252001","fcl":"S","population":0,"countryCode":"US","name":"Tabor College","fclName":"spot, building, farm","adminCodes1":{"ISO3166_2":"KS"},"countryName":"United States","fcodeName":"school","adminName1":"Kansas","lat":"38.34869","fcode":"SCH"},{"adminCode1":"NJ","lng":"-74.47988","geonameId":5105229,"toponymName":"Tabor","countryId":"6252001","fcl":"P","population":0,"countryCode":"US","name":"Tabor","fclName":"city, village,...","adminCodes1":{"ISO3166_2":"NJ"},"countryName":"United States","fcodeName":"populated place","adminName1":"New Jersey","lat":"40.87121","fcode":"PPL"},{"adminCode1":"GA","lng":"-84.77272","geonameId":4225592,"toponymName":"Tabor Estates","countryId":"6252001","fcl":"P","population":0,"countryCode":"US","name":"Tabor Estates","fclName":"city, village,...","adminCodes1":{"ISO3166_2":"GA"},"countryName":"United States","fcodeName":"populated place","adminName1":"Georgia","lat":"33.93982","fcode":"PPL"},{"adminCode1":"MD","lng":"-78.70613","geonameId":4363155,"toponymName":"Mount Tabor United Methodist Church","countryId":"6252001","fcl":"S","population":0,"countryCode":"US","name":"Mount Tabor United Methodist Church","fclName":"spot, building, farm","adminCodes1":{"ISO3166_2":"MD"},"countryName":"United States","fcodeName":"church","adminName1":"Maryland","lat":"39.56815","fcode":"CH"},{"adminCode1":"MD","lng":"-77.31804","geonameId":4363163,"toponymName":"Mount Tabor United Church of Christ","countryId":"6252001","fcl":"S","population":0,"countryCode":"US","name":"Mount Tabor United Church of Christ","fclName":"spot, building, farm","adminCodes1":{"ISO3166_2":"MD"},"countryName":"United States","fcodeName":"church","adminName1":"Maryland","lat":"39.60454","fcode":"CH"},{"adminCode1":"AR","lng":"-91.62568","geonameId":4122751,"toponymName":"Mount Tabor United Methodist Church","countryId":"6252001","fcl":"S","population":0,"countryCode":"US","name":"Mount Tabor United Methodist Church","fclName":"spot, building, farm","adminCodes1":{"ISO3166_2":"AR"},"countryName":"United States","fcodeName":"church","adminName1":"Arkansas","lat":"33.73011","fcode":"CH"},{"adminCode1":"MN","lng":"-96.86285","geonameId":5049598,"toponymName":"Tabor","countryId":"6252001","fcl":"P","population":0,"countryCode":"US","name":"Tabor","fclName":"city, village,...","adminCodes1":{"ISO3166_2":"MN"},"countryName":"United States","fcodeName":"populated place","adminName1":"Minnesota","lat":"48.07914","fcode":"PPL"},{"adminCode1":"GA","lng":"-85.025","geonameId":7152261,"toponymName":"Mount Tabor Church Cemetery","countryId":"6252001","fcl":"S","population":0,"countryCode":"US","name":"Mount Tabor Church Cemetery","fclName":"spot, building, farm","adminCodes1":{"ISO3166_2":"GA"},"countryName":"United States","fcodeName":"cemetery","adminName1":"Georgia","lat":"34.10944","fcode":"CMTY"},{"adminCode1":"TN","lng":"-86.33749","geonameId":4643689,"toponymName":"Mount Tabor Church","countryId":"6252001","fcl":"S","population":0,"countryCode":"US","name":"Mount Tabor Church","fclName":"spot, building, farm","adminCodes1":{"ISO3166_2":"TN"},"countryName":"United States","fcodeName":"church","adminName1":"Tennessee","lat":"35.75868","fcode":"CH"},{"adminCode1":"AL","lng":"-85.98302","geonameId":4078314,"toponymName":"Mount Tabor United Methodist Church","countryId":"6252001","fcl":"S","population":0,"countryCode":"US","name":"Mount Tabor United Methodist Church","fclName":"spot, building, farm","adminCodes1":{"ISO3166_2":"AL"},"countryName":"United States","fcodeName":"church","adminName1":"Alabama","lat":"33.21067","fcode":"CH"},{"adminCode1":"AL","lng":"-88.09419","geonameId":4078322,"toponymName":"Mount Tabor Baptist Church","countryId":"6252001","fcl":"S","population":0,"countryCode":"US","name":"Mount Tabor Baptist Church","fclName":"spot, building, farm","adminCodes1":{"ISO3166_2":"AL"},"countryName":"United States","fcodeName":"church","adminName1":"Alabama","lat":"32.47347","fcode":"CH"},{"adminCode1":"AL","lng":"-86.86667","geonameId":4078304,"toponymName":"Mount Tabor","countryId":"6252001","fcl":"P","population":0,"countryCode":"US","name":"Mount Tabor","fclName":"city, village,...","adminCodes1":{"ISO3166_2":"AL"},"countryName":"United States","fcodeName":"populated place","adminName1":"Alabama","lat":"34.44065","fcode":"PPL"},{"adminCode1":"IL","lng":"-88.2056","geonameId":4245146,"toponymName":"Mount Tabor Cemetery","countryId":"6252001","fcl":"S","population":0,"countryCode":"US","name":"Mount Tabor Cemetery","fclName":"spot, building, farm","adminCodes1":{"ISO3166_2":"IL"},"countryName":"United States","fcodeName":"cemetery","adminName1":"Illinois","lat":"39.4217","fcode":"CMTY"},{"adminCode1":"MT","lng":"-113.93093","geonameId":5554409,"toponymName":"Tabor Dam","countryId":"6252001","fcl":"S","population":0,"countryCode":"US","name":"Tabor Dam","fclName":"spot, building, farm","adminCodes1":{"ISO3166_2":"MT"},"countryName":"United States","fcodeName":"dam","adminName1":"Montana","lat":"47.26493","fcode":"DAM"},{"adminCode1":"MD","lng":"-76.62997","geonameId":4363156,"toponymName":"Mount Tabor United Methodist Church","countryId":"6252001","fcl":"S","population":0,"countryCode":"US","name":"Mount Tabor United Methodist Church","fclName":"spot, building, farm","adminCodes1":{"ISO3166_2":"MD"},"countryName":"United States","fcodeName":"church","adminName1":"Maryland","lat":"39.00733","fcode":"CH"},{"adminCode1":"NC","lng":"-80.31366","geonameId":4480846,"toponymName":"Mount Tabor High School","countryId":"6252001","fcl":"S","population":0,"countryCode":"US","name":"Mount Tabor High School","fclName":"spot, building, farm","adminCodes1":{"ISO3166_2":"NC"},"countryName":"United States","fcodeName":"school","adminName1":"North Carolina","lat":"36.12653","fcode":"SCH"},{"adminCode1":"NC","lng":"-78.86086","geonameId":4497138,"toponymName":"WTAB-AM (Tabor City)","countryId":"6252001","fcl":"S","population":0,"countryCode":"US","name":"WTAB-AM (Tabor City)","fclName":"spot, building, farm","adminCodes1":{"ISO3166_2":"NC"},"countryName":"United States","fcodeName":"tower","adminName1":"North Carolina","lat":"34.15017","fcode":"TOWR"},{"adminCode1":"OR","lng":"-122.5931","geonameId":5755849,"toponymName":"Mount Tabor","countryId":"6252001","fcl":"T","population":0,"countryCode":"US","name":"Mount Tabor","fclName":"mountain,hill,rock,... ","adminCodes1":{"ISO3166_2":"OR"},"countryName":"United States","fcodeName":"mountain","adminName1":"Oregon","lat":"45.51282","fcode":"MT"},{"adminCode1":"MT","lng":"-114.14453","geonameId":5681567,"toponymName":"Tabor Mountain","countryId":"6252001","fcl":"T","population":0,"countryCode":"US","name":"Tabor Mountain","fclName":"mountain,hill,rock,... ","adminCodes1":{"ISO3166_2":"MT"},"countryName":"United States","fcodeName":"mountain","adminName1":"Montana","lat":"46.08242","fcode":"MT"},{"adminCode1":"NV","lng":"-115.18061","geonameId":5709229,"toponymName":"Tabor Flats","countryId":"6252001","fcl":"T","population":0,"countryCode":"US","name":"Tabor Flats","fclName":"mountain,hill,rock,... ","adminCodes1":{"ISO3166_2":"NV"},"countryName":"United States","fcodeName":"plain(s)","adminName1":"Nevada","lat":"41.17436","fcode":"PLN"},{"adminCode1":"AL","lng":"-88.13892","geonameId":7312899,"toponymName":"Tabor Trailer Park","countryId":"6252001","fcl":"P","population":0,"countryCode":"US","name":"Tabor Trailer Park","fclName":"city, village,...","adminCodes1":{"ISO3166_2":"AL"},"countryName":"United States","fcodeName":"populated place","adminName1":"Alabama","lat":"30.59128","fcode":"PPL"},{"adminCode1":"TN","lng":"-84.02185","geonameId":4643677,"toponymName":"Mount Tabor","countryId":"6252001","fcl":"P","population":0,"countryCode":"US","name":"Mount Tabor","fclName":"city, village,...","adminCodes1":{"ISO3166_2":"TN"},"countryName":"United States","fcodeName":"populated place","adminName1":"Tennessee","lat":"35.76564","fcode":"PPL"},{"adminCode1":"TN","lng":"-88.11642","geonameId":4643678,"toponymName":"Mount Tabor","countryId":"6252001","fcl":"P","population":0,"countryCode":"US","name":"Mount Tabor","fclName":"city, village,...","adminCodes1":{"ISO3166_2":"TN"},"countryName":"United States","fcodeName":"populated place","adminName1":"Tennessee","lat":"35.62313","fcode":"PPL"},{"adminCode1":"TN","lng":"-86.3361","geonameId":4643679,"toponymName":"Mount Tabor","countryId":"6252001","fcl":"P","population":0,"countryCode":"US","name":"Mount Tabor","fclName":"city, village,...","adminCodes1":{"ISO3166_2":"TN"},"countryName":"United States","fcodeName":"populated place","adminName1":"Tennessee","lat":"35.75923","fcode":"PPL"},{"adminCode1":"TN","lng":"-85.04301","geonameId":4661508,"toponymName":"Tabor","countryId":"6252001","fcl":"P","population":0,"countryCode":"US","name":"Tabor","fclName":"city, village,...","adminCodes1":{"ISO3166_2":"TN"},"countryName":"United States","fcodeName":"populated place","adminName1":"Tennessee","lat":"36.02229","fcode":"PPL"},{"adminCode1":"TX","lng":"-96.37107","geonameId":4735438,"toponymName":"Tabor","countryId":"6252001","fcl":"P","population":0,"countryCode":"US","name":"Tabor","fclName":"city, village,...","adminCodes1":{"ISO3166_2":"TX"},"countryName":"United States","fcodeName":"populated place","adminName1":"Texas","lat":"30.79575","fcode":"PPL"},{"adminCode1":"VA","lng":"-80.39644","geonameId":4774731,"toponymName":"Mount Tabor Village","countryId":"6252001","fcl":"P","population":0,"countryCode":"US","name":"Mount Tabor Village","fclName":"city, village,...","adminCodes1":{"ISO3166_2":"VA"},"countryName":"United States","fcodeName":"populated place","adminName1":"Virginia","lat":"37.26402","fcode":"PPL"},{"adminCode1":"OK","lng":"-96.26361","geonameId":4552691,"toponymName":"Tabor","countryId":"6252001","fcl":"P","population":0,"countryCode":"US","name":"Tabor","fclName":"city, village,...","adminCodes1":{"ISO3166_2":"OK"},"countryName":"United States","fcodeName":"populated place","adminName1":"Oklahoma","lat":"35.80175","fcode":"PPL"},{"adminCode1":"MO","lng":"-93.17907","geonameId":4411160,"toponymName":"Tabor Hollow","countryId":"6252001","fcl":"T","population":0,"countryCode":"US","name":"Tabor Hollow","fclName":"mountain,hill,rock,... ","adminCodes1":{"ISO3166_2":"MO"},"countryName":"United States","fcodeName":"valley","adminName1":"Missouri","lat":"36.82589","fcode":"VAL"},{"adminCode1":"AR","lng":"-93.33797","geonameId":4122745,"toponymName":"Mount Tabor","countryId":"6252001","fcl":"P","population":0,"countryCode":"US","name":"Mount Tabor","fclName":"city, village,...","adminCodes1":{"ISO3166_2":"AR"},"countryName":"United States","fcodeName":"populated place","adminName1":"Arkansas","lat":"34.70759","fcode":"PPL"},{"adminCode1":"IN","lng":"-84.96384","geonameId":4261833,"toponymName":"Mount Tabor Ridge","countryId":"6252001","fcl":"T","population":0,"countryCode":"US","name":"Mount Tabor Ridge","fclName":"mountain,hill,rock,... ","adminCodes1":{"ISO3166_2":"IN"},"countryName":"United States","fcodeName":"ridge(s)","adminName1":"Indiana","lat":"39.03284","fcode":"RDGE"},{"adminCode1":"KY","lng":"-87.21917","geonameId":4301686,"toponymName":"Mount Tabor","countryId":"6252001","fcl":"P","population":0,"countryCode":"US","name":"Mount Tabor","fclName":"city, village,...","adminCodes1":{"ISO3166_2":"KY"},"countryName":"United States","fcodeName":"populated place","adminName1":"Kentucky","lat":"36.95865","fcode":"PPL"},{"adminCode1":"KS","lng":"-96.07888","geonameId":4280314,"toponymName":"Tabor Hill","countryId":"6252001","fcl":"T","population":0,"countryCode":"US","name":"Tabor Hill","fclName":"mountain,hill,rock,... ","adminCodes1":{"ISO3166_2":"KS"},"countryName":"United States","fcodeName":"mountain","adminName1":"Kansas","lat":"39.11222","fcode":"MT"},{"adminCode1":"KS","lng":"-96.43917","geonameId":4280316,"toponymName":"Tabor Valley","countryId":"6252001","fcl":"T","population":0,"countryCode":"US","name":"Tabor Valley","fclName":"mountain,hill,rock,... ","adminCodes1":{"ISO3166_2":"KS"},"countryName":"United States","fcodeName":"valley","adminName1":"Kansas","lat":"39.12361","fcode":"VAL"},{"adminCode1":"AL","lng":"-85.91803","geonameId":4047428,"toponymName":"Tabor","countryId":"6252001","fcl":"P","population":0,"countryCode":"US","name":"Tabor","fclName":"city, village,...","adminCodes1":{"ISO3166_2":"AL"},"countryName":"United States","fcodeName":"populated place","adminName1":"Alabama","lat":"34.15148","fcode":"PPL"},{"adminCode1":"CO","lng":"-105.07415","geonameId":5582631,"toponymName":"Tabor","countryId":"6252001","fcl":"P","population":0,"countryCode":"US","name":"Tabor","fclName":"city, village,...","adminCodes1":{"ISO3166_2":"CO"},"countryName":"United States","fcodeName":"populated place","adminName1":"Colorado","lat":"40.05137","fcode":"PPL"},{"adminCode1":"VT","lng":"-72.96594","geonameId":5241799,"toponymName":"Mount Tabor","countryId":"6252001","fcl":"T","population":0,"countryCode":"US","name":"Mount Tabor","fclName":"mountain,hill,rock,... ","adminCodes1":{"ISO3166_2":"VT"},"countryName":"United States","fcodeName":"mountain","adminName1":"Vermont","lat":"43.2823","fcode":"MT"},{"adminCode1":"MA","lng":"-71.27117","geonameId":4952547,"toponymName":"Mount Tabor","countryId":"6252001","fcl":"T","population":0,"countryCode":"US","name":"Mount Tabor","fclName":"mountain,hill,rock,... ","adminCodes1":{"ISO3166_2":"MA"},"countryName":"United States","fcodeName":"mountain","adminName1":"Massachusetts","lat":"42.42593","fcode":"MT"},{"adminCode1":"SC","lng":"-82.11956","geonameId":4588291,"toponymName":"Mount Tabor Church","countryId":"6252001","fcl":"S","population":0,"countryCode":"US","name":"Mount Tabor Church","fclName":"spot, building, farm","adminCodes1":{"ISO3166_2":"SC"},"countryName":"United States","fcodeName":"church","adminName1":"South Carolina","lat":"34.18985","fcode":"CH"},{"adminCode1":"WV","lng":"-80.34535","geonameId":4815803,"toponymName":"Mount Tabor United Methodist Church","countryId":"6252001","fcl":"S","population":0,"countryCode":"US","name":"Mount Tabor United Methodist Church","fclName":"spot, building, farm","adminCodes1":{"ISO3166_2":"WV"},"countryName":"United States","fcodeName":"church","adminName1":"West Virginia","lat":"39.71397","fcode":"CH"},{"adminCode1":"MN","lng":"-96.78858","geonameId":5042425,"toponymName":"Pulkrabek Private Landing Field","countryId":"6252001","fcl":"S","population":0,"countryCode":"US","name":"Pulkrabek Private Landing Field","fclName":"spot, building, farm","adminCodes1":{"ISO3166_2":"MN"},"countryName":"United States","fcodeName":"airfield","adminName1":"Minnesota","lat":"48.0505","fcode":"AIRF"},{"adminCode1":"KY","lng":"-83.89687","geonameId":4301006,"toponymName":"Millers Creek","countryId":"6252001","fcl":"P","population":0,"countryCode":"US","name":"Millers Creek","fclName":"city, village,...","adminCodes1":{"ISO3166_2":"KY"},"countryName":"United States","fcodeName":"populated place","adminName1":"Kentucky","lat":"37.67175","fcode":"PPL"},{"adminCode1":"VT","lng":"-72.81343","geonameId":5242199,"toponymName":"Utley Brook","countryId":"6252001","fcl":"H","population":0,"countryCode":"US","name":"Utley Brook","fclName":"stream, lake, ...","adminCodes1":{"ISO3166_2":"VT"},"countryName":"United States","fcodeName":"stream","adminName1":"Vermont","lat":"43.22785","fcode":"STM"},{"adminCode1":"MO","lng":"-89.59037","geonameId":4411162,"toponymName":"Mount Tabor","countryId":"6252001","fcl":"T","population":0,"countryCode":"US","name":"Mount Tabor","fclName":"mountain,hill,rock,... ","adminCodes1":{"ISO3166_2":"MO"},"countryName":"United States","fcodeName":"mountain","adminName1":"Missouri","lat":"37.27922","fcode":"MT"},{"adminCode1":"PA","lng":"-79.21754","geonameId":5202366,"toponymName":"Mount Tabor","countryId":"6252001","fcl":"P","population":0,"countryCode":"US","name":"Mount Tabor","fclName":"city, village,...","adminCodes1":{"ISO3166_2":"PA"},"countryName":"United States","fcodeName":"populated place","adminName1":"Pennsylvania","lat":"40.98757","fcode":"PPL"},{"adminCode1":"PA","lng":"-75.14212","geonameId":5215114,"toponymName":"Tabor","countryId":"6252001","fcl":"P","population":0,"countryCode":"US","name":"Tabor","fclName":"city, village,...","adminCodes1":{"ISO3166_2":"PA"},"countryName":"United States","fcodeName":"populated place","adminName1":"Pennsylvania","lat":"40.03872","fcode":"PPL"},{"adminCode1":"GA","lng":"-85.15189","geonameId":4211068,"toponymName":"Mount Tabor Church","countryId":"6252001","fcl":"S","population":0,"countryCode":"US","name":"Mount Tabor Church","fclName":"spot, building, farm","adminCodes1":{"ISO3166_2":"GA"},"countryName":"United States","fcodeName":"church","adminName1":"Georgia","lat":"34.40953","fcode":"CH"},{"adminCode1":"GA","lng":"-84.19686","geonameId":4211070,"toponymName":"Mount Tabor Church","countryId":"6252001","fcl":"S","population":0,"countryCode":"US","name":"Mount Tabor Church","fclName":"spot, building, farm","adminCodes1":{"ISO3166_2":"GA"},"countryName":"United States","fcodeName":"church","adminName1":"Georgia","lat":"34.31982","fcode":"CH"},{"adminCode1":"GA","lng":"-84.16936","geonameId":4211072,"toponymName":"Mount Tabor Church","countryId":"6252001","fcl":"S","population":0,"countryCode":"US","name":"Mount Tabor Church","fclName":"spot, building, farm","adminCodes1":{"ISO3166_2":"GA"},"countryName":"United States","fcodeName":"church","adminName1":"Georgia","lat":"33.97288","fcode":"CH"},{"adminCode1":"GA","lng":"-83.54766","geonameId":4211073,"toponymName":"Mount Tabor Church","countryId":"6252001","fcl":"S","population":0,"countryCode":"US","name":"Mount Tabor Church","fclName":"spot, building, farm","adminCodes1":{"ISO3166_2":"GA"},"countryName":"United States","fcodeName":"church","adminName1":"Georgia","lat":"34.0015","fcode":"CH"},{"adminCode1":"GA","lng":"-84.77383","geonameId":4211074,"toponymName":"Mount Tabor Church","countryId":"6252001","fcl":"S","population":0,"countryCode":"US","name":"Mount Tabor Church","fclName":"spot, building, farm","adminCodes1":{"ISO3166_2":"GA"},"countryName":"United States","fcodeName":"church","adminName1":"Georgia","lat":"33.93538","fcode":"CH"},{"adminCode1":"GA","lng":"-82.71403","geonameId":4225591,"toponymName":"Tabor Church","countryId":"6252001","fcl":"S","population":0,"countryCode":"US","name":"Tabor Church","fclName":"spot, building, farm","adminCodes1":{"ISO3166_2":"GA"},"countryName":"United States","fcodeName":"church","adminName1":"Georgia","lat":"33.89568","fcode":"CH"},{"adminCode1":"GA","lng":"-83.26432","geonameId":4225590,"toponymName":"Tabor Chapel","countryId":"6252001","fcl":"S","population":0,"countryCode":"US","name":"Tabor Chapel","fclName":"spot, building, farm","adminCodes1":{"ISO3166_2":"GA"},"countryName":"United States","fcodeName":"church","adminName1":"Georgia","lat":"34.22483","fcode":"CH"},{"adminCode1":"KY","lng":"-83.67825","geonameId":4295820,"toponymName":"Indian Creek Church","countryId":"6252001","fcl":"S","population":0,"countryCode":"US","name":"Indian Creek Church","fclName":"spot, building, farm","adminCodes1":{"ISO3166_2":"KY"},"countryName":"United States","fcodeName":"church","adminName1":"Kentucky","lat":"37.92008","fcode":"CH"}]}
