{"totalResultsCount":17,"geonames":[{"adminCode1":"CA","lng":"-118.24813","geonameId":5401658,"toponymName":"Terminal Island","countryId":"6252001","fcl":"T","population":0,"countryCode":"US","name":"Terminal Island","fclName":"mountain,hill,rock,... ","adminCodes1":{"ISO3166_2":"CA"},"countryName":"United States","fcodeName":"island","adminName1":"California","lat":"33.75696","fcode":"ISL"},{"adminCode1":"AK","lng":"-135.85441","geonameId":5844417,"toponymName":"Anthony Island","countryId":"6252001","fcl":"T","population":0,"countryCode":"US","name":"Anthony Island","fclName":"mountain,hill,rock,... ","adminCodes1":{"ISO3166_2":"AK"},"countryName":"United States","fcodeName":"island","adminName1":"Alaska","lat":"58.4726","fcode":"ISL"},{"adminCode1":"NY","lng":"-74.18667","geonameId":6352855,"toponymName":"Howland Hook Marine Truck Terminal","countryId":"6252001","fcl":"S","population":0,"countryCode":"US","name":"Howland Hook Marine Truck Terminal","fclName":"spot, building, farm","adminCodes1":{"ISO3166_2":"NY"},"countryName":"United States","fcodeName":"","adminName1":"New York","lat":"40.63667"},{"adminCode1":"IL","lng":"-90.59819","geonameId":4903195,"toponymName":"Municipal Terminal","countryId":"6252001","fcl":"S","population":0,"countryCode":"US","name":"Municipal Terminal","fclName":"spot, building, farm","adminCodes1":{"ISO3166_2":"IL"},"countryName":"United States","fcodeName":"building(s)","adminName1":"Illinois","lat":"41.50364","fcode":"BLDG"},{"adminCode1":"CA","lng":"-118.26667","geonameId":6301631,"toponymName":"Terminal Island","countryId":"6252001","fcl":"S","population":0,"countryCode":"US","name":"Terminal Island","fclName":"spot, building, farm","adminCodes1":{"ISO3166_2":"CA"},"countryName":"United States","fcodeName":"meteorological station","adminName1":"California","lat":"33.73333","fcode":"STNM"},{"adminCode1":"TX","lng":"-94.79633","geonameId":7277613,"toponymName":"Texas Cruise Ship Terminal on Galveston Island","countryId":"6252001","fcl":"S","population":0,"countryCode":"US","name":"Texas Cruise Ship Terminal on Galveston Island","fclName":"spot, building, farm","adminCodes1":{"ISO3166_2":"TX"},"countryName":"United States","fcodeName":"","adminName1":"Texas","lat":"29.30854"},{"adminCode1":"MI","lng":"-84.61588","geonameId":5012952,"toponymName":"Union Terminal Piers, Incorporated","countryId":"6252001","fcl":"S","population":0,"countryCode":"US","name":"Union Terminal Piers, Incorporated","fclName":"spot, building, farm","adminCodes1":{"ISO3166_2":"MI"},"countryName":"United States","fcodeName":"","adminName1":"Michigan","lat":"45.84835"},{"adminCode1":"FL","lng":"-80.17442","geonameId":7276932,"toponymName":"Fisher Island Ferry Terminal Bay Number 183","countryId":"6252001","fcl":"S","population":0,"countryCode":"US","name":"Fisher Island Ferry Terminal Bay Number 183","fclName":"spot, building, farm","adminCodes1":{"ISO3166_2":"FL"},"countryName":"United States","fcodeName":"","adminName1":"Florida","lat":"25.77289"},{"adminCode1":"FL","lng":"-80.14136","geonameId":7276946,"toponymName":"Fisher Island Terminal Dock and Slip","countryId":"6252001","fcl":"S","population":0,"countryCode":"US","name":"Fisher Island Terminal Dock and Slip","fclName":"spot, building, farm","adminCodes1":{"ISO3166_2":"FL"},"countryName":"United States","fcodeName":"","adminName1":"Florida","lat":"25.7637"},{"adminCode1":"CA","lng":"-122.43497","geonameId":5323987,"toponymName":"Angel Island Ferry Terminal","countryId":"6252001","fcl":"S","population":0,"countryCode":"US","name":"Angel Island Ferry Terminal","fclName":"spot, building, farm","adminCodes1":{"ISO3166_2":"CA"},"countryName":"United States","fcodeName":"","adminName1":"California","lat":"37.86854"},{"adminCode1":"RI","lng":"-71.27033","geonameId":5223452,"toponymName":"Mount Hope Maritime Terminal","countryId":"6252001","fcl":"S","population":0,"countryCode":"US","name":"Mount Hope Maritime Terminal","fclName":"spot, building, farm","adminCodes1":{"ISO3166_2":"RI"},"countryName":"United States","fcodeName":"building(s)","adminName1":"Rhode Island","lat":"41.62094","fcode":"BLDG"},{"adminCode1":"NY","lng":"-73.98111","geonameId":6354282,"toponymName":"Coney Island Terminal New York City Transit System","countryId":"6252001","fcl":"S","population":0,"countryCode":"US","name":"Coney Island Terminal New York City Transit System","fclName":"spot, building, farm","adminCodes1":{"ISO3166_2":"NY"},"countryName":"United States","fcodeName":"","adminName1":"New York","lat":"40.57722"},{"adminCode1":"CA","lng":"-118.23701","geonameId":5401659,"toponymName":"Terminal Island Marina","countryId":"6252001","fcl":"S","population":0,"countryCode":"US","name":"Terminal Island Marina","fclName":"spot, building, farm","adminCodes1":{"ISO3166_2":"CA"},"countryName":"United States","fcodeName":"marina","adminName1":"California","lat":"33.76557","fcode":"MAR"},{"adminCode1":"CA","lng":"-118.26174","geonameId":5401660,"toponymName":"Terminal Island Sewage Treatment Plant","countryId":"6252001","fcl":"S","population":0,"countryCode":"US","name":"Terminal Island Sewage Treatment Plant","fclName":"spot, building, farm","adminCodes1":{"ISO3166_2":"CA"},"countryName":"United States","fcodeName":"sewage treatment plant","adminName1":"California","lat":"33.74446","fcode":"SWT"},{"adminCode1":"NY","lng":"-74.0132","geonameId":5139565,"toponymName":"Staten Island Ferry Terminal","countryId":"6252001","fcl":"S","population":0,"countryCode":"US","name":"Staten Island Ferry Terminal","fclName":"spot, building, farm","adminCodes1":{"ISO3166_2":"NY"},"countryName":"United States","fcodeName":"building(s)","adminName1":"New York","lat":"40.70094","fcode":"BLDG"},{"adminCode1":"CA","lng":"-118.26875","geonameId":9681341,"toponymName":"Federal Correctional Institution Terminal Island","countryId":"6252001","fcl":"S","population":0,"countryCode":"US","name":"Federal Correctional Institution Terminal Island","fclName":"spot, building, farm","adminCodes1":{"ISO3166_2":"CA"},"countryName":"United States","fcodeName":"building(s)","adminName1":"California","lat":"33.72738","fcode":"BLDG"},{"adminCode1":"NY","lng":"-73.24028","geonameId":7276168,"toponymName":"Fire Island Ferry Terminal","countryId":"6252001","fcl":"S","population":0,"countryCode":"US","name":"Fire Island Ferry Terminal","fclName":"spot, building, farm","adminCodes1":{"ISO3166_2":"NY"},"countryName":"United States","fcodeName":"","adminName1":"New York","lat":"40.71583"}]}
