{"totalResultsCount":116213,"geonames":[{"adminCode1":"TX","lng":"-95.36327","geonameId":4699066,"toponymName":"Houston","countryId":"6252001","fcl":"P","population":2296224,"countryCode":"US","name":"Houston","fclName":"city, village,...","adminCodes1":{"ISO3166_2":"TX"},"countryName":"United States","fcodeName":"seat of a second-order administrative division","adminName1":"Texas","lat":"29.76328","fcode":"PPLA2"},{"adminCode1":"TX","lng":"-98.49363","geonameId":4726206,"toponymName":"San Antonio","countryId":"6252001","fcl":"P","population":1469845,"countryCode":"US","name":"San Antonio","fclName":"city, village,...","adminCodes1":{"ISO3166_2":"TX"},"countryName":"United States","fcodeName":"seat of a second-order administrative division","adminName1":"Texas","lat":"29.42412","fcode":"PPLA2"},{"adminCode1":"TX","lng":"-97.74306","geonameId":4671654,"toponymName":"Austin","countryId":"6252001","fcl":"P","population":931830,"countryCode":"US","name":"Austin","fclName":"city, village,...","adminCodes1":{"ISO3166_2":"TX"},"countryName":"United States","fcodeName":"seat of a first-order administrative division","adminName1":"Texas","lat":"30.26715","fcode":"PPLA"},{"adminCode1":"TX","lng":"-96.80667","geonameId":4684888,"toponymName":"Dallas","countryId":"6252001","fcl":"P","population":1300092,"countryCode":"US","name":"Dallas","fclName":"city, village,...","adminCodes1":{"ISO3166_2":"TX"},"countryName":"United States","fcodeName":"seat of a second-order administrative division","adminName1":"Texas","lat":"32.78306","fcode":"PPLA2"},{"adminCode1":"TX","lng":"-97.32085","geonameId":4691930,"toponymName":"Fort Worth","countryId":"6252001","fcl":"P","population":833319,"countryCode":"US","name":"Fort Worth","fclName":"city, village,...","adminCodes1":{"ISO3166_2":"TX"},"countryName":"United States","fcodeName":"seat of a second-order administrative division","adminName1":"Texas","lat":"32.72541","fcode":"PPLA2"},{"adminCode1":"TX","lng":"-106.48693","geonameId":5520993,"toponymName":"El Paso","countryId":"6252001","fcl":"P","population":681124,"countryCode":"US","name":"El Paso","fclName":"city, village,...","adminCodes1":{"ISO3166_2":"TX"},"countryName":"United States","fcodeName":"seat of a second-order administrative division","adminName1":"Texas","lat":"31.75872","fcode":"PPLA2"},{"adminCode1":"TX","lng":"-96.33441","geonameId":4682464,"toponymName":"College Station","countryId":"6252001","fcl":"P","population":107889,"countryCode":"US","name":"College Station","fclName":"city, village,...","adminCodes1":{"ISO3166_2":"TX"},"countryName":"United States","fcodeName":"populated place","adminName1":"Texas","lat":"30.62798","fcode":"PPL"},{"adminCode1":"TX","lng":"-97.10807","geonameId":4671240,"toponymName":"Arlington","countryId":"6252001","fcl":"P","population":388125,"countryCode":"US","name":"Arlington","fclName":"city, village,...","adminCodes1":{"ISO3166_2":"TX"},"countryName":"United States","fcodeName":"populated place","adminName1":"Texas","lat":"32.73569","fcode":"PPL"},{"adminCode1":"TX","lng":"-95.2091","geonameId":4717782,"toponymName":"Pasadena","countryId":"6252001","fcl":"P","population":153784,"countryCode":"US","name":"Pasadena","fclName":"city, village,...","adminCodes1":{"ISO3166_2":"TX"},"countryName":"United States","fcodeName":"populated place","adminName1":"Texas","lat":"29.69106","fcode":"PPL"},{"adminCode1":"TX","lng":"-96.69889","geonameId":4719457,"toponymName":"Plano","countryId":"6252001","fcl":"P","population":283558,"countryCode":"US","name":"Plano","fclName":"city, village,...","adminCodes1":{"ISO3166_2":"TX"},"countryName":"United States","fcodeName":"populated place","adminName1":"Texas","lat":"33.01984","fcode":"PPL"},{"adminCode1":"TX","lng":"-96.94889","geonameId":4700168,"toponymName":"Irving","countryId":"6252001","fcl":"P","population":236607,"countryCode":"US","name":"Irving","fclName":"city, village,...","adminCodes1":{"ISO3166_2":"TX"},"countryName":"United States","fcodeName":"populated place","adminName1":"Texas","lat":"32.81402","fcode":"PPL"},{"adminCode1":"TX","lng":"-98.23001","geonameId":4709796,"toponymName":"McAllen","countryId":"6252001","fcl":"P","population":140269,"countryCode":"US","name":"McAllen","fclName":"city, village,...","adminCodes1":{"ISO3166_2":"TX"},"countryName":"United States","fcodeName":"populated place","adminName1":"Texas","lat":"26.20341","fcode":"PPL"},{"adminCode1":"TX","lng":"-96.59916","geonameId":4710826,"toponymName":"Mesquite","countryId":"6252001","fcl":"P","population":144788,"countryCode":"US","name":"Mesquite","fclName":"city, village,...","adminCodes1":{"ISO3166_2":"TX"},"countryName":"United States","fcodeName":"populated place","adminName1":"Texas","lat":"32.7668","fcode":"PPL"},{"adminCode1":"TX","lng":"-96.63888","geonameId":4693003,"toponymName":"Garland","countryId":"6252001","fcl":"P","population":236897,"countryCode":"US","name":"Garland","fclName":"city, village,...","adminCodes1":{"ISO3166_2":"TX"},"countryName":"United States","fcodeName":"populated place","adminName1":"Texas","lat":"32.91262","fcode":"PPL"},{"adminCode1":"TX","lng":"-97.7278","geonameId":4703223,"toponymName":"Killeen","countryId":"6252001","fcl":"P","population":140806,"countryCode":"US","name":"Killeen","fclName":"city, village,...","adminCodes1":{"ISO3166_2":"TX"},"countryName":"United States","fcodeName":"populated place","adminName1":"Texas","lat":"31.11712","fcode":"PPL"},{"adminCode1":"TX","lng":"-99.25061","geonameId":4736286,"toponymName":"Texas","countryId":"6252001","fcl":"A","population":22875689,"countryCode":"US","name":"Texas","fclName":"country, state, region,...","adminCodes1":{"ISO3166_2":"TX"},"countryName":"United States","fcodeName":"first-order administrative division","adminName1":"Texas","lat":"31.25044","fcode":"ADM1"},{"adminCode1":"TX","lng":"-94.10185","geonameId":4672989,"toponymName":"Beaumont","countryId":"6252001","fcl":"P","population":118129,"countryCode":"US","name":"Beaumont","fclName":"city, village,...","adminCodes1":{"ISO3166_2":"TX"},"countryName":"United States","fcodeName":"seat of a second-order administrative division","adminName1":"Texas","lat":"30.08605","fcode":"PPLA2"},{"adminCode1":"TX","lng":"-97.49748","geonameId":4676740,"toponymName":"Brownsville","countryId":"6252001","fcl":"P","population":183887,"countryCode":"US","name":"Brownsville","fclName":"city, village,...","adminCodes1":{"ISO3166_2":"TX"},"countryName":"United States","fcodeName":"seat of a second-order administrative division","adminName1":"Texas","lat":"25.90175","fcode":"PPLA2"},{"adminCode1":"TX","lng":"-97.39638","geonameId":4683416,"toponymName":"Corpus Christi","countryId":"6252001","fcl":"P","population":324074,"countryCode":"US","name":"Corpus Christi","fclName":"city, village,...","adminCodes1":{"ISO3166_2":"TX"},"countryName":"United States","fcodeName":"seat of a second-order administrative division","adminName1":"Texas","lat":"27.80058","fcode":"PPLA2"},{"adminCode1":"TX","lng":"-97.13307","geonameId":4685907,"toponymName":"Denton","countryId":"6252001","fcl":"P","population":131044,"countryCode":"US","name":"Denton","fclName":"city, village,...","adminCodes1":{"ISO3166_2":"TX"},"countryName":"United States","fcodeName":"seat of a second-order administrative division","adminName1":"Texas","lat":"33.21484","fcode":"PPLA2"},{"adminCode1":"TX","lng":"-99.73314","geonameId":4669635,"toponymName":"Abilene","countryId":"6252001","fcl":"P","population":121721,"countryCode":"US","name":"Abilene","fclName":"city, village,...","adminCodes1":{"ISO3166_2":"TX"},"countryName":"United States","fcodeName":"seat of a second-order administrative division","adminName1":"Texas","lat":"32.44874","fcode":"PPLA2"},{"adminCode1":"TX","lng":"-95.30106","geonameId":4738214,"toponymName":"Tyler","countryId":"6252001","fcl":"P","population":103700,"countryCode":"US","name":"Tyler","fclName":"city, village,...","adminCodes1":{"ISO3166_2":"TX"},"countryName":"United States","fcodeName":"seat of a second-order administrative division","adminName1":"Texas","lat":"32.35126","fcode":"PPLA2"},{"adminCode1":"TX","lng":"-97.14667","geonameId":4739526,"toponymName":"Waco","countryId":"6252001","fcl":"P","population":132356,"countryCode":"US","name":"Waco","fclName":"city, village,...","adminCodes1":{"ISO3166_2":"TX"},"countryName":"United States","fcodeName":"seat of a second-order administrative division","adminName1":"Texas","lat":"31.54933","fcode":"PPLA2"},{"adminCode1":"TX","lng":"-98.49339","geonameId":4741752,"toponymName":"Wichita Falls","countryId":"6252001","fcl":"P","population":104710,"countryCode":"US","name":"Wichita Falls","fclName":"city, village,...","adminCodes1":{"ISO3166_2":"TX"},"countryName":"United States","fcodeName":"seat of a second-order administrative division","adminName1":"Texas","lat":"33.91371","fcode":"PPLA2"},{"adminCode1":"TX","lng":"-96.72972","geonameId":4722625,"toponymName":"Richardson","countryId":"6252001","fcl":"P","population":110815,"countryCode":"US","name":"Richardson","fclName":"city, village,...","adminCodes1":{"ISO3166_2":"TX"},"countryName":"United States","fcodeName":"populated place","adminName1":"Texas","lat":"32.94818","fcode":"PPL"},{"adminCode1":"TX","lng":"-97.6789","geonameId":4724129,"toponymName":"Round Rock","countryId":"6252001","fcl":"P","population":115997,"countryCode":"US","name":"Round Rock","fclName":"city, village,...","adminCodes1":{"ISO3166_2":"TX"},"countryName":"United States","fcodeName":"populated place","adminName1":"Texas","lat":"30.50826","fcode":"PPL"},{"adminCode1":"TX","lng":"-96.99778","geonameId":4694482,"toponymName":"Grand Prairie","countryId":"6252001","fcl":"P","population":187809,"countryCode":"US","name":"Grand Prairie","fclName":"city, village,...","adminCodes1":{"ISO3166_2":"TX"},"countryName":"United States","fcodeName":"populated place","adminName1":"Texas","lat":"32.74596","fcode":"PPL"},{"adminCode1":"TX","lng":"-99.50754","geonameId":4705349,"toponymName":"Laredo","countryId":"6252001","fcl":"P","population":255473,"countryCode":"US","name":"Laredo","fclName":"city, village,...","adminCodes1":{"ISO3166_2":"TX"},"countryName":"United States","fcodeName":"seat of a second-order administrative division","adminName1":"Texas","lat":"27.50641","fcode":"PPLA2"},{"adminCode1":"TX","lng":"-101.8313","geonameId":5516233,"toponymName":"Amarillo","countryId":"6252001","fcl":"P","population":198645,"countryCode":"US","name":"Amarillo","fclName":"city, village,...","adminCodes1":{"ISO3166_2":"TX"},"countryName":"United States","fcodeName":"seat of a second-order administrative division","adminName1":"Texas","lat":"35.222","fcode":"PPLA2"},{"adminCode1":"TX","lng":"-102.36764","geonameId":5527554,"toponymName":"Odessa","countryId":"6252001","fcl":"P","population":118968,"countryCode":"US","name":"Odessa","fclName":"city, village,...","adminCodes1":{"ISO3166_2":"TX"},"countryName":"United States","fcodeName":"seat of a second-order administrative division","adminName1":"Texas","lat":"31.84568","fcode":"PPLA2"},{"adminCode1":"TX","lng":"-100.43704","geonameId":5530022,"toponymName":"San Angelo","countryId":"6252001","fcl":"P","population":100450,"countryCode":"US","name":"San Angelo","fclName":"city, village,...","adminCodes1":{"ISO3166_2":"TX"},"countryName":"United States","fcodeName":"seat of a second-order administrative division","adminName1":"Texas","lat":"31.46377","fcode":"PPLA2"},{"adminCode1":"TX","lng":"-101.85517","geonameId":5525577,"toponymName":"Lubbock","countryId":"6252001","fcl":"P","population":249042,"countryCode":"US","name":"Lubbock","fclName":"city, village,...","adminCodes1":{"ISO3166_2":"TX"},"countryName":"United States","fcodeName":"seat of a second-order administrative division","adminName1":"Texas","lat":"33.57786","fcode":"PPLA2"},{"adminCode1":"TX","lng":"-102.07791","geonameId":5526337,"toponymName":"Midland","countryId":"6252001","fcl":"P","population":132950,"countryCode":"US","name":"Midland","fclName":"city, village,...","adminCodes1":{"ISO3166_2":"TX"},"countryName":"United States","fcodeName":"seat of a second-order administrative division","adminName1":"Texas","lat":"31.99735","fcode":"PPLA2"},{"adminCode1":"TX","lng":"-93.94233","geonameId":4720039,"toponymName":"Port Arthur","countryId":"6252001","fcl":"P","population":55340,"countryCode":"US","name":"Port Arthur","fclName":"city, village,...","adminCodes1":{"ISO3166_2":"TX"},"countryName":"United States","fcodeName":"populated place","adminName1":"Texas","lat":"29.88519","fcode":"PPL"},{"adminCode1":"TX","lng":"-97.03262","geonameId":6955105,"toponymName":"Dallas-Fort Worth-Arlington","countryId":"6252001","fcl":"L","population":6300006,"countryCode":"US","name":"Dallas-Fort Worth-Arlington","fclName":"parks,area, ...","adminCodes1":{"ISO3166_2":"TX"},"countryName":"United States","fcodeName":"economic region","adminName1":"Texas","lat":"32.76303","fcode":"RGNE"},{"adminCode1":"TX","lng":"-95.3064","geonameId":6955107,"toponymName":"Houston-Sugar Land-Baytown","countryId":"6252001","fcl":"L","population":5728143,"countryCode":"US","name":"Houston-Sugar Land-Baytown","fclName":"parks,area, ...","adminCodes1":{"ISO3166_2":"TX"},"countryName":"United States","fcodeName":"economic region","adminName1":"Texas","lat":"29.73576","fcode":"RGNE"},{"adminCode1":"TX","lng":"-96.89028","geonameId":4679195,"toponymName":"Carrollton","countryId":"6252001","fcl":"P","population":133168,"countryCode":"US","name":"Carrollton","fclName":"city, village,...","adminCodes1":{"ISO3166_2":"TX"},"countryName":"United States","fcodeName":"populated place","adminName1":"Texas","lat":"32.95373","fcode":"PPL"},{"adminCode1":"TX","lng":"-94.97743","geonameId":4672731,"toponymName":"Baytown","countryId":"6252001","fcl":"P","population":76335,"countryCode":"US","name":"Baytown","fclName":"city, village,...","adminCodes1":{"ISO3166_2":"TX"},"countryName":"United States","fcodeName":"populated place","adminName1":"Texas","lat":"29.7355","fcode":"PPL"},{"adminCode1":"TX","lng":"-96.36996","geonameId":4677008,"toponymName":"Bryan","countryId":"6252001","fcl":"P","population":82118,"countryCode":"US","name":"Bryan","fclName":"city, village,...","adminCodes1":{"ISO3166_2":"TX"},"countryName":"United States","fcodeName":"seat of a second-order administrative division","adminName1":"Texas","lat":"30.67436","fcode":"PPLA2"},{"adminCode1":"TX","lng":"-95.45605","geonameId":4682991,"toponymName":"Conroe","countryId":"6252001","fcl":"P","population":68602,"countryCode":"US","name":"Conroe","fclName":"city, village,...","adminCodes1":{"ISO3166_2":"TX"},"countryName":"United States","fcodeName":"seat of a second-order administrative division","adminName1":"Texas","lat":"30.31188","fcode":"PPLA2"},{"adminCode1":"TX","lng":"-96.67055","geonameId":4670300,"toponymName":"Allen","countryId":"6252001","fcl":"P","population":98143,"countryCode":"US","name":"Allen","fclName":"city, village,...","adminCodes1":{"ISO3166_2":"TX"},"countryName":"United States","fcodeName":"populated place","adminName1":"Texas","lat":"33.10317","fcode":"PPL"},{"adminCode1":"TX","lng":"-95.41716","geonameId":4733624,"toponymName":"Spring","countryId":"6252001","fcl":"P","population":54298,"countryCode":"US","name":"Spring","fclName":"city, village,...","adminCodes1":{"ISO3166_2":"TX"},"countryName":"United States","fcodeName":"populated place","adminName1":"Texas","lat":"30.07994","fcode":"PPL"},{"adminCode1":"TX","lng":"-95.63495","geonameId":4734825,"toponymName":"Sugar Land","countryId":"6252001","fcl":"P","population":88156,"countryCode":"US","name":"Sugar Land","fclName":"city, village,...","adminCodes1":{"ISO3166_2":"TX"},"countryName":"United States","fcodeName":"populated place","adminName1":"Texas","lat":"29.61968","fcode":"PPL"},{"adminCode1":"TX","lng":"-97.34278","geonameId":4735966,"toponymName":"Temple","countryId":"6252001","fcl":"P","population":72277,"countryCode":"US","name":"Temple","fclName":"city, village,...","adminCodes1":{"ISO3166_2":"TX"},"countryName":"United States","fcodeName":"populated place","adminName1":"Texas","lat":"31.09823","fcode":"PPL"},{"adminCode1":"TX","lng":"-94.04769","geonameId":4736096,"toponymName":"Texarkana","countryId":"6252001","fcl":"P","population":37280,"countryCode":"US","name":"Texarkana","fclName":"city, village,...","adminCodes1":{"ISO3166_2":"TX"},"countryName":"United States","fcodeName":"populated place","adminName1":"Texas","lat":"33.42513","fcode":"PPL"},{"adminCode1":"TX","lng":"-97.0036","geonameId":4739157,"toponymName":"Victoria","countryId":"6252001","fcl":"P","population":67574,"countryCode":"US","name":"Victoria","fclName":"city, village,...","adminCodes1":{"ISO3166_2":"TX"},"countryName":"United States","fcodeName":"seat of a second-order administrative division","adminName1":"Texas","lat":"28.80527","fcode":"PPLA2"},{"adminCode1":"TX","lng":"-94.65549","geonameId":4713735,"toponymName":"Nacogdoches","countryId":"6252001","fcl":"P","population":33894,"countryCode":"US","name":"Nacogdoches","fclName":"city, village,...","adminCodes1":{"ISO3166_2":"TX"},"countryName":"United States","fcodeName":"seat of a second-order administrative division","adminName1":"Texas","lat":"31.60351","fcode":"PPLA2"},{"adminCode1":"TX","lng":"-95.28605","geonameId":4718097,"toponymName":"Pearland","countryId":"6252001","fcl":"P","population":108821,"countryCode":"US","name":"Pearland","fclName":"city, village,...","adminCodes1":{"ISO3166_2":"TX"},"countryName":"United States","fcodeName":"populated place","adminName1":"Texas","lat":"29.56357","fcode":"PPL"},{"adminCode1":"TX","lng":"-94.74049","geonameId":4707814,"toponymName":"Longview","countryId":"6252001","fcl":"P","population":82287,"countryCode":"US","name":"Longview","fclName":"city, village,...","adminCodes1":{"ISO3166_2":"TX"},"countryName":"United States","fcodeName":"seat of a second-order administrative division","adminName1":"Texas","lat":"32.5007","fcode":"PPLA2"},{"adminCode1":"TX","lng":"-96.82361","geonameId":4692559,"toponymName":"Frisco","countryId":"6252001","fcl":"P","population":154407,"countryCode":"US","name":"Frisco","fclName":"city, village,...","adminCodes1":{"ISO3166_2":"TX"},"countryName":"United States","fcodeName":"populated place","adminName1":"Texas","lat":"33.15067","fcode":"PPL"},{"adminCode1":"TX","lng":"-94.7977","geonameId":4692883,"toponymName":"Galveston","countryId":"6252001","fcl":"P","population":50180,"countryCode":"US","name":"Galveston","fclName":"city, village,...","adminCodes1":{"ISO3166_2":"TX"},"countryName":"United States","fcodeName":"seat of a second-order administrative division","adminName1":"Texas","lat":"29.30135","fcode":"PPLA2"},{"adminCode1":"TX","lng":"-97.6961","geonameId":4696233,"toponymName":"Harlingen","countryId":"6252001","fcl":"P","population":65774,"countryCode":"US","name":"Harlingen","fclName":"city, village,...","adminCodes1":{"ISO3166_2":"TX"},"countryName":"United States","fcodeName":"populated place","adminName1":"Texas","lat":"26.19063","fcode":"PPL"},{"adminCode1":"TX","lng":"-96.99417","geonameId":4706057,"toponymName":"Lewisville","countryId":"6252001","fcl":"P","population":104039,"countryCode":"US","name":"Lewisville","fclName":"city, village,...","adminCodes1":{"ISO3166_2":"TX"},"countryName":"United States","fcodeName":"populated place","adminName1":"Texas","lat":"33.04623","fcode":"PPL"},{"adminCode1":"TX","lng":"-98.12445","geonameId":4714131,"toponymName":"New Braunfels","countryId":"6252001","fcl":"P","population":70543,"countryCode":"US","name":"New Braunfels","fclName":"city, village,...","adminCodes1":{"ISO3166_2":"TX"},"countryName":"United States","fcodeName":"seat of a second-order administrative division","adminName1":"Texas","lat":"29.703","fcode":"PPLA2"},{"adminCode1":"TX","lng":"-95.55078","geonameId":4699540,"toponymName":"Huntsville","countryId":"6252001","fcl":"P","population":40938,"countryCode":"US","name":"Huntsville","fclName":"city, village,...","adminCodes1":{"ISO3166_2":"TX"},"countryName":"United States","fcodeName":"seat of a second-order administrative division","adminName1":"Texas","lat":"30.72353","fcode":"PPLA2"},{"adminCode1":"TX","lng":"-94.7291","geonameId":4708308,"toponymName":"Lufkin","countryId":"6252001","fcl":"P","population":36333,"countryCode":"US","name":"Lufkin","fclName":"city, village,...","adminCodes1":{"ISO3166_2":"TX"},"countryName":"United States","fcodeName":"seat of a second-order administrative division","adminName1":"Texas","lat":"31.33824","fcode":"PPLA2"},{"adminCode1":"TX","lng":"-94.9027","geonameId":4736134,"toponymName":"Texas City","countryId":"6252001","fcl":"P","population":47618,"countryCode":"US","name":"Texas City","fclName":"city, village,...","adminCodes1":{"ISO3166_2":"TX"},"countryName":"United States","fcodeName":"populated place","adminName1":"Texas","lat":"29.38385","fcode":"PPL"},{"adminCode1":"TX","lng":"-97.14307","geonameId":4673094,"toponymName":"Bedford","countryId":"6252001","fcl":"P","population":49337,"countryCode":"US","name":"Bedford","fclName":"city, village,...","adminCodes1":{"ISO3166_2":"TX"},"countryName":"United States","fcodeName":"populated place","adminName1":"Texas","lat":"32.84402","fcode":"PPL"},{"adminCode1":"TX","lng":"-97.08195","geonameId":4689550,"toponymName":"Euless","countryId":"6252001","fcl":"P","population":54219,"countryCode":"US","name":"Euless","fclName":"city, village,...","adminCodes1":{"ISO3166_2":"TX"},"countryName":"United States","fcodeName":"populated place","adminName1":"Texas","lat":"32.83707","fcode":"PPL"},{"adminCode1":"TX","lng":"-97.09696","geonameId":4691585,"toponymName":"Flower Mound","countryId":"6252001","fcl":"P","population":71253,"countryCode":"US","name":"Flower Mound","fclName":"city, village,...","adminCodes1":{"ISO3166_2":"TX"},"countryName":"United States","fcodeName":"populated place","adminName1":"Texas","lat":"33.01457","fcode":"PPL"},{"adminCode1":"TX","lng":"-96.85695","geonameId":4685524,"toponymName":"DeSoto","countryId":"6252001","fcl":"P","population":52486,"countryCode":"US","name":"DeSoto","fclName":"city, village,...","adminCodes1":{"ISO3166_2":"TX"},"countryName":"United States","fcodeName":"populated place","adminName1":"Texas","lat":"32.58986","fcode":"PPL"},{"adminCode1":"TX","lng":"-96.90834","geonameId":4687331,"toponymName":"Duncanville","countryId":"6252001","fcl":"P","population":39826,"countryCode":"US","name":"Duncanville","fclName":"city, village,...","adminCodes1":{"ISO3166_2":"TX"},"countryName":"United States","fcodeName":"populated place","adminName1":"Texas","lat":"32.6518","fcode":"PPL"},{"adminCode1":"TX","lng":"-97.79725","geonameId":4740364,"toponymName":"Weatherford","countryId":"6252001","fcl":"P","population":28742,"countryCode":"US","name":"Weatherford","fclName":"city, village,...","adminCodes1":{"ISO3166_2":"TX"},"countryName":"United States","fcodeName":"seat of a second-order administrative division","adminName1":"Texas","lat":"32.7593","fcode":"PPLA2"},{"adminCode1":"TX","lng":"-96.60888","geonameId":4728328,"toponymName":"Sherman","countryId":"6252001","fcl":"P","population":40667,"countryCode":"US","name":"Sherman","fclName":"city, village,...","adminCodes1":{"ISO3166_2":"TX"},"countryName":"United States","fcodeName":"seat of a second-order administrative division","adminName1":"Texas","lat":"33.63566","fcode":"PPLA2"},{"adminCode1":"TX","lng":"-96.56388","geonameId":4724194,"toponymName":"Rowlett","countryId":"6252001","fcl":"P","population":60236,"countryCode":"US","name":"Rowlett","fclName":"city, village,...","adminCodes1":{"ISO3166_2":"TX"},"countryName":"United States","fcodeName":"populated place","adminName1":"Texas","lat":"32.9029","fcode":"PPL"},{"adminCode1":"TX","lng":"-98.32529","geonameId":4711725,"toponymName":"Mission","countryId":"6252001","fcl":"P","population":83298,"countryCode":"US","name":"Mission","fclName":"city, village,...","adminCodes1":{"ISO3166_2":"TX"},"countryName":"United States","fcodeName":"populated place","adminName1":"Texas","lat":"26.21591","fcode":"PPL"},{"adminCode1":"TX","lng":"-95.63079","geonameId":4717232,"toponymName":"Palestine","countryId":"6252001","fcl":"P","population":18288,"countryCode":"US","name":"Palestine","fclName":"city, village,...","adminCodes1":{"ISO3166_2":"TX"},"countryName":"United States","fcodeName":"seat of a second-order administrative division","adminName1":"Texas","lat":"31.76212","fcode":"PPLA2"},{"adminCode1":"TX","lng":"-97.62","geonameId":4718711,"toponymName":"Pflugerville","countryId":"6252001","fcl":"P","population":57122,"countryCode":"US","name":"Pflugerville","fclName":"city, village,...","adminCodes1":{"ISO3166_2":"TX"},"countryName":"United States","fcodeName":"populated place","adminName1":"Texas","lat":"30.43937","fcode":"PPL"},{"adminCode1":"TX","lng":"-98.18362","geonameId":4718721,"toponymName":"Pharr","countryId":"6252001","fcl":"P","population":76538,"countryCode":"US","name":"Pharr","fclName":"city, village,...","adminCodes1":{"ISO3166_2":"TX"},"countryName":"United States","fcodeName":"populated place","adminName1":"Texas","lat":"26.1948","fcode":"PPL"},{"adminCode1":"TX","lng":"-95.26216","geonameId":4699442,"toponymName":"Humble","countryId":"6252001","fcl":"P","population":15665,"countryCode":"US","name":"Humble","fclName":"city, village,...","adminCodes1":{"ISO3166_2":"TX"},"countryName":"United States","fcodeName":"populated place","adminName1":"Texas","lat":"29.99883","fcode":"PPL"},{"adminCode1":"TX","lng":"-97.74391","geonameId":4693150,"toponymName":"Gatesville","countryId":"6252001","fcl":"P","population":15724,"countryCode":"US","name":"Gatesville","fclName":"city, village,...","adminCodes1":{"ISO3166_2":"TX"},"countryName":"United States","fcodeName":"seat of a second-order administrative division","adminName1":"Texas","lat":"31.43516","fcode":"PPLA2"},{"adminCode1":"TX","lng":"-97.67723","geonameId":4693342,"toponymName":"Georgetown","countryId":"6252001","fcl":"P","population":63716,"countryCode":"US","name":"Georgetown","fclName":"city, village,...","adminCodes1":{"ISO3166_2":"TX"},"countryName":"United States","fcodeName":"seat of a second-order administrative division","adminName1":"Texas","lat":"30.63269","fcode":"PPLA2"},{"adminCode1":"TX","lng":"-96.11081","geonameId":4695066,"toponymName":"Greenville","countryId":"6252001","fcl":"P","population":26515,"countryCode":"US","name":"Greenville","fclName":"city, village,...","adminCodes1":{"ISO3166_2":"TX"},"countryName":"United States","fcodeName":"seat of a second-order administrative division","adminName1":"Texas","lat":"33.13845","fcode":"PPLA2"},{"adminCode1":"TX","lng":"-95.8244","geonameId":4702732,"toponymName":"Katy","countryId":"6252001","fcl":"P","population":16158,"countryCode":"US","name":"Katy","fclName":"city, village,...","adminCodes1":{"ISO3166_2":"TX"},"countryName":"United States","fcodeName":"populated place","adminName1":"Texas","lat":"29.78579","fcode":"PPL"},{"adminCode1":"TX","lng":"-95.09493","geonameId":4705692,"toponymName":"League City","countryId":"6252001","fcl":"P","population":98312,"countryCode":"US","name":"League City","fclName":"city, village,...","adminCodes1":{"ISO3166_2":"TX"},"countryName":"United States","fcodeName":"populated place","adminName1":"Texas","lat":"29.50745","fcode":"PPL"},{"adminCode1":"TX","lng":"-93.73655","geonameId":4716805,"toponymName":"Orange","countryId":"6252001","fcl":"P","population":19347,"countryCode":"US","name":"Orange","fclName":"city, village,...","adminCodes1":{"ISO3166_2":"TX"},"countryName":"United States","fcodeName":"seat of a second-order administrative division","adminName1":"Texas","lat":"30.09299","fcode":"PPLA2"},{"adminCode1":"TX","lng":"-97.82029","geonameId":4679867,"toponymName":"Cedar Park","countryId":"6252001","fcl":"P","population":65945,"countryCode":"US","name":"Cedar Park","fclName":"city, village,...","adminCodes1":{"ISO3166_2":"TX"},"countryName":"United States","fcodeName":"populated place","adminName1":"Texas","lat":"30.5052","fcode":"PPL"},{"adminCode1":"TX","lng":"-98.16334","geonameId":4688275,"toponymName":"Edinburg","countryId":"6252001","fcl":"P","population":84497,"countryCode":"US","name":"Edinburg","fclName":"city, village,...","adminCodes1":{"ISO3166_2":"TX"},"countryName":"United States","fcodeName":"seat of a second-order administrative division","adminName1":"Texas","lat":"26.30174","fcode":"PPLA2"},{"adminCode1":"TX","lng":"-97.94139","geonameId":4726491,"toponymName":"San Marcos","countryId":"6252001","fcl":"P","population":60684,"countryCode":"US","name":"San Marcos","fclName":"city, village,...","adminCodes1":{"ISO3166_2":"TX"},"countryName":"United States","fcodeName":"seat of a second-order administrative division","adminName1":"Texas","lat":"29.88327","fcode":"PPLA2"},{"adminCode1":"TX","lng":"-95.53772","geonameId":4711801,"toponymName":"Missouri City","countryId":"6252001","fcl":"P","population":74139,"countryCode":"US","name":"Missouri City","fclName":"city, village,...","adminCodes1":{"ISO3166_2":"TX"},"countryName":"United States","fcodeName":"populated place","adminName1":"Texas","lat":"29.61857","fcode":"PPL"},{"adminCode1":"TX","lng":"-94.36742","geonameId":4709272,"toponymName":"Marshall","countryId":"6252001","fcl":"P","population":23820,"countryCode":"US","name":"Marshall","fclName":"city, village,...","adminCodes1":{"ISO3166_2":"TX"},"countryName":"United States","fcodeName":"seat of a second-order administrative division","adminName1":"Texas","lat":"32.54487","fcode":"PPLA2"},{"adminCode1":"TX","lng":"-96.61527","geonameId":4710178,"toponymName":"McKinney","countryId":"6252001","fcl":"P","population":162898,"countryCode":"US","name":"McKinney","fclName":"city, village,...","adminCodes1":{"ISO3166_2":"TX"},"countryName":"United States","fcodeName":"seat of a second-order administrative division","adminName1":"Texas","lat":"33.19762","fcode":"PPLA2"},{"adminCode1":"TX","lng":"-100.89676","geonameId":5520076,"toponymName":"Del Rio","countryId":"6252001","fcl":"P","population":36153,"countryCode":"US","name":"Del Rio","fclName":"city, village,...","adminCodes1":{"ISO3166_2":"TX"},"countryName":"United States","fcodeName":"seat of a second-order administrative division","adminName1":"Texas","lat":"29.36273","fcode":"PPLA2"},{"adminCode1":"TX","lng":"-97.0372","geonameId":4684943,"toponymName":"Dallas/Fort Worth International Airport","countryId":"6252001","fcl":"S","population":0,"countryCode":"US","name":"DFW Airport","fclName":"spot, building, farm","adminCodes1":{"ISO3166_2":"TX"},"countryName":"United States","fcodeName":"airport","adminName1":"Texas","lat":"32.89595","fcode":"AIRP"},{"adminCode1":"TX","lng":"-96.95612","geonameId":4679803,"toponymName":"Cedar Hill","countryId":"6252001","fcl":"P","population":48507,"countryCode":"US","name":"Cedar Hill","fclName":"city, village,...","adminCodes1":{"ISO3166_2":"TX"},"countryName":"United States","fcodeName":"populated place","adminName1":"Texas","lat":"32.58847","fcode":"PPL"},{"adminCode1":"TX","lng":"-97.38668","geonameId":4681976,"toponymName":"Cleburne","countryId":"6252001","fcl":"P","population":30020,"countryCode":"US","name":"Cleburne","fclName":"city, village,...","adminCodes1":{"ISO3166_2":"TX"},"countryName":"United States","fcodeName":"seat of a second-order administrative division","adminName1":"Texas","lat":"32.34764","fcode":"PPLA2"},{"adminCode1":"TX","lng":"-97.15501","geonameId":4682478,"toponymName":"Colleyville","countryId":"6252001","fcl":"P","population":25487,"countryCode":"US","name":"Colleyville","fclName":"city, village,...","adminCodes1":{"ISO3166_2":"TX"},"countryName":"United States","fcodeName":"populated place","adminName1":"Texas","lat":"32.88096","fcode":"PPL"},{"adminCode1":"TX","lng":"-95.45883","geonameId":4673353,"toponymName":"Bellaire","countryId":"6252001","fcl":"P","population":18518,"countryCode":"US","name":"Bellaire","fclName":"city, village,...","adminCodes1":{"ISO3166_2":"TX"},"countryName":"United States","fcodeName":"populated place","adminName1":"Texas","lat":"29.70579","fcode":"PPL"},{"adminCode1":"TX","lng":"-97.32085","geonameId":4677551,"toponymName":"Burleson","countryId":"6252001","fcl":"P","population":43625,"countryCode":"US","name":"Burleson","fclName":"city, village,...","adminCodes1":{"ISO3166_2":"TX"},"countryName":"United States","fcodeName":"populated place","adminName1":"Texas","lat":"32.54208","fcode":"PPL"},{"adminCode1":"TX","lng":"-96.62527","geonameId":4689311,"toponymName":"Ennis","countryId":"6252001","fcl":"P","population":19007,"countryCode":"US","name":"Ennis","fclName":"city, village,...","adminCodes1":{"ISO3166_2":"TX"},"countryName":"United States","fcodeName":"populated place","adminName1":"Texas","lat":"32.32931","fcode":"PPL"},{"adminCode1":"TX","lng":"-97.90308","geonameId":4683244,"toponymName":"Copperas Cove","countryId":"6252001","fcl":"P","population":33081,"countryCode":"US","name":"Copperas Cove","fclName":"city, village,...","adminCodes1":{"ISO3166_2":"TX"},"countryName":"United States","fcodeName":"populated place","adminName1":"Texas","lat":"31.12406","fcode":"PPL"},{"adminCode1":"TX","lng":"-96.46887","geonameId":4683462,"toponymName":"Corsicana","countryId":"6252001","fcl":"P","population":23952,"countryCode":"US","name":"Corsicana","fclName":"city, village,...","adminCodes1":{"ISO3166_2":"TX"},"countryName":"United States","fcodeName":"seat of a second-order administrative division","adminName1":"Texas","lat":"32.09543","fcode":"PPLA2"},{"adminCode1":"TX","lng":"-95.69717","geonameId":4684724,"toponymName":"Cypress","countryId":"6252001","fcl":"P","population":46025,"countryCode":"US","name":"Cypress","fclName":"city, village,...","adminCodes1":{"ISO3166_2":"TX"},"countryName":"United States","fcodeName":"populated place","adminName1":"Texas","lat":"29.96911","fcode":"PPL"},{"adminCode1":"TX","lng":"-96.53666","geonameId":4685892,"toponymName":"Denison","countryId":"6252001","fcl":"P","population":23150,"countryCode":"US","name":"Denison","fclName":"city, village,...","adminCodes1":{"ISO3166_2":"TX"},"countryName":"United States","fcodeName":"populated place","adminName1":"Texas","lat":"33.75566","fcode":"PPL"},{"adminCode1":"TX","lng":"-95.59633","geonameId":4670249,"toponymName":"Alief","countryId":"6252001","fcl":"P","population":98725,"countryCode":"US","name":"Alief","fclName":"city, village,...","adminCodes1":{"ISO3166_2":"TX"},"countryName":"United States","fcodeName":"populated place","adminName1":"Texas","lat":"29.71106","fcode":"PPL"},{"adminCode1":"TX","lng":"-95.2441","geonameId":4670592,"toponymName":"Alvin","countryId":"6252001","fcl":"P","population":25791,"countryCode":"US","name":"Alvin","fclName":"city, village,...","adminCodes1":{"ISO3166_2":"TX"},"countryName":"United States","fcodeName":"populated place","adminName1":"Texas","lat":"29.42385","fcode":"PPL"},{"adminCode1":"TX","lng":"-96.27526","geonameId":4736028,"toponymName":"Terrell","countryId":"6252001","fcl":"P","population":16981,"countryCode":"US","name":"Terrell","fclName":"city, village,...","adminCodes1":{"ISO3166_2":"TX"},"countryName":"United States","fcodeName":"populated place","adminName1":"Texas","lat":"32.73596","fcode":"PPL"},{"adminCode1":"TX","lng":"-96.88639","geonameId":4736388,"toponymName":"The Colony","countryId":"6252001","fcl":"P","population":41779,"countryCode":"US","name":"The Colony","fclName":"city, village,...","adminCodes1":{"ISO3166_2":"TX"},"countryName":"United States","fcodeName":"populated place","adminName1":"Texas","lat":"33.08901","fcode":"PPL"},{"adminCode1":"TX","lng":"-95.48938","geonameId":4736476,"toponymName":"The Woodlands","countryId":"6252001","fcl":"P","population":93847,"countryCode":"US","name":"The Woodlands","fclName":"city, village,...","adminCodes1":{"ISO3166_2":"TX"},"countryName":"United States","fcodeName":"populated place","adminName1":"Texas","lat":"30.15799","fcode":"PPL"},{"adminCode1":"TX","lng":"-95.61605","geonameId":4737094,"toponymName":"Tomball","countryId":"6252001","fcl":"P","population":11540,"countryCode":"US","name":"Tomball","fclName":"city, village,...","adminCodes1":{"ISO3166_2":"TX"},"countryName":"United States","fcodeName":"populated place","adminName1":"Texas","lat":"30.09716","fcode":"PPL"}]}
