{"totalResultsCount":21,"geonames":[{"adminCode1":"TX","lng":"-97.91909","geonameId":7174575,"toponymName":"City of Tolar","countryId":"6252001","fcl":"A","population":681,"countryCode":"US","name":"City of Tolar","fclName":"country, state, region,...","adminCodes1":{"ISO3166_2":"TX"},"countryName":"United States","fcodeName":"third-order administrative division","adminName1":"Texas","lat":"32.38944","fcode":"ADM3"},{"adminCode1":"TX","lng":"-97.92059","geonameId":4737033,"toponymName":"Tolar","countryId":"6252001","fcl":"P","population":828,"countryCode":"US","name":"Tolar","fclName":"city, village,...","adminCodes1":{"ISO3166_2":"TX"},"countryName":"United States","fcodeName":"populated place","adminName1":"Texas","lat":"32.38903","fcode":"PPL"},{"adminCode1":"AR","lng":"-92.57575","geonameId":4133649,"toponymName":"Tolar Lake","countryId":"6252001","fcl":"H","population":0,"countryCode":"US","name":"Tolar Lake","fclName":"stream, lake, ...","adminCodes1":{"ISO3166_2":"AR"},"countryName":"United States","fcodeName":"lake","adminName1":"Arkansas","lat":"34.23322","fcode":"LK"},{"adminCode1":"NM","lng":"-103.93163","geonameId":5494734,"toponymName":"Tolar","countryId":"6252001","fcl":"P","population":0,"countryCode":"US","name":"Tolar","fclName":"city, village,...","adminCodes1":{"ISO3166_2":"NM"},"countryName":"United States","fcodeName":"populated place","adminName1":"New Mexico","lat":"34.4509","fcode":"PPL"},{"adminCode1":"NC","lng":"-78.82252","geonameId":4495195,"toponymName":"Tolar Landing","countryId":"6252001","fcl":"P","population":0,"countryCode":"US","name":"Tolar Landing","fclName":"city, village,...","adminCodes1":{"ISO3166_2":"NC"},"countryName":"United States","fcodeName":"populated place","adminName1":"North Carolina","lat":"34.83572","fcode":"PPL"},{"adminCode1":"MS","lng":"-88.55504","geonameId":4448557,"toponymName":"Tolar Subdivision","countryId":"6252001","fcl":"P","population":0,"countryCode":"US","name":"Tolar Subdivision","fclName":"city, village,...","adminCodes1":{"ISO3166_2":"MS"},"countryName":"United States","fcodeName":"section of populated place","adminName1":"Mississippi","lat":"33.82011","fcode":"PPLX"},{"adminCode1":"TX","lng":"-97.92269","geonameId":7247164,"toponymName":"Tolar Volunteer Fire Department","countryId":"6252001","fcl":"S","population":0,"countryCode":"US","name":"Tolar Volunteer Fire Department","fclName":"spot, building, farm","adminCodes1":{"ISO3166_2":"TX"},"countryName":"United States","fcodeName":"building(s)","adminName1":"Texas","lat":"32.38821","fcode":"BLDG"},{"adminCode1":"MS","lng":"-90.92927","geonameId":4448553,"toponymName":"Tolar Cemetery","countryId":"6252001","fcl":"S","population":0,"countryCode":"US","name":"Tolar Cemetery","fclName":"spot, building, farm","adminCodes1":{"ISO3166_2":"MS"},"countryName":"United States","fcodeName":"cemetery","adminName1":"Mississippi","lat":"31.1974","fcode":"CMTY"},{"adminCode1":"MS","lng":"-90.15675","geonameId":4448554,"toponymName":"Tolar Cemetery","countryId":"6252001","fcl":"S","population":0,"countryCode":"US","name":"Tolar Cemetery","fclName":"spot, building, farm","adminCodes1":{"ISO3166_2":"MS"},"countryName":"United States","fcodeName":"cemetery","adminName1":"Mississippi","lat":"32.96291","fcode":"CMTY"},{"adminCode1":"MS","lng":"-89.66785","geonameId":4448555,"toponymName":"Tolar Cemetery","countryId":"6252001","fcl":"S","population":0,"countryCode":"US","name":"Tolar Cemetery","fclName":"spot, building, farm","adminCodes1":{"ISO3166_2":"MS"},"countryName":"United States","fcodeName":"cemetery","adminName1":"Mississippi","lat":"31.27768","fcode":"CMTY"},{"adminCode1":"MS","lng":"-89.81508","geonameId":4448556,"toponymName":"Tolar Ponds Dam","countryId":"6252001","fcl":"S","population":0,"countryCode":"US","name":"Tolar Ponds Dam","fclName":"spot, building, farm","adminCodes1":{"ISO3166_2":"MS"},"countryName":"United States","fcodeName":"dam","adminName1":"Mississippi","lat":"31.06518","fcode":"DAM"},{"adminCode1":"TX","lng":"-97.91448","geonameId":4737034,"toponymName":"Tolar Cemetery","countryId":"6252001","fcl":"S","population":0,"countryCode":"US","name":"Tolar Cemetery","fclName":"spot, building, farm","adminCodes1":{"ISO3166_2":"TX"},"countryName":"United States","fcodeName":"cemetery","adminName1":"Texas","lat":"32.37903","fcode":"CMTY"},{"adminCode1":"TX","lng":"-97.91865","geonameId":4737035,"toponymName":"Tolar Elementary School","countryId":"6252001","fcl":"S","population":0,"countryCode":"US","name":"Tolar Elementary School","fclName":"spot, building, farm","adminCodes1":{"ISO3166_2":"TX"},"countryName":"United States","fcodeName":"school","adminName1":"Texas","lat":"32.38708","fcode":"SCH"},{"adminCode1":"TX","lng":"-97.91865","geonameId":4737036,"toponymName":"Tolar High School","countryId":"6252001","fcl":"S","population":0,"countryCode":"US","name":"Tolar High School","fclName":"spot, building, farm","adminCodes1":{"ISO3166_2":"TX"},"countryName":"United States","fcodeName":"school","adminName1":"Texas","lat":"32.38708","fcode":"SCH"},{"adminCode1":"AL","lng":"-87.39861","geonameId":4093829,"toponymName":"Tolar Farms","countryId":"6252001","fcl":"S","population":0,"countryCode":"US","name":"Tolar Farms","fclName":"spot, building, farm","adminCodes1":{"ISO3166_2":"AL"},"countryName":"United States","fcodeName":"farm","adminName1":"Alabama","lat":"32.53347","fcode":"FRM"},{"adminCode1":"TX","lng":"-97.9198","geonameId":9680533,"toponymName":"Tolar Police Department","countryId":"6252001","fcl":"S","population":0,"countryCode":"US","name":"Tolar Police Department","fclName":"spot, building, farm","adminCodes1":{"ISO3166_2":"TX"},"countryName":"United States","fcodeName":"building(s)","adminName1":"Texas","lat":"32.38966","fcode":"BLDG"},{"adminCode1":"TX","lng":"-97.92377","geonameId":9673682,"toponymName":"Tolar Post Office","countryId":"6252001","fcl":"S","population":0,"countryCode":"US","name":"Tolar Post Office","fclName":"spot, building, farm","adminCodes1":{"ISO3166_2":"TX"},"countryName":"United States","fcodeName":"post office","adminName1":"Texas","lat":"32.38787","fcode":"PO"},{"adminCode1":"TX","lng":"-97.91979","geonameId":9686259,"toponymName":"Tolar City Hall","countryId":"6252001","fcl":"S","population":0,"countryCode":"US","name":"Tolar City Hall","fclName":"spot, building, farm","adminCodes1":{"ISO3166_2":"TX"},"countryName":"United States","fcodeName":"building(s)","adminName1":"Texas","lat":"32.38968","fcode":"BLDG"},{"adminCode1":"NM","lng":"-103.91885","geonameId":5494735,"toponymName":"Tolar Cemetery","countryId":"6252001","fcl":"S","population":0,"countryCode":"US","name":"Tolar Cemetery","fclName":"spot, building, farm","adminCodes1":{"ISO3166_2":"NM"},"countryName":"United States","fcodeName":"cemetery","adminName1":"New Mexico","lat":"34.4334","fcode":"CMTY"},{"adminCode1":"NM","lng":"-103.93163","geonameId":5494736,"toponymName":"Tolar Post Office (historical)","countryId":"6252001","fcl":"S","population":0,"countryCode":"US","name":"Tolar Post Office (historical)","fclName":"spot, building, farm","adminCodes1":{"ISO3166_2":"NM"},"countryName":"United States","fcodeName":"post office","adminName1":"New Mexico","lat":"34.4509","fcode":"PO"},{"adminCode1":"NM","lng":"-103.85302","geonameId":5494737,"toponymName":"Tolar Well","countryId":"6252001","fcl":"H","population":0,"countryCode":"US","name":"Tolar Well","fclName":"stream, lake, ...","adminCodes1":{"ISO3166_2":"NM"},"countryName":"United States","fcodeName":"well","adminName1":"New Mexico","lat":"34.06953","fcode":"WLL"}]}
