{"totalResultsCount":999,"geonames":[{"adminCode1":"NC","lng":"-82.7983","geonameId":4495544,"toponymName":"Transylvania County","countryId":"6252001","fcl":"A","population":33090,"countryCode":"US","name":"Transylvania","fclName":"country, state, region,...","adminCodes1":{"ISO3166_2":"NC"},"countryName":"United States","fcodeName":"second-order administrative division","adminName1":"North Carolina","lat":"35.20215","fcode":"ADM2"},{"adminCode1":"NC","lng":"-82.64548","geonameId":8115184,"toponymName":"Transylvania County Airport","countryId":"6252001","fcl":"S","population":0,"countryCode":"US","name":"Transylvania County Airport","fclName":"spot, building, farm","adminCodes1":{"ISO3166_2":"NC"},"countryName":"United States","fcodeName":"airport","adminName1":"North Carolina","lat":"35.27011","fcode":"AIRP"},{"adminCode1":"NC","lng":"-82.9125","geonameId":7158421,"toponymName":"Gorges State Park","countryId":"6252001","fcl":"L","population":0,"countryCode":"US","name":"Gorges State Park","fclName":"parks,area, ...","adminCodes1":{"ISO3166_2":"NC"},"countryName":"United States","fcodeName":"park","adminName1":"North Carolina","lat":"35.08333","fcode":"PRK"},{"adminCode1":"NC","lng":"-82.82124","geonameId":4489022,"toponymName":"Rosman","countryId":"6252001","fcl":"P","population":573,"countryCode":"US","name":"Rosman","fclName":"city, village,...","adminCodes1":{"ISO3166_2":"NC"},"countryName":"United States","fcodeName":"populated place","adminName1":"North Carolina","lat":"35.14372","fcode":"PPL"},{"adminCode1":"NC","lng":"-83.00292","geonameId":4490355,"toponymName":"Sapphire","countryId":"6252001","fcl":"P","population":0,"countryCode":"US","name":"Sapphire","fclName":"city, village,...","adminCodes1":{"ISO3166_2":"NC"},"countryName":"United States","fcodeName":"populated place","adminName1":"North Carolina","lat":"35.10704","fcode":"PPL"},{"adminCode1":"NC","lng":"-82.63901","geonameId":4484559,"toponymName":"Penrose","countryId":"6252001","fcl":"P","population":0,"countryCode":"US","name":"Penrose","fclName":"city, village,...","adminCodes1":{"ISO3166_2":"NC"},"countryName":"United States","fcodeName":"populated place","adminName1":"North Carolina","lat":"35.27234","fcode":"PPL"},{"adminCode1":"NC","lng":"-82.70012","geonameId":4485621,"toponymName":"Pisgah Forest","countryId":"6252001","fcl":"P","population":0,"countryCode":"US","name":"Pisgah Forest","fclName":"city, village,...","adminCodes1":{"ISO3166_2":"NC"},"countryName":"United States","fcodeName":"populated place","adminName1":"North Carolina","lat":"35.25428","fcode":"PPL"},{"adminCode1":"NC","lng":"-82.93403","geonameId":4474896,"toponymName":"Lake Toxaway","countryId":"6252001","fcl":"P","population":0,"countryCode":"US","name":"Lake Toxaway","fclName":"city, village,...","adminCodes1":{"ISO3166_2":"NC"},"countryName":"United States","fcodeName":"populated place","adminName1":"North Carolina","lat":"35.13232","fcode":"PPL"},{"adminCode1":"NC","lng":"-82.87374","geonameId":4453625,"toponymName":"Balsam Grove","countryId":"6252001","fcl":"P","population":0,"countryCode":"US","name":"Balsam Grove","fclName":"city, village,...","adminCodes1":{"ISO3166_2":"NC"},"countryName":"United States","fcodeName":"populated place","adminName1":"North Carolina","lat":"35.22955","fcode":"PPL"},{"adminCode1":"NC","lng":"-82.73429","geonameId":4457040,"toponymName":"Brevard","countryId":"6252001","fcl":"P","population":7735,"countryCode":"US","name":"Brevard","fclName":"city, village,...","adminCodes1":{"ISO3166_2":"NC"},"countryName":"United States","fcodeName":"seat of a second-order administrative division","adminName1":"North Carolina","lat":"35.23345","fcode":"PPLA2"},{"adminCode1":"NC","lng":"-82.68447","geonameId":4455433,"toponymName":"Betty-Kay Lake","countryId":"6252001","fcl":"H","population":0,"countryCode":"US","name":"Betty-Kay Lake","fclName":"stream, lake, ...","adminCodes1":{"ISO3166_2":"NC"},"countryName":"United States","fcodeName":"lake","adminName1":"North Carolina","lat":"35.13354","fcode":"LK"},{"adminCode1":"NC","lng":"-82.72679","geonameId":4457042,"toponymName":"Brevard Airport","countryId":"6252001","fcl":"S","population":0,"countryCode":"US","name":"Brevard Airport","fclName":"spot, building, farm","adminCodes1":{"ISO3166_2":"NC"},"countryName":"United States","fcodeName":"airport","adminName1":"North Carolina","lat":"35.22261","fcode":"AIRP"},{"adminCode1":"NC","lng":"-82.79346","geonameId":4477246,"toponymName":"Looking Glass Rock","countryId":"6252001","fcl":"T","population":0,"countryCode":"US","name":"Looking Glass Rock","fclName":"mountain,hill,rock,... ","adminCodes1":{"ISO3166_2":"NC"},"countryName":"United States","fcodeName":"mountain","adminName1":"North Carolina","lat":"35.30372","fcode":"MT"},{"adminCode1":"NC","lng":"-82.71068","geonameId":4494327,"toponymName":"Sycamore Flats Recreational Area","countryId":"6252001","fcl":"L","population":0,"countryCode":"US","name":"Sycamore Flats Recreational Area","fclName":"parks,area, ...","adminCodes1":{"ISO3166_2":"NC"},"countryName":"United States","fcodeName":"park","adminName1":"North Carolina","lat":"35.27539","fcode":"PRK"},{"adminCode1":"NC","lng":"-82.77152","geonameId":4485607,"toponymName":"Pisgah Game Lands","countryId":"6252001","fcl":"L","population":0,"countryCode":"US","name":"Pisgah Game Lands","fclName":"parks,area, ...","adminCodes1":{"ISO3166_2":"NC"},"countryName":"United States","fcodeName":"park","adminName1":"North Carolina","lat":"35.42539","fcode":"PRK"},{"adminCode1":"NC","lng":"-82.79096","geonameId":4473488,"toponymName":"John Rock","countryId":"6252001","fcl":"T","population":0,"countryCode":"US","name":"John Rock","fclName":"mountain,hill,rock,... ","adminCodes1":{"ISO3166_2":"NC"},"countryName":"United States","fcodeName":"mountain","adminName1":"North Carolina","lat":"35.27733","fcode":"MT"},{"adminCode1":"NC","lng":"-82.89569","geonameId":4463553,"toponymName":"Devils Courthouse","countryId":"6252001","fcl":"T","population":0,"countryCode":"US","name":"Devils Courthouse","fclName":"mountain,hill,rock,... ","adminCodes1":{"ISO3166_2":"NC"},"countryName":"United States","fcodeName":"mountain","adminName1":"North Carolina","lat":"35.30288","fcode":"MT"},{"adminCode1":"NC","lng":"-82.71596","geonameId":4460561,"toponymName":"Chestnut Mountain","countryId":"6252001","fcl":"T","population":0,"countryCode":"US","name":"Chestnut Mountain","fclName":"mountain,hill,rock,... ","adminCodes1":{"ISO3166_2":"NC"},"countryName":"United States","fcodeName":"mountain","adminName1":"North Carolina","lat":"35.16623","fcode":"MT"},{"adminCode1":"NC","lng":"-82.73429","geonameId":4463070,"toponymName":"Davidson River Recreational Area","countryId":"6252001","fcl":"L","population":0,"countryCode":"US","name":"Davidson River Recreational Area","fclName":"parks,area, ...","adminCodes1":{"ISO3166_2":"NC"},"countryName":"United States","fcodeName":"park","adminName1":"North Carolina","lat":"35.28706","fcode":"PRK"},{"adminCode1":"LA","lng":"-91.18261","geonameId":4343795,"toponymName":"Transylvania","countryId":"6252001","fcl":"P","population":0,"countryCode":"US","name":"Transylvania","fclName":"city, village,...","adminCodes1":{"ISO3166_2":"LA"},"countryName":"United States","fcodeName":"populated place","adminName1":"Louisiana","lat":"32.67847","fcode":"PPL"},{"adminCode1":"NC","lng":"-82.72671","geonameId":7169660,"toponymName":"City of Brevard","countryId":"6252001","fcl":"A","population":7609,"countryCode":"US","name":"City of Brevard","fclName":"country, state, region,...","adminCodes1":{"ISO3166_2":"NC"},"countryName":"United States","fcodeName":"administrative division","adminName1":"North Carolina","lat":"35.24288","fcode":"ADMD"},{"adminCode1":"NC","lng":"-82.82015","geonameId":7172460,"toponymName":"Town of Rosman","countryId":"6252001","fcl":"A","population":576,"countryCode":"US","name":"Town of Rosman","fclName":"country, state, region,...","adminCodes1":{"ISO3166_2":"NC"},"countryName":"United States","fcodeName":"administrative division","adminName1":"North Carolina","lat":"35.14583","fcode":"ADMD"},{"adminCode1":"NC","lng":"-82.96292","geonameId":4489142,"toponymName":"Roundtop","countryId":"6252001","fcl":"T","population":0,"countryCode":"US","name":"Roundtop","fclName":"mountain,hill,rock,... ","adminCodes1":{"ISO3166_2":"NC"},"countryName":"United States","fcodeName":"mountain","adminName1":"North Carolina","lat":"35.10399","fcode":"MT"},{"adminCode1":"NC","lng":"-82.67235","geonameId":4491089,"toponymName":"Sharpy Mountain","countryId":"6252001","fcl":"T","population":0,"countryCode":"US","name":"Sharpy Mountain","fclName":"mountain,hill,rock,... ","adminCodes1":{"ISO3166_2":"NC"},"countryName":"United States","fcodeName":"mountain","adminName1":"North Carolina","lat":"35.33095","fcode":"MT"},{"adminCode1":"NC","lng":"-82.81013","geonameId":4481604,"toponymName":"Revels Mountain","countryId":"6252001","fcl":"T","population":0,"countryCode":"US","name":"Revels Mountain","fclName":"mountain,hill,rock,... ","adminCodes1":{"ISO3166_2":"NC"},"countryName":"United States","fcodeName":"mountain","adminName1":"North Carolina","lat":"35.21511","fcode":"MT"},{"adminCode1":"NC","lng":"-82.73179","geonameId":4455962,"toponymName":"Bill Raines Mountain","countryId":"6252001","fcl":"T","population":0,"countryCode":"US","name":"Bill Raines Mountain","fclName":"mountain,hill,rock,... ","adminCodes1":{"ISO3166_2":"NC"},"countryName":"United States","fcodeName":"mountain","adminName1":"North Carolina","lat":"35.17317","fcode":"MT"},{"adminCode1":"NC","lng":"-82.66235","geonameId":4456118,"toponymName":"Black Knob","countryId":"6252001","fcl":"T","population":0,"countryCode":"US","name":"Black Knob","fclName":"mountain,hill,rock,... ","adminCodes1":{"ISO3166_2":"NC"},"countryName":"United States","fcodeName":"mountain","adminName1":"North Carolina","lat":"35.21289","fcode":"MT"},{"adminCode1":"NC","lng":"-82.93888","geonameId":4456432,"toponymName":"Blue Ridge Lake","countryId":"6252001","fcl":"H","population":0,"countryCode":"US","name":"Blue Ridge Lake","fclName":"stream, lake, ...","adminCodes1":{"ISO3166_2":"NC"},"countryName":"United States","fcodeName":"lake","adminName1":"North Carolina","lat":"35.16653","fcode":"LK"},{"adminCode1":"NC","lng":"-82.70439","geonameId":4456861,"toponymName":"Township of Boyd","countryId":"6252001","fcl":"A","population":0,"countryCode":"US","name":"Boyd Township","fclName":"country, state, region,...","adminCodes1":{"ISO3166_2":"NC"},"countryName":"United States","fcodeName":"third-order administrative division","adminName1":"North Carolina","lat":"35.33548","fcode":"ADM3"},{"adminCode1":"NC","lng":"-82.65207","geonameId":4456898,"toponymName":"Bradford Mountain","countryId":"6252001","fcl":"T","population":0,"countryCode":"US","name":"Bradford Mountain","fclName":"mountain,hill,rock,... ","adminCodes1":{"ISO3166_2":"NC"},"countryName":"United States","fcodeName":"mountain","adminName1":"North Carolina","lat":"35.12623","fcode":"MT"},{"adminCode1":"NC","lng":"-82.72929","geonameId":4457043,"toponymName":"Brevard College","countryId":"6252001","fcl":"S","population":0,"countryCode":"US","name":"Brevard College","fclName":"spot, building, farm","adminCodes1":{"ISO3166_2":"NC"},"countryName":"United States","fcodeName":"school","adminName1":"North Carolina","lat":"35.23872","fcode":"SCH"},{"adminCode1":"NC","lng":"-82.769","geonameId":4457051,"toponymName":"Township of Brevard","countryId":"6252001","fcl":"A","population":0,"countryCode":"US","name":"Brevard Township","fclName":"country, state, region,...","adminCodes1":{"ISO3166_2":"NC"},"countryName":"United States","fcodeName":"third-order administrative division","adminName1":"North Carolina","lat":"35.28141","fcode":"ADM3"},{"adminCode1":"NC","lng":"-82.63846","geonameId":4457777,"toponymName":"Buck Forest","countryId":"6252001","fcl":"L","population":0,"countryCode":"US","name":"Buck Forest","fclName":"parks,area, ...","adminCodes1":{"ISO3166_2":"NC"},"countryName":"United States","fcodeName":"area","adminName1":"North Carolina","lat":"35.17651","fcode":"AREA"},{"adminCode1":"NC","lng":"-82.63354","geonameId":4476595,"toponymName":"Township of Little River","countryId":"6252001","fcl":"A","population":0,"countryCode":"US","name":"Little River Township","fclName":"country, state, region,...","adminCodes1":{"ISO3166_2":"NC"},"countryName":"United States","fcodeName":"third-order administrative division","adminName1":"North Carolina","lat":"35.19198","fcode":"ADM3"},{"adminCode1":"NC","lng":"-82.74124","geonameId":4491618,"toponymName":"Shut-in Ridge","countryId":"6252001","fcl":"T","population":0,"countryCode":"US","name":"Shut-in Ridge","fclName":"mountain,hill,rock,... ","adminCodes1":{"ISO3166_2":"NC"},"countryName":"United States","fcodeName":"ridge(s)","adminName1":"North Carolina","lat":"35.27567","fcode":"RDGE"},{"adminCode1":"NC","lng":"-82.70457","geonameId":4491991,"toponymName":"Slicking Gap","countryId":"6252001","fcl":"T","population":0,"countryCode":"US","name":"Slicking Gap","fclName":"mountain,hill,rock,... ","adminCodes1":{"ISO3166_2":"NC"},"countryName":"United States","fcodeName":"gap","adminName1":"North Carolina","lat":"35.09845","fcode":"GAP"},{"adminCode1":"NC","lng":"-82.6879","geonameId":4494164,"toponymName":"Sutton Knob","countryId":"6252001","fcl":"T","population":0,"countryCode":"US","name":"Sutton Knob","fclName":"mountain,hill,rock,... ","adminCodes1":{"ISO3166_2":"NC"},"countryName":"United States","fcodeName":"mountain","adminName1":"North Carolina","lat":"35.31039","fcode":"MT"},{"adminCode1":"NC","lng":"-82.9568","geonameId":4494434,"toponymName":"Tanasee Gap","countryId":"6252001","fcl":"T","population":0,"countryCode":"US","name":"Tanasee Gap","fclName":"mountain,hill,rock,... ","adminCodes1":{"ISO3166_2":"NC"},"countryName":"United States","fcodeName":"gap","adminName1":"North Carolina","lat":"35.21677","fcode":"GAP"},{"adminCode1":"NC","lng":"-82.93124","geonameId":4494436,"toponymName":"Tanasee Ridge","countryId":"6252001","fcl":"T","population":0,"countryCode":"US","name":"Tanasee Ridge","fclName":"mountain,hill,rock,... ","adminCodes1":{"ISO3166_2":"NC"},"countryName":"United States","fcodeName":"ridge(s)","adminName1":"North Carolina","lat":"35.23205","fcode":"RDGE"},{"adminCode1":"NC","lng":"-82.75541","geonameId":4498836,"toponymName":"Whiteoak Mountain","countryId":"6252001","fcl":"T","population":0,"countryCode":"US","name":"Whiteoak Mountain","fclName":"mountain,hill,rock,... ","adminCodes1":{"ISO3166_2":"NC"},"countryName":"United States","fcodeName":"mountain","adminName1":"North Carolina","lat":"35.06817","fcode":"MT"},{"adminCode1":"NC","lng":"-82.95664","geonameId":4471445,"toponymName":"Township of Hogback","countryId":"6252001","fcl":"A","population":0,"countryCode":"US","name":"Hogback Township","fclName":"country, state, region,...","adminCodes1":{"ISO3166_2":"NC"},"countryName":"United States","fcodeName":"third-order administrative division","adminName1":"North Carolina","lat":"35.09799","fcode":"ADM3"},{"adminCode1":"NC","lng":"-82.70664","geonameId":4464346,"toponymName":"Township of Dunns Rock","countryId":"6252001","fcl":"A","population":0,"countryCode":"US","name":"Dunns Rock Township","fclName":"country, state, region,...","adminCodes1":{"ISO3166_2":"NC"},"countryName":"United States","fcodeName":"third-order administrative division","adminName1":"North Carolina","lat":"35.17808","fcode":"ADM3"},{"adminCode1":"NC","lng":"-82.72124","geonameId":4464350,"toponymName":"Dunns Rock","countryId":"6252001","fcl":"T","population":0,"countryCode":"US","name":"Dunns Rock","fclName":"mountain,hill,rock,... ","adminCodes1":{"ISO3166_2":"NC"},"countryName":"United States","fcodeName":"cliff(s)","adminName1":"North Carolina","lat":"35.1815","fcode":"CLF"},{"adminCode1":"NC","lng":"-82.81013","geonameId":4464706,"toponymName":"Eastatoe Gap","countryId":"6252001","fcl":"T","population":0,"countryCode":"US","name":"Eastatoe Gap","fclName":"mountain,hill,rock,... ","adminCodes1":{"ISO3166_2":"NC"},"countryName":"United States","fcodeName":"gap","adminName1":"North Carolina","lat":"35.09594","fcode":"GAP"},{"adminCode1":"NC","lng":"-82.8045","geonameId":4464707,"toponymName":"Township of Eastatoe","countryId":"6252001","fcl":"A","population":0,"countryCode":"US","name":"Eastatoe Township","fclName":"country, state, region,...","adminCodes1":{"ISO3166_2":"NC"},"countryName":"United States","fcodeName":"third-order administrative division","adminName1":"North Carolina","lat":"35.10871","fcode":"ADM3"},{"adminCode1":"NC","lng":"-82.89463","geonameId":4468164,"toponymName":"Township of Gloucester","countryId":"6252001","fcl":"A","population":0,"countryCode":"US","name":"Gloucester Township","fclName":"country, state, region,...","adminCodes1":{"ISO3166_2":"NC"},"countryName":"United States","fcodeName":"third-order administrative division","adminName1":"North Carolina","lat":"35.21599","fcode":"ADM3"},{"adminCode1":"NC","lng":"-82.74957","geonameId":4454293,"toponymName":"Bearpen Mountain","countryId":"6252001","fcl":"T","population":0,"countryCode":"US","name":"Bearpen Mountain","fclName":"mountain,hill,rock,... ","adminCodes1":{"ISO3166_2":"NC"},"countryName":"United States","fcodeName":"mountain","adminName1":"North Carolina","lat":"35.29706","fcode":"MT"},{"adminCode1":"NC","lng":"-82.79851","geonameId":4459628,"toponymName":"Township of Catheys Creek","countryId":"6252001","fcl":"A","population":0,"countryCode":"US","name":"Catheys Creek Township","fclName":"country, state, region,...","adminCodes1":{"ISO3166_2":"NC"},"countryName":"United States","fcodeName":"third-order administrative division","adminName1":"North Carolina","lat":"35.20129","fcode":"ADM3"},{"adminCode1":"NC","lng":"-82.6429","geonameId":4459880,"toponymName":"Cedar Mountain","countryId":"6252001","fcl":"P","population":0,"countryCode":"US","name":"Cedar Mountain","fclName":"city, village,...","adminCodes1":{"ISO3166_2":"NC"},"countryName":"United States","fcodeName":"populated place","adminName1":"North Carolina","lat":"35.14345","fcode":"PPL"},{"adminCode1":"NC","lng":"-82.63401","geonameId":4459900,"toponymName":"Cedar Rock","countryId":"6252001","fcl":"T","population":0,"countryCode":"US","name":"Cedar Rock","fclName":"mountain,hill,rock,... ","adminCodes1":{"ISO3166_2":"NC"},"countryName":"United States","fcodeName":"mountain","adminName1":"North Carolina","lat":"35.17984","fcode":"MT"},{"adminCode1":"NC","lng":"-82.76068","geonameId":4462331,"toponymName":"Cradle of Forestry in America","countryId":"6252001","fcl":"L","population":0,"countryCode":"US","name":"Cradle of Forestry in America","fclName":"parks,area, ...","adminCodes1":{"ISO3166_2":"NC"},"countryName":"United States","fcodeName":"park","adminName1":"North Carolina","lat":"35.37372","fcode":"PRK"},{"adminCode1":"NC","lng":"-82.75437","geonameId":9957234,"toponymName":"Mount Pisgah Campgrounds","countryId":"6252001","fcl":"L","population":0,"countryCode":"US","name":"Mount Pisgah Campgrounds","fclName":"parks,area, ...","adminCodes1":{"ISO3166_2":"NC"},"countryName":"United States","fcodeName":"park","adminName1":"North Carolina","lat":"35.40263","fcode":"PRK"},{"adminCode1":"NC","lng":"-82.71243","geonameId":4495543,"toponymName":"Transylvania Regional Hospital","countryId":"6252001","fcl":"S","population":0,"countryCode":"US","name":"Transylvania Regional Hospital","fclName":"spot, building, farm","adminCodes1":{"ISO3166_2":"NC"},"countryName":"United States","fcodeName":"hospital","adminName1":"North Carolina","lat":"35.25612","fcode":"HSP"},{"adminCode1":"KY","lng":"-84.49413","geonameId":8503832,"toponymName":"Transylvania University Historical Marker","countryId":"6252001","fcl":"L","population":0,"countryCode":"US","name":"Transylvania University Historical Marker","fclName":"parks,area, ...","adminCodes1":{"ISO3166_2":"KY"},"countryName":"United States","fcodeName":"park","adminName1":"Kentucky","lat":"38.051","fcode":"PRK"},{"adminCode1":"KY","lng":"-84.49732","geonameId":8503845,"toponymName":"Transylvania University School Of Medicine Historical Marker","countryId":"6252001","fcl":"L","population":0,"countryCode":"US","name":"Transylvania University School Of Medicine Historical Marker","fclName":"parks,area, ...","adminCodes1":{"ISO3166_2":"KY"},"countryName":"United States","fcodeName":"park","adminName1":"Kentucky","lat":"38.05094","fcode":"PRK"},{"adminCode1":"KY","lng":"-84.49456","geonameId":8503850,"toponymName":"Transylvania Pavilion Historical Marker","countryId":"6252001","fcl":"L","population":0,"countryCode":"US","name":"Transylvania Pavilion Historical Marker","fclName":"parks,area, ...","adminCodes1":{"ISO3166_2":"KY"},"countryName":"United States","fcodeName":"park","adminName1":"Kentucky","lat":"38.05049","fcode":"PRK"},{"adminCode1":"KY","lng":"-87.56922","geonameId":8504372,"toponymName":"Transylvania Company Historical Marker","countryId":"6252001","fcl":"L","population":0,"countryCode":"US","name":"Transylvania Company Historical Marker","fclName":"parks,area, ...","adminCodes1":{"ISO3166_2":"KY"},"countryName":"United States","fcodeName":"park","adminName1":"Kentucky","lat":"37.83108","fcode":"PRK"},{"adminCode1":"OH","lng":"-84.00771","geonameId":4525289,"toponymName":"Spring Valley","countryId":"6252001","fcl":"P","population":486,"countryCode":"US","name":"Spring Valley","fclName":"city, village,...","adminCodes1":{"ISO3166_2":"OH"},"countryName":"United States","fcodeName":"populated place","adminName1":"Ohio","lat":"39.60895","fcode":"PPL"},{"adminCode1":"NC","lng":"-82.7629","geonameId":4490762,"toponymName":"Sega Lake","countryId":"6252001","fcl":"P","population":0,"countryCode":"US","name":"Sega Lake","fclName":"city, village,...","adminCodes1":{"ISO3166_2":"NC"},"countryName":"United States","fcodeName":"populated place","adminName1":"North Carolina","lat":"35.219","fcode":"PPL"},{"adminCode1":"NC","lng":"-82.83596","geonameId":4455814,"toponymName":"Big Mountain Gap","countryId":"6252001","fcl":"T","population":0,"countryCode":"US","name":"Big Mountain Gap","fclName":"mountain,hill,rock,... ","adminCodes1":{"ISO3166_2":"NC"},"countryName":"United States","fcodeName":"gap","adminName1":"North Carolina","lat":"35.19872","fcode":"GAP"},{"adminCode1":"NC","lng":"-82.66068","geonameId":4456887,"toponymName":"Boylston Creek","countryId":"6252001","fcl":"P","population":0,"countryCode":"US","name":"Boylston Creek","fclName":"city, village,...","adminCodes1":{"ISO3166_2":"NC"},"countryName":"United States","fcodeName":"populated place","adminName1":"North Carolina","lat":"35.31567","fcode":"PPL"},{"adminCode1":"NC","lng":"-82.73513","geonameId":4457047,"toponymName":"Brevard High School","countryId":"6252001","fcl":"S","population":0,"countryCode":"US","name":"Brevard High School","fclName":"spot, building, farm","adminCodes1":{"ISO3166_2":"NC"},"countryName":"United States","fcodeName":"school","adminName1":"North Carolina","lat":"35.21678","fcode":"SCH"},{"adminCode1":"NC","lng":"-82.62068","geonameId":4457111,"toponymName":"Bridal Veil Falls","countryId":"6252001","fcl":"H","population":0,"countryCode":"US","name":"Bridal Veil Falls","fclName":"stream, lake, ...","adminCodes1":{"ISO3166_2":"NC"},"countryName":"United States","fcodeName":"overfalls","adminName1":"North Carolina","lat":"35.17706","fcode":"OVF"},{"adminCode1":"NC","lng":"-82.62901","geonameId":4476580,"toponymName":"Little River","countryId":"6252001","fcl":"P","population":0,"countryCode":"US","name":"Little River","fclName":"city, village,...","adminCodes1":{"ISO3166_2":"NC"},"countryName":"United States","fcodeName":"populated place","adminName1":"North Carolina","lat":"35.23873","fcode":"PPL"},{"adminCode1":"NC","lng":"-82.7679","geonameId":4477249,"toponymName":"Looking Glass Falls","countryId":"6252001","fcl":"H","population":0,"countryCode":"US","name":"Looking Glass Falls","fclName":"stream, lake, ...","adminCodes1":{"ISO3166_2":"NC"},"countryName":"United States","fcodeName":"overfalls","adminName1":"North Carolina","lat":"35.2965","fcode":"OVF"},{"adminCode1":"NC","lng":"-82.66596","geonameId":4491804,"toponymName":"Simpson Gap","countryId":"6252001","fcl":"T","population":0,"countryCode":"US","name":"Simpson Gap","fclName":"mountain,hill,rock,... ","adminCodes1":{"ISO3166_2":"NC"},"countryName":"United States","fcodeName":"gap","adminName1":"North Carolina","lat":"35.33706","fcode":"GAP"},{"adminCode1":"NC","lng":"-82.79735","geonameId":4491989,"toponymName":"Slick Rock Falls","countryId":"6252001","fcl":"H","population":0,"countryCode":"US","name":"Slick Rock Falls","fclName":"stream, lake, ...","adminCodes1":{"ISO3166_2":"NC"},"countryName":"United States","fcodeName":"overfalls","adminName1":"North Carolina","lat":"35.29317","fcode":"OVF"},{"adminCode1":"NC","lng":"-82.93459","geonameId":4495515,"toponymName":"Toxaway River","countryId":"6252001","fcl":"H","population":0,"countryCode":"US","name":"Toxaway River","fclName":"stream, lake, ...","adminCodes1":{"ISO3166_2":"NC"},"countryName":"United States","fcodeName":"stream","adminName1":"North Carolina","lat":"34.97676","fcode":"STM"},{"adminCode1":"NC","lng":"-82.61735","geonameId":4495669,"toponymName":"Triple Falls","countryId":"6252001","fcl":"H","population":0,"countryCode":"US","name":"Triple Falls","fclName":"stream, lake, ...","adminCodes1":{"ISO3166_2":"NC"},"countryName":"United States","fcodeName":"overfalls","adminName1":"North Carolina","lat":"35.19901","fcode":"OVF"},{"adminCode1":"NC","lng":"-82.8868","geonameId":4498934,"toponymName":"Whitewater Falls","countryId":"6252001","fcl":"H","population":0,"countryCode":"US","name":"Whitewater Falls","fclName":"stream, lake, ...","adminCodes1":{"ISO3166_2":"NC"},"countryName":"United States","fcodeName":"overfalls","adminName1":"North Carolina","lat":"35.07121","fcode":"OVF"},{"adminCode1":"NC","lng":"-82.96597","geonameId":4487021,"toponymName":"Rainbow Falls","countryId":"6252001","fcl":"H","population":0,"countryCode":"US","name":"Rainbow Falls","fclName":"stream, lake, ...","adminCodes1":{"ISO3166_2":"NC"},"countryName":"United States","fcodeName":"overfalls","adminName1":"North Carolina","lat":"35.09065","fcode":"OVF"},{"adminCode1":"NC","lng":"-82.62373","geonameId":4471808,"toponymName":"Hooker Falls","countryId":"6252001","fcl":"H","population":0,"countryCode":"US","name":"Hooker Falls","fclName":"stream, lake, ...","adminCodes1":{"ISO3166_2":"NC"},"countryName":"United States","fcodeName":"overfalls","adminName1":"North Carolina","lat":"35.20206","fcode":"OVF"},{"adminCode1":"NC","lng":"-82.91709","geonameId":4472041,"toponymName":"Horsepasture River","countryId":"6252001","fcl":"H","population":0,"countryCode":"US","name":"Horsepasture River","fclName":"stream, lake, ...","adminCodes1":{"ISO3166_2":"NC"},"countryName":"United States","fcodeName":"stream","adminName1":"North Carolina","lat":"35.0301","fcode":"STM"},{"adminCode1":"NC","lng":"-82.94079","geonameId":4474897,"toponymName":"Lake Toxaway","countryId":"6252001","fcl":"H","population":0,"countryCode":"US","name":"Lake Toxaway","fclName":"stream, lake, ...","adminCodes1":{"ISO3166_2":"NC"},"countryName":"United States","fcodeName":"reservoir(s)","adminName1":"North Carolina","lat":"35.13451","fcode":"RSV"},{"adminCode1":"NC","lng":"-82.84707","geonameId":4468162,"toponymName":"Gloucester Gap","countryId":"6252001","fcl":"T","population":0,"countryCode":"US","name":"Gloucester Gap","fclName":"mountain,hill,rock,... ","adminCodes1":{"ISO3166_2":"NC"},"countryName":"United States","fcodeName":"gap","adminName1":"North Carolina","lat":"35.26566","fcode":"GAP"},{"adminCode1":"NC","lng":"-82.61429","geonameId":4470972,"toponymName":"High Falls","countryId":"6252001","fcl":"H","population":0,"countryCode":"US","name":"High Falls","fclName":"stream, lake, ...","adminCodes1":{"ISO3166_2":"NC"},"countryName":"United States","fcodeName":"overfalls","adminName1":"North Carolina","lat":"35.19289","fcode":"OVF"},{"adminCode1":"NC","lng":"-82.89402","geonameId":4462092,"toponymName":"Courthouse Falls","countryId":"6252001","fcl":"H","population":0,"countryCode":"US","name":"Courthouse Falls","fclName":"stream, lake, ...","adminCodes1":{"ISO3166_2":"NC"},"countryName":"United States","fcodeName":"overfalls","adminName1":"North Carolina","lat":"35.27149","fcode":"OVF"},{"adminCode1":"KY","lng":"-84.49327","geonameId":4311221,"toponymName":"Transylvania University","countryId":"6252001","fcl":"S","population":0,"countryCode":"US","name":"Transylvania University","fclName":"spot, building, farm","adminCodes1":{"ISO3166_2":"KY"},"countryName":"United States","fcodeName":"school","adminName1":"Kentucky","lat":"38.05202","fcode":"SCH"},{"adminCode1":"NC","lng":"-82.98208","geonameId":4487262,"toponymName":"Ravenrock Mountain","countryId":"6252001","fcl":"T","population":0,"countryCode":"US","name":"Ravenrock Mountain","fclName":"mountain,hill,rock,... ","adminCodes1":{"ISO3166_2":"NC"},"countryName":"United States","fcodeName":"mountain","adminName1":"North Carolina","lat":"35.14899","fcode":"MT"},{"adminCode1":"NC","lng":"-82.90291","geonameId":4487635,"toponymName":"Reid","countryId":"6252001","fcl":"P","population":0,"countryCode":"US","name":"Reid","fclName":"city, village,...","adminCodes1":{"ISO3166_2":"NC"},"countryName":"United States","fcodeName":"populated place","adminName1":"North Carolina","lat":"35.11594","fcode":"PPL"},{"adminCode1":"NC","lng":"-82.78112","geonameId":4487817,"toponymName":"Rich Cove","countryId":"6252001","fcl":"T","population":0,"countryCode":"US","name":"Rich Cove","fclName":"mountain,hill,rock,... ","adminCodes1":{"ISO3166_2":"NC"},"countryName":"United States","fcodeName":"valley","adminName1":"North Carolina","lat":"35.23365","fcode":"VAL"},{"adminCode1":"NC","lng":"-82.84374","geonameId":4487856,"toponymName":"Rich Mountain","countryId":"6252001","fcl":"T","population":0,"countryCode":"US","name":"Rich Mountain","fclName":"mountain,hill,rock,... ","adminCodes1":{"ISO3166_2":"NC"},"countryName":"United States","fcodeName":"mountain","adminName1":"North Carolina","lat":"35.2615","fcode":"MT"},{"adminCode1":"NC","lng":"-82.77068","geonameId":4487857,"toponymName":"Rich Mountain","countryId":"6252001","fcl":"T","population":0,"countryCode":"US","name":"Rich Mountain","fclName":"mountain,hill,rock,... ","adminCodes1":{"ISO3166_2":"NC"},"countryName":"United States","fcodeName":"mountain","adminName1":"North Carolina","lat":"35.3415","fcode":"MT"},{"adminCode1":"NC","lng":"-82.68207","geonameId":4487858,"toponymName":"Rich Mountain","countryId":"6252001","fcl":"T","population":0,"countryCode":"US","name":"Rich Mountain","fclName":"mountain,hill,rock,... ","adminCodes1":{"ISO3166_2":"NC"},"countryName":"United States","fcodeName":"mountain","adminName1":"North Carolina","lat":"35.1765","fcode":"MT"},{"adminCode1":"NC","lng":"-82.70096","geonameId":4487859,"toponymName":"Rich Mountain","countryId":"6252001","fcl":"T","population":0,"countryCode":"US","name":"Rich Mountain","fclName":"mountain,hill,rock,... ","adminCodes1":{"ISO3166_2":"NC"},"countryName":"United States","fcodeName":"mountain","adminName1":"North Carolina","lat":"35.36983","fcode":"MT"},{"adminCode1":"NC","lng":"-82.67263","geonameId":4487872,"toponymName":"Rich Mountain Gap","countryId":"6252001","fcl":"T","population":0,"countryCode":"US","name":"Rich Mountain Gap","fclName":"mountain,hill,rock,... ","adminCodes1":{"ISO3166_2":"NC"},"countryName":"United States","fcodeName":"gap","adminName1":"North Carolina","lat":"35.19067","fcode":"GAP"},{"adminCode1":"NC","lng":"-82.89069","geonameId":4487936,"toponymName":"Richland Ridge","countryId":"6252001","fcl":"T","population":0,"countryCode":"US","name":"Richland Ridge","fclName":"mountain,hill,rock,... ","adminCodes1":{"ISO3166_2":"NC"},"countryName":"United States","fcodeName":"ridge(s)","adminName1":"North Carolina","lat":"35.16122","fcode":"RDGE"},{"adminCode1":"NC","lng":"-82.75429","geonameId":4488692,"toponymName":"Rocky Hill","countryId":"6252001","fcl":"P","population":0,"countryCode":"US","name":"Rocky Hill","fclName":"city, village,...","adminCodes1":{"ISO3166_2":"NC"},"countryName":"United States","fcodeName":"populated place","adminName1":"North Carolina","lat":"35.21595","fcode":"PPL"},{"adminCode1":"NC","lng":"-82.97792","geonameId":4488722,"toponymName":"Rocky Knobs","countryId":"6252001","fcl":"T","population":0,"countryCode":"US","name":"Rocky Knobs","fclName":"mountain,hill,rock,... ","adminCodes1":{"ISO3166_2":"NC"},"countryName":"United States","fcodeName":"mountain","adminName1":"North Carolina","lat":"35.08121","fcode":"MT"},{"adminCode1":"NC","lng":"-82.8443","geonameId":4488752,"toponymName":"Rocky Mountain","countryId":"6252001","fcl":"T","population":0,"countryCode":"US","name":"Rocky Mountain","fclName":"mountain,hill,rock,... ","adminCodes1":{"ISO3166_2":"NC"},"countryName":"United States","fcodeName":"mountain","adminName1":"North Carolina","lat":"35.129","fcode":"MT"},{"adminCode1":"NC","lng":"-82.91125","geonameId":4488753,"toponymName":"Rocky Mountain","countryId":"6252001","fcl":"T","population":0,"countryCode":"US","name":"Rocky Mountain","fclName":"mountain,hill,rock,... ","adminCodes1":{"ISO3166_2":"NC"},"countryName":"United States","fcodeName":"mountain","adminName1":"North Carolina","lat":"35.14316","fcode":"MT"},{"adminCode1":"NC","lng":"-82.73902","geonameId":4488754,"toponymName":"Rocky Mountain","countryId":"6252001","fcl":"T","population":0,"countryCode":"US","name":"Rocky Mountain","fclName":"mountain,hill,rock,... ","adminCodes1":{"ISO3166_2":"NC"},"countryName":"United States","fcodeName":"mountain","adminName1":"North Carolina","lat":"35.11817","fcode":"MT"},{"adminCode1":"NC","lng":"-82.92819","geonameId":4488801,"toponymName":"Rockyface Mountain","countryId":"6252001","fcl":"T","population":0,"countryCode":"US","name":"Rockyface Mountain","fclName":"mountain,hill,rock,... ","adminCodes1":{"ISO3166_2":"NC"},"countryName":"United States","fcodeName":"mountain","adminName1":"North Carolina","lat":"35.24149","fcode":"MT"},{"adminCode1":"NC","lng":"-82.85514","geonameId":4489103,"toponymName":"Round Mountain","countryId":"6252001","fcl":"T","population":0,"countryCode":"US","name":"Round Mountain","fclName":"mountain,hill,rock,... ","adminCodes1":{"ISO3166_2":"NC"},"countryName":"United States","fcodeName":"mountain","adminName1":"North Carolina","lat":"35.08233","fcode":"MT"},{"adminCode1":"NC","lng":"-82.85347","geonameId":4489112,"toponymName":"Round Mountain Gap","countryId":"6252001","fcl":"T","population":0,"countryCode":"US","name":"Round Mountain Gap","fclName":"mountain,hill,rock,... ","adminCodes1":{"ISO3166_2":"NC"},"countryName":"United States","fcodeName":"gap","adminName1":"North Carolina","lat":"35.07594","fcode":"GAP"},{"adminCode1":"NC","lng":"-82.76402","geonameId":4489410,"toponymName":"Saddle Gap","countryId":"6252001","fcl":"T","population":0,"countryCode":"US","name":"Saddle Gap","fclName":"mountain,hill,rock,... ","adminCodes1":{"ISO3166_2":"NC"},"countryName":"United States","fcodeName":"gap","adminName1":"North Carolina","lat":"35.31344","fcode":"GAP"},{"adminCode1":"NC","lng":"-82.79679","geonameId":4490219,"toponymName":"Sandy Gap","countryId":"6252001","fcl":"T","population":0,"countryCode":"US","name":"Sandy Gap","fclName":"mountain,hill,rock,... ","adminCodes1":{"ISO3166_2":"NC"},"countryName":"United States","fcodeName":"gap","adminName1":"North Carolina","lat":"35.25928","fcode":"GAP"},{"adminCode1":"NC","lng":"-82.68096","geonameId":4490220,"toponymName":"Sandy Gap","countryId":"6252001","fcl":"T","population":0,"countryCode":"US","name":"Sandy Gap","fclName":"mountain,hill,rock,... ","adminCodes1":{"ISO3166_2":"NC"},"countryName":"United States","fcodeName":"gap","adminName1":"North Carolina","lat":"35.33039","fcode":"GAP"},{"adminCode1":"NC","lng":"-82.76485","geonameId":4490411,"toponymName":"Sassafras Gap","countryId":"6252001","fcl":"T","population":0,"countryCode":"US","name":"Sassafras Gap","fclName":"mountain,hill,rock,... ","adminCodes1":{"ISO3166_2":"NC"},"countryName":"United States","fcodeName":"gap","adminName1":"North Carolina","lat":"35.06817","fcode":"GAP"},{"adminCode1":"NC","lng":"-82.86735","geonameId":4490420,"toponymName":"Sassafras Knob","countryId":"6252001","fcl":"T","population":0,"countryCode":"US","name":"Sassafras Knob","fclName":"mountain,hill,rock,... ","adminCodes1":{"ISO3166_2":"NC"},"countryName":"United States","fcodeName":"mountain","adminName1":"North Carolina","lat":"35.28344","fcode":"MT"}]}
