{"totalResultsCount":7,"geonames":[{"adminCode1":"DE","lng":"-75.46631","geonameId":4145054,"toponymName":"Trap Pond State Park","countryId":"6252001","fcl":"L","population":0,"countryCode":"US","name":"Trap Pond State Park","fclName":"parks,area, ...","adminCodes1":{"ISO3166_2":"DE"},"countryName":"United States","fcodeName":"park","adminName1":"Delaware","lat":"38.52512","fcode":"PRK"},{"adminCode1":"LA","lng":"-91.66284","geonameId":4343799,"toponymName":"Trap Lake","countryId":"6252001","fcl":"H","population":0,"countryCode":"US","name":"Trap Lake","fclName":"stream, lake, ...","adminCodes1":{"ISO3166_2":"LA"},"countryName":"United States","fcodeName":"lake","adminName1":"Louisiana","lat":"31.74066","fcode":"LK"},{"adminCode1":"FL","lng":"-81.80165","geonameId":4155454,"toponymName":"Fish Trap Pond","countryId":"6252001","fcl":"H","population":0,"countryCode":"US","name":"Fish Trap Pond","fclName":"stream, lake, ...","adminCodes1":{"ISO3166_2":"FL"},"countryName":"United States","fcodeName":"lake","adminName1":"Florida","lat":"29.05907","fcode":"LK"},{"adminCode1":"DE","lng":"-75.47433","geonameId":4145052,"toponymName":"Trap Pond","countryId":"6252001","fcl":"H","population":0,"countryCode":"US","name":"Trap Pond","fclName":"stream, lake, ...","adminCodes1":{"ISO3166_2":"DE"},"countryName":"United States","fcodeName":"reservoir(s)","adminName1":"Delaware","lat":"38.52459","fcode":"RSV"},{"adminCode1":"DE","lng":"-75.48242","geonameId":4145053,"toponymName":"Trap Pond Dam","countryId":"6252001","fcl":"S","population":0,"countryCode":"US","name":"Trap Pond Dam","fclName":"spot, building, farm","adminCodes1":{"ISO3166_2":"DE"},"countryName":"United States","fcodeName":"dam","adminName1":"Delaware","lat":"38.52789","fcode":"DAM"},{"adminCode1":"VA","lng":"-77.2647","geonameId":4794355,"toponymName":"Wolf Trap Farm Pond Dam","countryId":"6252001","fcl":"S","population":0,"countryCode":"US","name":"Wolf Trap Farm Pond Dam","fclName":"spot, building, farm","adminCodes1":{"ISO3166_2":"VA"},"countryName":"United States","fcodeName":"dam","adminName1":"Virginia","lat":"38.94011","fcode":"DAM"},{"adminCode1":"VA","lng":"-77.26299","geonameId":4794367,"toponymName":"Wolf Trap Farm Pond","countryId":"6252001","fcl":"H","population":0,"countryCode":"US","name":"Wolf Trap Farm Pond","fclName":"stream, lake, ...","adminCodes1":{"ISO3166_2":"VA"},"countryName":"United States","fcodeName":"reservoir(s)","adminName1":"Virginia","lat":"38.94026","fcode":"RSV"}]}
