{"totalResultsCount":35,"geonames":[{"adminCode1":"WI","lng":"-91.56933","geonameId":5276356,"toponymName":"Truax","countryId":"6252001","fcl":"P","population":0,"countryCode":"US","name":"Truax","fclName":"city, village,...","adminCodes1":{"ISO3166_2":"WI"},"countryName":"United States","fcodeName":"populated place","adminName1":"Wisconsin","lat":"44.84913","fcode":"PPL"},{"adminCode1":"TX","lng":"-100.98478","geonameId":5532574,"toponymName":"Truax Lake","countryId":"6252001","fcl":"H","population":0,"countryCode":"US","name":"Truax Lake","fclName":"stream, lake, ...","adminCodes1":{"ISO3166_2":"TX"},"countryName":"United States","fcodeName":"lake","adminName1":"Texas","lat":"36.34694","fcode":"LK"},{"adminCode1":"MI","lng":"-85.3936","geonameId":5012647,"toponymName":"Truax Lake","countryId":"6252001","fcl":"H","population":0,"countryCode":"US","name":"Truax Lake","fclName":"stream, lake, ...","adminCodes1":{"ISO3166_2":"MI"},"countryName":"United States","fcodeName":"lake","adminName1":"Michigan","lat":"42.83026","fcode":"LK"},{"adminCode1":"MI","lng":"-83.41302","geonameId":5012648,"toponymName":"Truax Lake","countryId":"6252001","fcl":"H","population":0,"countryCode":"US","name":"Truax Lake","fclName":"stream, lake, ...","adminCodes1":{"ISO3166_2":"MI"},"countryName":"United States","fcodeName":"lake","adminName1":"Michigan","lat":"42.85104","fcode":"LK"},{"adminCode1":"MI","lng":"-85.34715","geonameId":5012653,"toponymName":"Truax Lake","countryId":"6252001","fcl":"H","population":0,"countryCode":"US","name":"Truax Lake","fclName":"stream, lake, ...","adminCodes1":{"ISO3166_2":"MI"},"countryName":"United States","fcodeName":"lake","adminName1":"Michigan","lat":"44.75474","fcode":"LK"},{"adminCode1":"MI","lng":"-83.17944","geonameId":8096677,"toponymName":"Slocum Truax Park","countryId":"6252001","fcl":"L","population":0,"countryCode":"US","name":"Slocum Truax Park","fclName":"parks,area, ...","adminCodes1":{"ISO3166_2":"MI"},"countryName":"United States","fcodeName":"park","adminName1":"Michigan","lat":"42.14722","fcode":"PRK"},{"adminCode1":"ND","lng":"-103.28738","geonameId":5692640,"toponymName":"Township of Truax","countryId":"6252001","fcl":"A","population":0,"countryCode":"US","name":"Truax Township","fclName":"country, state, region,...","adminCodes1":{"ISO3166_2":"ND"},"countryName":"United States","fcodeName":"third-order administrative division","adminName1":"North Dakota","lat":"48.12546","fcode":"ADM3"},{"adminCode1":"WA","lng":"-117.17158","geonameId":5794059,"toponymName":"Fairfield","countryId":"6252001","fcl":"P","population":606,"countryCode":"US","name":"Fairfield","fclName":"city, village,...","adminCodes1":{"ISO3166_2":"WA"},"countryName":"United States","fcodeName":"populated place","adminName1":"Washington","lat":"47.38518","fcode":"PPL"},{"adminCode1":"OR","lng":"-117.28101","geonameId":5757489,"toponymName":"Truax Mountain","countryId":"6252001","fcl":"T","population":0,"countryCode":"US","name":"Truax Mountain","fclName":"mountain,hill,rock,... ","adminCodes1":{"ISO3166_2":"OR"},"countryName":"United States","fcodeName":"mountain","adminName1":"Oregon","lat":"45.0521","fcode":"MT"},{"adminCode1":"TX","lng":"-97.29111","geonameId":6298755,"toponymName":"Corpus Christi, Corpus Christi Naval Air Station/Truax Field","countryId":"6252001","fcl":"S","population":0,"countryCode":"US","name":"Corpus Christi, Corpus Christi Naval Air Station/Truax Field","fclName":"spot, building, farm","adminCodes1":{"ISO3166_2":"TX"},"countryName":"United States","fcodeName":"airfield","adminName1":"Texas","lat":"27.6925","fcode":"AIRF"},{"adminCode1":"WA","lng":"-117.33212","geonameId":5813993,"toponymName":"Truax Canyon","countryId":"6252001","fcl":"T","population":0,"countryCode":"US","name":"Truax Canyon","fclName":"mountain,hill,rock,... ","adminCodes1":{"ISO3166_2":"WA"},"countryName":"United States","fcodeName":"valley","adminName1":"Washington","lat":"46.57627","fcode":"VAL"},{"adminCode1":"WI","lng":"-89.3458","geonameId":5250078,"toponymName":"Dane County Regional Airport","countryId":"6252001","fcl":"S","population":0,"countryCode":"US","name":"Dane County Regional Airport-Truax Field","fclName":"spot, building, farm","adminCodes1":{"ISO3166_2":"WI"},"countryName":"United States","fcodeName":"airfield","adminName1":"Wisconsin","lat":"43.13651","fcode":"AIRF"},{"adminCode1":"OR","lng":"-123.2001","geonameId":5757488,"toponymName":"Truax Island","countryId":"6252001","fcl":"T","population":0,"countryCode":"US","name":"Truax Island","fclName":"mountain,hill,rock,... ","adminCodes1":{"ISO3166_2":"OR"},"countryName":"United States","fcodeName":"island","adminName1":"Oregon","lat":"44.58401","fcode":"ISL"},{"adminCode1":"IN","lng":"-87.0539","geonameId":4265971,"toponymName":"Truax Hill","countryId":"6252001","fcl":"T","population":0,"countryCode":"US","name":"Truax Hill","fclName":"mountain,hill,rock,... ","adminCodes1":{"ISO3166_2":"IN"},"countryName":"United States","fcodeName":"mountain","adminName1":"Indiana","lat":"39.99671","fcode":"MT"},{"adminCode1":"AZ","lng":"-110.52873","geonameId":5318183,"toponymName":"Truax Canyon","countryId":"6252001","fcl":"T","population":0,"countryCode":"US","name":"Truax Canyon","fclName":"mountain,hill,rock,... ","adminCodes1":{"ISO3166_2":"AZ"},"countryName":"United States","fcodeName":"valley","adminName1":"Arizona","lat":"34.0931","fcode":"VAL"},{"adminCode1":"ND","lng":"-101.64683","geonameId":5692639,"toponymName":"Truax","countryId":"6252001","fcl":"P","population":0,"countryCode":"US","name":"Truax","fclName":"city, village,...","adminCodes1":{"ISO3166_2":"ND"},"countryName":"United States","fcodeName":"populated place","adminName1":"North Dakota","lat":"47.35834","fcode":"PPL"},{"adminCode1":"IA","lng":"-92.73075","geonameId":4879067,"toponymName":"Truax Post Office (historical)","countryId":"6252001","fcl":"S","population":0,"countryCode":"US","name":"Truax Post Office (historical)","fclName":"spot, building, farm","adminCodes1":{"ISO3166_2":"IA"},"countryName":"United States","fcodeName":"post office","adminName1":"Iowa","lat":"41.19334","fcode":"PO"},{"adminCode1":"ND","lng":"-103.21681","geonameId":5689115,"toponymName":"Flagstaff Hill","countryId":"6252001","fcl":"T","population":0,"countryCode":"US","name":"Flagstaff Hill","fclName":"mountain,hill,rock,... ","adminCodes1":{"ISO3166_2":"ND"},"countryName":"United States","fcodeName":"mountain","adminName1":"North Dakota","lat":"48.16126","fcode":"MT"},{"adminCode1":"SD","lng":"-103.62742","geonameId":5763240,"toponymName":"Butte Group Mine","countryId":"6252001","fcl":"S","population":0,"countryCode":"US","name":"Butte Group Mine","fclName":"spot, building, farm","adminCodes1":{"ISO3166_2":"SD"},"countryName":"United States","fcodeName":"mine(s)","adminName1":"South Dakota","lat":"43.86998","fcode":"MN"},{"adminCode1":"OR","lng":"-123.07287","geonameId":5757487,"toponymName":"Truax Creek","countryId":"6252001","fcl":"H","population":0,"countryCode":"US","name":"Truax Creek","fclName":"stream, lake, ...","adminCodes1":{"ISO3166_2":"OR"},"countryName":"United States","fcodeName":"stream","adminName1":"Oregon","lat":"44.66012","fcode":"STM"},{"adminCode1":"MT","lng":"-112.5675","geonameId":5683272,"toponymName":"Truax Creek","countryId":"6252001","fcl":"H","population":0,"countryCode":"US","name":"Truax Creek","fclName":"stream, lake, ...","adminCodes1":{"ISO3166_2":"MT"},"countryName":"United States","fcodeName":"stream","adminName1":"Montana","lat":"44.6188","fcode":"STM"},{"adminCode1":"CO","lng":"-108.3098","geonameId":5444319,"toponymName":"Williams Truax Ditch","countryId":"6252001","fcl":"H","population":0,"countryCode":"US","name":"Williams Truax Ditch","fclName":"stream, lake, ...","adminCodes1":{"ISO3166_2":"CO"},"countryName":"United States","fcodeName":"canal","adminName1":"Colorado","lat":"38.14777","fcode":"CNL"},{"adminCode1":"WI","lng":"-89.3375","geonameId":5276357,"toponymName":"Truax Army Air Field (historical)","countryId":"6252001","fcl":"S","population":0,"countryCode":"US","name":"Truax Army Air Field (historical)","fclName":"spot, building, farm","adminCodes1":{"ISO3166_2":"WI"},"countryName":"United States","fcodeName":"military installation","adminName1":"Wisconsin","lat":"43.13889","fcode":"INSM"},{"adminCode1":"WI","lng":"-91.56877","geonameId":5276358,"toponymName":"Truax Church","countryId":"6252001","fcl":"S","population":0,"countryCode":"US","name":"Truax Church","fclName":"spot, building, farm","adminCodes1":{"ISO3166_2":"WI"},"countryName":"United States","fcodeName":"church","adminName1":"Wisconsin","lat":"44.85746","fcode":"CH"},{"adminCode1":"WI","lng":"-89.32817","geonameId":5276359,"toponymName":"Truax Plaza Shopping Center","countryId":"6252001","fcl":"S","population":0,"countryCode":"US","name":"Truax Plaza Shopping Center","fclName":"spot, building, farm","adminCodes1":{"ISO3166_2":"WI"},"countryName":"United States","fcodeName":"mall","adminName1":"Wisconsin","lat":"43.11388","fcode":"MALL"},{"adminCode1":"MI","lng":"-83.17826","geonameId":5010158,"toponymName":"Slocum Truax Junior High School","countryId":"6252001","fcl":"S","population":0,"countryCode":"US","name":"Slocum Truax Junior High School","fclName":"spot, building, farm","adminCodes1":{"ISO3166_2":"MI"},"countryName":"United States","fcodeName":"school","adminName1":"Michigan","lat":"42.14699","fcode":"SCH"},{"adminCode1":"MI","lng":"-83.76082","geonameId":5012645,"toponymName":"Truax Creek","countryId":"6252001","fcl":"H","population":0,"countryCode":"US","name":"Truax Creek","fclName":"stream, lake, ...","adminCodes1":{"ISO3166_2":"MI"},"countryName":"United States","fcodeName":"stream","adminName1":"Michigan","lat":"45.07973","fcode":"STM"},{"adminCode1":"IL","lng":"-90.15345","geonameId":4914098,"toponymName":"Truax Lake","countryId":"6252001","fcl":"H","population":0,"countryCode":"US","name":"Truax Lake","fclName":"stream, lake, ...","adminCodes1":{"ISO3166_2":"IL"},"countryName":"United States","fcodeName":"reservoir(s)","adminName1":"Illinois","lat":"40.53171","fcode":"RSV"},{"adminCode1":"IL","lng":"-90.15345","geonameId":4914099,"toponymName":"Truax Lake Dam","countryId":"6252001","fcl":"S","population":0,"countryCode":"US","name":"Truax Lake Dam","fclName":"spot, building, farm","adminCodes1":{"ISO3166_2":"IL"},"countryName":"United States","fcodeName":"dam","adminName1":"Illinois","lat":"40.53171","fcode":"DAM"},{"adminCode1":"IN","lng":"-85.91833","geonameId":4927352,"toponymName":"Truax Ditch","countryId":"6252001","fcl":"H","population":0,"countryCode":"US","name":"Truax Ditch","fclName":"stream, lake, ...","adminCodes1":{"ISO3166_2":"IN"},"countryName":"United States","fcodeName":"canal","adminName1":"Indiana","lat":"41.3656","fcode":"CNL"},{"adminCode1":"WI","lng":"-89.33823","geonameId":8484817,"toponymName":"Truax Fire Department","countryId":"6252001","fcl":"S","population":0,"countryCode":"US","name":"Truax Fire Department","fclName":"spot, building, farm","adminCodes1":{"ISO3166_2":"WI"},"countryName":"United States","fcodeName":"building(s)","adminName1":"Wisconsin","lat":"43.13148","fcode":"BLDG"},{"adminCode1":"WI","lng":"-91.56961","geonameId":5276360,"toponymName":"Truax School (historical)","countryId":"6252001","fcl":"S","population":0,"countryCode":"US","name":"Truax School (historical)","fclName":"spot, building, farm","adminCodes1":{"ISO3166_2":"WI"},"countryName":"United States","fcodeName":"school","adminName1":"Wisconsin","lat":"44.84329","fcode":"SCH"},{"adminCode1":"WV","lng":"-81.44678","geonameId":4825123,"toponymName":"Truax-Traer Coal Company Spring","countryId":"6252001","fcl":"H","population":0,"countryCode":"US","name":"Truax-Traer Coal Company Spring","fclName":"stream, lake, ...","adminCodes1":{"ISO3166_2":"WV"},"countryName":"United States","fcodeName":"spring(s)","adminName1":"West Virginia","lat":"37.98677","fcode":"SPNG"},{"adminCode1":"WV","lng":"-81.43928","geonameId":4825124,"toponymName":"Truax-Traer Company Spring","countryId":"6252001","fcl":"H","population":0,"countryCode":"US","name":"Truax-Traer Company Spring","fclName":"stream, lake, ...","adminCodes1":{"ISO3166_2":"WV"},"countryName":"United States","fcodeName":"spring(s)","adminName1":"West Virginia","lat":"38.01427","fcode":"SPNG"},{"adminCode1":"ND","lng":"-103.26519","geonameId":5688318,"toponymName":"Camp Cherith","countryId":"6252001","fcl":"S","population":0,"countryCode":"US","name":"Camp Cherith","fclName":"spot, building, farm","adminCodes1":{"ISO3166_2":"ND"},"countryName":"United States","fcodeName":"camp(s)","adminName1":"North Dakota","lat":"48.06975","fcode":"CMP"}]}
