{"totalResultsCount":22151,"geonames":[{"adminCode1":"NJ","lng":"-74.2107","geonameId":5097598,"toponymName":"Elizabeth","countryId":"6252001","fcl":"P","population":129007,"countryCode":"US","name":"Elizabeth","fclName":"city, village,...","adminCodes1":{"ISO3166_2":"NJ"},"countryName":"United States","fcodeName":"seat of a second-order administrative division","adminName1":"New Jersey","lat":"40.66399","fcode":"PPLA2"},{"adminCode1":"NJ","lng":"-74.40737","geonameId":5102720,"toponymName":"Plainfield","countryId":"6252001","fcl":"P","population":51217,"countryCode":"US","name":"Plainfield","fclName":"city, village,...","adminCodes1":{"ISO3166_2":"NJ"},"countryName":"United States","fcodeName":"populated place","adminName1":"New Jersey","lat":"40.63371","fcode":"PPL"},{"adminCode1":"MO","lng":"-94.51328","geonameId":4392768,"toponymName":"Joplin","countryId":"6252001","fcl":"P","population":51818,"countryCode":"US","name":"Joplin","fclName":"city, village,...","adminCodes1":{"ISO3166_2":"MO"},"countryName":"United States","fcodeName":"populated place","adminName1":"Missouri","lat":"37.08423","fcode":"PPL"},{"adminCode1":"NC","lng":"-80.54951","geonameId":4479946,"toponymName":"Monroe","countryId":"6252001","fcl":"P","population":34623,"countryCode":"US","name":"Monroe","fclName":"city, village,...","adminCodes1":{"ISO3166_2":"NC"},"countryName":"United States","fcodeName":"seat of a second-order administrative division","adminName1":"North Carolina","lat":"34.98543","fcode":"PPLA2"},{"adminCode1":"NJ","lng":"-74.02375","geonameId":5105634,"toponymName":"Union City","countryId":"6252001","fcl":"P","population":69156,"countryCode":"US","name":"Union City","fclName":"city, village,...","adminCodes1":{"ISO3166_2":"NJ"},"countryName":"United States","fcodeName":"populated place","adminName1":"New Jersey","lat":"40.77955","fcode":"PPL"},{"adminCode1":"OH","lng":"-83.36714","geonameId":5162077,"toponymName":"Marysville","countryId":"6252001","fcl":"P","population":22817,"countryCode":"US","name":"Marysville","fclName":"city, village,...","adminCodes1":{"ISO3166_2":"OH"},"countryName":"United States","fcodeName":"seat of a second-order administrative division","adminName1":"Ohio","lat":"40.23645","fcode":"PPLA2"},{"adminCode1":"AR","lng":"-92.66627","geonameId":4109785,"toponymName":"El Dorado","countryId":"6252001","fcl":"P","population":18386,"countryCode":"US","name":"El Dorado","fclName":"city, village,...","adminCodes1":{"ISO3166_2":"AR"},"countryName":"United States","fcodeName":"seat of a second-order administrative division","adminName1":"Arkansas","lat":"33.20763","fcode":"PPLA2"},{"adminCode1":"NJ","lng":"-74.24459","geonameId":5100506,"toponymName":"Linden","countryId":"6252001","fcl":"P","population":42021,"countryCode":"US","name":"Linden","fclName":"city, village,...","adminCodes1":{"ISO3166_2":"NJ"},"countryName":"United States","fcodeName":"populated place","adminName1":"New Jersey","lat":"40.62205","fcode":"PPL"},{"adminCode1":"NJ","lng":"-74.27765","geonameId":5103055,"toponymName":"Rahway","countryId":"6252001","fcl":"P","population":29508,"countryCode":"US","name":"Rahway","fclName":"city, village,...","adminCodes1":{"ISO3166_2":"NJ"},"countryName":"United States","fcodeName":"populated place","adminName1":"New Jersey","lat":"40.60816","fcode":"PPL"},{"adminCode1":"NJ","lng":"-74.34737","geonameId":5106331,"toponymName":"Westfield","countryId":"6252001","fcl":"P","population":30548,"countryCode":"US","name":"Westfield","fclName":"city, village,...","adminCodes1":{"ISO3166_2":"NJ"},"countryName":"United States","fcodeName":"populated place","adminName1":"New Jersey","lat":"40.65899","fcode":"PPL"},{"adminCode1":"NY","lng":"-73.59291","geonameId":5141927,"toponymName":"Uniondale","countryId":"6252001","fcl":"P","population":24759,"countryCode":"US","name":"Uniondale","fclName":"city, village,...","adminCodes1":{"ISO3166_2":"NY"},"countryName":"United States","fcodeName":"populated place","adminName1":"New York","lat":"40.70038","fcode":"PPL"},{"adminCode1":"NJ","lng":"-74.36468","geonameId":5105127,"toponymName":"Summit","countryId":"6252001","fcl":"P","population":22074,"countryCode":"US","name":"Summit","fclName":"city, village,...","adminCodes1":{"ISO3166_2":"NJ"},"countryName":"United States","fcodeName":"populated place","adminName1":"New Jersey","lat":"40.71562","fcode":"PPL"},{"adminCode1":"CA","lng":"-122.01913","geonameId":5404555,"toponymName":"Union City","countryId":"6252001","fcl":"P","population":74494,"countryCode":"US","name":"Union City","fclName":"city, village,...","adminCodes1":{"ISO3166_2":"CA"},"countryName":"United States","fcodeName":"populated place","adminName1":"California","lat":"37.59577","fcode":"PPL"},{"adminCode1":"OR","lng":"-118.08772","geonameId":5735537,"toponymName":"La Grande","countryId":"6252001","fcl":"P","population":13074,"countryCode":"US","name":"La Grande","fclName":"city, village,...","adminCodes1":{"ISO3166_2":"OR"},"countryName":"United States","fcodeName":"seat of a second-order administrative division","adminName1":"Oregon","lat":"45.32458","fcode":"PPLA2"},{"adminCode1":"OR","lng":"-118.00605","geonameId":5735541,"toponymName":"La Grande Municipal Airport","countryId":"6252001","fcl":"S","population":0,"countryCode":"US","name":"La Grande Municipal Airport","fclName":"spot, building, farm","adminCodes1":{"ISO3166_2":"OR"},"countryName":"United States","fcodeName":"airport","adminName1":"Oregon","lat":"45.2893","fcode":"AIRP"},{"adminCode1":"AR","lng":"-92.81322","geonameId":4112593,"toponymName":"Goodwin Field","countryId":"6252001","fcl":"S","population":0,"countryCode":"US","name":"Goodwin Field","fclName":"spot, building, farm","adminCodes1":{"ISO3166_2":"AR"},"countryName":"United States","fcodeName":"airport","adminName1":"Arkansas","lat":"33.22069","fcode":"AIRP"},{"adminCode1":"IA","lng":"-94.36329","geonameId":4853084,"toponymName":"Creston Municipal Airport","countryId":"6252001","fcl":"S","population":0,"countryCode":"US","name":"Creston Municipal Airport","fclName":"spot, building, farm","adminCodes1":{"ISO3166_2":"IA"},"countryName":"United States","fcodeName":"airport","adminName1":"Iowa","lat":"41.02138","fcode":"AIRP"},{"adminCode1":"NJ","lng":"-74.2632","geonameId":5105608,"toponymName":"Union","countryId":"6252001","fcl":"P","population":56771,"countryCode":"US","name":"Union","fclName":"city, village,...","adminCodes1":{"ISO3166_2":"NJ"},"countryName":"United States","fcodeName":"populated place","adminName1":"New Jersey","lat":"40.6976","fcode":"PPL"},{"adminCode1":"CA","lng":"-124.08284","geonameId":5558953,"toponymName":"Arcata","countryId":"6252001","fcl":"P","population":17843,"countryCode":"US","name":"Arcata","fclName":"city, village,...","adminCodes1":{"ISO3166_2":"CA"},"countryName":"United States","fcodeName":"populated place","adminName1":"California","lat":"40.86652","fcode":"PPL"},{"adminCode1":"TN","lng":"-89.87398","geonameId":4604183,"toponymName":"Bartlett","countryId":"6252001","fcl":"P","population":58579,"countryCode":"US","name":"Bartlett","fclName":"city, village,...","adminCodes1":{"ISO3166_2":"TN"},"countryName":"United States","fcodeName":"populated place","adminName1":"Tennessee","lat":"35.20453","fcode":"PPL"},{"adminCode1":"NY","lng":"-76.04937","geonameId":5116602,"toponymName":"Endicott","countryId":"6252001","fcl":"P","population":13014,"countryCode":"US","name":"Endicott","fclName":"city, village,...","adminCodes1":{"ISO3166_2":"NY"},"countryName":"United States","fcodeName":"populated place","adminName1":"New York","lat":"42.09841","fcode":"PPL"},{"adminCode1":"NJ","lng":"-74.24444","geonameId":5100508,"toponymName":"Linden Airport","countryId":"6252001","fcl":"S","population":0,"countryCode":"US","name":"Linden Airport","fclName":"spot, building, farm","adminCodes1":{"ISO3166_2":"NJ"},"countryName":"United States","fcodeName":"airport","adminName1":"New Jersey","lat":"40.61748","fcode":"AIRP"},{"adminCode1":"NJ","lng":"-74.40154","geonameId":5101775,"toponymName":"New Providence","countryId":"6252001","fcl":"P","population":12469,"countryCode":"US","name":"New Providence","fclName":"city, village,...","adminCodes1":{"ISO3166_2":"NJ"},"countryName":"United States","fcodeName":"populated place","adminName1":"New Jersey","lat":"40.69843","fcode":"PPL"},{"adminCode1":"NM","lng":"-103.15466","geonameId":5462285,"toponymName":"Clayton Municipal Airport","countryId":"6252001","fcl":"S","population":0,"countryCode":"US","name":"Clayton Municipal Airport","fclName":"spot, building, farm","adminCodes1":{"ISO3166_2":"NM"},"countryName":"United States","fcodeName":"airport","adminName1":"New Mexico","lat":"36.44586","fcode":"AIRP"},{"adminCode1":"NC","lng":"-80.66924","geonameId":4472687,"toponymName":"Indian Trail","countryId":"6252001","fcl":"P","population":37073,"countryCode":"US","name":"Indian Trail","fclName":"city, village,...","adminCodes1":{"ISO3166_2":"NC"},"countryName":"United States","fcodeName":"populated place","adminName1":"North Carolina","lat":"35.07681","fcode":"PPL"},{"adminCode1":"OR","lng":"-118.009","geonameId":5758120,"toponymName":"Union County","countryId":"6252001","fcl":"A","population":25748,"countryCode":"US","name":"Union","fclName":"country, state, region,...","adminCodes1":{"ISO3166_2":"OR"},"countryName":"United States","fcodeName":"second-order administrative division","adminName1":"Oregon","lat":"45.31035","fcode":"ADM2"},{"adminCode1":"GA","lng":"-83.99076","geonameId":4227781,"toponymName":"Union County","countryId":"6252001","fcl":"A","population":21356,"countryCode":"US","name":"Union","fclName":"country, state, region,...","adminCodes1":{"ISO3166_2":"GA"},"countryName":"United States","fcodeName":"second-order administrative division","adminName1":"Georgia","lat":"34.83401","fcode":"ADM2"},{"adminCode1":"TN","lng":"-89.05701","geonameId":4664170,"toponymName":"Union City","countryId":"6252001","fcl":"P","population":10573,"countryCode":"US","name":"Union City","fclName":"city, village,...","adminCodes1":{"ISO3166_2":"TN"},"countryName":"United States","fcodeName":"seat of a second-order administrative division","adminName1":"Tennessee","lat":"36.42423","fcode":"PPLA2"},{"adminCode1":"WA","lng":"-122.33933","geonameId":5800346,"toponymName":"Lake Union Seaplane Base","countryId":"6252001","fcl":"S","population":0,"countryCode":"US","name":"Lake Union Seaplane Base","fclName":"spot, building, farm","adminCodes1":{"ISO3166_2":"WA"},"countryName":"United States","fcodeName":"airport","adminName1":"Washington","lat":"47.62799","fcode":"AIRP"},{"adminCode1":"TN","lng":"-83.83751","geonameId":4664043,"toponymName":"Union County","countryId":"6252001","fcl":"A","population":19109,"countryCode":"US","name":"Union","fclName":"country, state, region,...","adminCodes1":{"ISO3166_2":"TN"},"countryName":"United States","fcodeName":"second-order administrative division","adminName1":"Tennessee","lat":"36.28787","fcode":"ADM2"},{"adminCode1":"MS","lng":"-89.00386","geonameId":4449240,"toponymName":"Union County","countryId":"6252001","fcl":"A","population":27134,"countryCode":"US","name":"Union","fclName":"country, state, region,...","adminCodes1":{"ISO3166_2":"MS"},"countryName":"United States","fcodeName":"second-order administrative division","adminName1":"Mississippi","lat":"34.49047","fcode":"ADM2"},{"adminCode1":"AR","lng":"-92.59729","geonameId":4134330,"toponymName":"Union County","countryId":"6252001","fcl":"A","population":41639,"countryCode":"US","name":"Union","fclName":"country, state, region,...","adminCodes1":{"ISO3166_2":"AR"},"countryName":"United States","fcodeName":"second-order administrative division","adminName1":"Arkansas","lat":"33.17136","fcode":"ADM2"},{"adminCode1":"FL","lng":"-82.37144","geonameId":4176099,"toponymName":"Union County","countryId":"6252001","fcl":"A","population":15535,"countryCode":"US","name":"Union","fclName":"country, state, region,...","adminCodes1":{"ISO3166_2":"FL"},"countryName":"United States","fcodeName":"second-order administrative division","adminName1":"Florida","lat":"30.04384","fcode":"ADM2"},{"adminCode1":"IA","lng":"-94.24238","geonameId":4879340,"toponymName":"Union County","countryId":"6252001","fcl":"A","population":12534,"countryCode":"US","name":"Union","fclName":"country, state, region,...","adminCodes1":{"ISO3166_2":"IA"},"countryName":"United States","fcodeName":"second-order administrative division","adminName1":"Iowa","lat":"41.02773","fcode":"ADM2"},{"adminCode1":"OH","lng":"-83.37158","geonameId":5174669,"toponymName":"Union County","countryId":"6252001","fcl":"A","population":52300,"countryCode":"US","name":"Union","fclName":"country, state, region,...","adminCodes1":{"ISO3166_2":"OH"},"countryName":"United States","fcodeName":"second-order administrative division","adminName1":"Ohio","lat":"40.2994","fcode":"ADM2"},{"adminCode1":"WI","lng":"-89.26791","geonameId":5251175,"toponymName":"Eagle River Union Airport","countryId":"6252001","fcl":"S","population":0,"countryCode":"US","name":"Eagle River Union Airport","fclName":"spot, building, farm","adminCodes1":{"ISO3166_2":"WI"},"countryName":"United States","fcodeName":"airport","adminName1":"Wisconsin","lat":"45.9319","fcode":"AIRP"},{"adminCode1":"MI","lng":"-84.73792","geonameId":5002724,"toponymName":"Mount Pleasant Municipal Airport","countryId":"6252001","fcl":"S","population":0,"countryCode":"US","name":"Mount Pleasant Municipal Airport","fclName":"spot, building, farm","adminCodes1":{"ISO3166_2":"MI"},"countryName":"United States","fcodeName":"airport","adminName1":"Michigan","lat":"43.61985","fcode":"AIRP"},{"adminCode1":"KY","lng":"-87.94538","geonameId":4311683,"toponymName":"Union County","countryId":"6252001","fcl":"A","population":15007,"countryCode":"US","name":"Union","fclName":"country, state, region,...","adminCodes1":{"ISO3166_2":"KY"},"countryName":"United States","fcodeName":"second-order administrative division","adminName1":"Kentucky","lat":"37.65845","fcode":"ADM2"},{"adminCode1":"IN","lng":"-84.92514","geonameId":4266110,"toponymName":"Union County","countryId":"6252001","fcl":"A","population":7516,"countryCode":"US","name":"Union","fclName":"country, state, region,...","adminCodes1":{"ISO3166_2":"IN"},"countryName":"United States","fcodeName":"second-order administrative division","adminName1":"Indiana","lat":"39.62555","fcode":"ADM2"},{"adminCode1":"GA","lng":"-83.99878","geonameId":4183355,"toponymName":"Blairsville Airport","countryId":"6252001","fcl":"S","population":0,"countryCode":"US","name":"Blairsville Airport","fclName":"spot, building, farm","adminCodes1":{"ISO3166_2":"GA"},"countryName":"United States","fcodeName":"airport","adminName1":"Georgia","lat":"34.85283","fcode":"AIRP"},{"adminCode1":"GA","lng":"-83.81864","geonameId":4184176,"toponymName":"Brasstown Wilderness","countryId":"6252001","fcl":"L","population":0,"countryCode":"US","name":"Brasstown Wilderness","fclName":"parks,area, ...","adminCodes1":{"ISO3166_2":"GA"},"countryName":"United States","fcodeName":"reserve","adminName1":"Georgia","lat":"34.88009","fcode":"RES"},{"adminCode1":"PA","lng":"-77.06225","geonameId":5216649,"toponymName":"Union County","countryId":"6252001","fcl":"A","population":44947,"countryCode":"US","name":"Union","fclName":"country, state, region,...","adminCodes1":{"ISO3166_2":"PA"},"countryName":"United States","fcodeName":"second-order administrative division","adminName1":"Pennsylvania","lat":"40.96297","fcode":"ADM2"},{"adminCode1":"OH","lng":"-82.49397","geonameId":4516352,"toponymName":"Lawrence County Airpark","countryId":"6252001","fcl":"S","population":0,"countryCode":"US","name":"Lawrence County Airpark","fclName":"spot, building, farm","adminCodes1":{"ISO3166_2":"OH"},"countryName":"United States","fcodeName":"airport","adminName1":"Ohio","lat":"38.42061","fcode":"AIRP"},{"adminCode1":"IN","lng":"-85.61581","geonameId":4917602,"toponymName":"Anderson Municipal Airport","countryId":"6252001","fcl":"S","population":0,"countryCode":"US","name":"Anderson Municipal Airport","fclName":"spot, building, farm","adminCodes1":{"ISO3166_2":"IN"},"countryName":"United States","fcodeName":"airport","adminName1":"Indiana","lat":"40.10893","fcode":"AIRP"},{"adminCode1":"IN","lng":"-84.86246","geonameId":4919565,"toponymName":"Decatur Hi-Way Airport","countryId":"6252001","fcl":"S","population":0,"countryCode":"US","name":"Decatur Hi-Way Airport","fclName":"spot, building, farm","adminCodes1":{"ISO3166_2":"IN"},"countryName":"United States","fcodeName":"airport","adminName1":"Indiana","lat":"40.83755","fcode":"AIRP"},{"adminCode1":"NM","lng":"-103.47099","geonameId":5495841,"toponymName":"Union County","countryId":"6252001","fcl":"A","population":4549,"countryCode":"US","name":"Union","fclName":"country, state, region,...","adminCodes1":{"ISO3166_2":"NM"},"countryName":"United States","fcodeName":"second-order administrative division","adminName1":"New Mexico","lat":"36.48176","fcode":"ADM2"},{"adminCode1":"LA","lng":"-92.37482","geonameId":4344274,"toponymName":"Union Parish","countryId":"6252001","fcl":"A","population":22721,"countryCode":"US","name":"Union","fclName":"country, state, region,...","adminCodes1":{"ISO3166_2":"LA"},"countryName":"United States","fcodeName":"second-order administrative division","adminName1":"Louisiana","lat":"32.8319","fcode":"ADM2"},{"adminCode1":"IL","lng":"-89.25509","geonameId":4251707,"toponymName":"Union County","countryId":"6252001","fcl":"A","population":17808,"countryCode":"US","name":"Union","fclName":"country, state, region,...","adminCodes1":{"ISO3166_2":"IL"},"countryName":"United States","fcodeName":"second-order administrative division","adminName1":"Illinois","lat":"37.47123","fcode":"ADM2"},{"adminCode1":"OR","lng":"-117.86521","geonameId":5758113,"toponymName":"Union","countryId":"6252001","fcl":"P","population":2120,"countryCode":"US","name":"Union","fclName":"city, village,...","adminCodes1":{"ISO3166_2":"OR"},"countryName":"United States","fcodeName":"populated place","adminName1":"Oregon","lat":"45.20847","fcode":"PPL"},{"adminCode1":"OH","lng":"-83.35119","geonameId":5174670,"toponymName":"Union County Airport","countryId":"6252001","fcl":"S","population":0,"countryCode":"US","name":"Union County Airport","fclName":"spot, building, farm","adminCodes1":{"ISO3166_2":"OH"},"countryName":"United States","fcodeName":"airport","adminName1":"Ohio","lat":"40.22566","fcode":"AIRP"},{"adminCode1":"NJ","lng":"-74.30859","geonameId":5105640,"toponymName":"Union County","countryId":"6252001","fcl":"A","population":536499,"countryCode":"US","name":"Union","fclName":"country, state, region,...","adminCodes1":{"ISO3166_2":"NJ"},"countryName":"United States","fcodeName":"second-order administrative division","adminName1":"New Jersey","lat":"40.6598","fcode":"ADM2"},{"adminCode1":"OH","lng":"-83.43548","geonameId":5162952,"toponymName":"Milford Center","countryId":"6252001","fcl":"P","population":823,"countryCode":"US","name":"Milford Center","fclName":"city, village,...","adminCodes1":{"ISO3166_2":"OH"},"countryName":"United States","fcodeName":"populated place","adminName1":"Ohio","lat":"40.17867","fcode":"PPL"},{"adminCode1":"OH","lng":"-83.33992","geonameId":5174756,"toponymName":"Unionville Center","countryId":"6252001","fcl":"P","population":239,"countryCode":"US","name":"Unionville Center","fclName":"city, village,...","adminCodes1":{"ISO3166_2":"OH"},"countryName":"United States","fcodeName":"populated place","adminName1":"Ohio","lat":"40.13839","fcode":"PPL"},{"adminCode1":"OR","lng":"-117.73743","geonameId":5718280,"toponymName":"Catherine Creek State Park","countryId":"6252001","fcl":"L","population":0,"countryCode":"US","name":"Catherine Creek State Park","fclName":"parks,area, ...","adminCodes1":{"ISO3166_2":"OR"},"countryName":"United States","fcodeName":"park","adminName1":"Oregon","lat":"45.15292","fcode":"PRK"},{"adminCode1":"OR","lng":"-117.80799","geonameId":5721027,"toponymName":"Cove","countryId":"6252001","fcl":"P","population":554,"countryCode":"US","name":"Cove","fclName":"city, village,...","adminCodes1":{"ISO3166_2":"OR"},"countryName":"United States","fcodeName":"populated place","adminName1":"Oregon","lat":"45.29653","fcode":"PPL"},{"adminCode1":"OR","lng":"-117.91743","geonameId":5725293,"toponymName":"Elgin","countryId":"6252001","fcl":"P","population":1732,"countryCode":"US","name":"Elgin","fclName":"city, village,...","adminCodes1":{"ISO3166_2":"OR"},"countryName":"United States","fcodeName":"populated place","adminName1":"Oregon","lat":"45.56486","fcode":"PPL"},{"adminCode1":"TN","lng":"-83.92853","geonameId":4606466,"toponymName":"Big Ridge State Park","countryId":"6252001","fcl":"L","population":0,"countryCode":"US","name":"Big Ridge State Park","fclName":"parks,area, ...","adminCodes1":{"ISO3166_2":"TN"},"countryName":"United States","fcodeName":"park","adminName1":"Tennessee","lat":"36.24313","fcode":"PRK"},{"adminCode1":"TN","lng":"-83.74185","geonameId":4638738,"toponymName":"Luttrell","countryId":"6252001","fcl":"P","population":1082,"countryCode":"US","name":"Luttrell","fclName":"city, village,...","adminCodes1":{"ISO3166_2":"TN"},"countryName":"United States","fcodeName":"populated place","adminName1":"Tennessee","lat":"36.19953","fcode":"PPL"},{"adminCode1":"TN","lng":"-83.79741","geonameId":4640160,"toponymName":"Maynardville","countryId":"6252001","fcl":"P","population":2355,"countryCode":"US","name":"Maynardville","fclName":"city, village,...","adminCodes1":{"ISO3166_2":"TN"},"countryName":"United States","fcodeName":"seat of a second-order administrative division","adminName1":"Tennessee","lat":"36.25064","fcode":"PPLA2"},{"adminCode1":"AR","lng":"-92.72488","geonameId":4131396,"toponymName":"Smackover","countryId":"6252001","fcl":"P","population":1782,"countryCode":"US","name":"Smackover","fclName":"city, village,...","adminCodes1":{"ISO3166_2":"AR"},"countryName":"United States","fcodeName":"populated place","adminName1":"Arkansas","lat":"33.36485","fcode":"PPL"},{"adminCode1":"AR","lng":"-92.68488","geonameId":4131662,"toponymName":"South Arkansas Arboretum","countryId":"6252001","fcl":"L","population":0,"countryCode":"US","name":"South Arkansas Arboretum","fclName":"parks,area, ...","adminCodes1":{"ISO3166_2":"AR"},"countryName":"United States","fcodeName":"park","adminName1":"Arkansas","lat":"33.21819","fcode":"PRK"},{"adminCode1":"AR","lng":"-92.15303","geonameId":4112740,"toponymName":"Grand Marais","countryId":"6252001","fcl":"H","population":0,"countryCode":"US","name":"Grand Marais","fclName":"stream, lake, ...","adminCodes1":{"ISO3166_2":"AR"},"countryName":"United States","fcodeName":"lake","adminName1":"Arkansas","lat":"33.0703","fcode":"LK"},{"adminCode1":"IL","lng":"-89.24703","geonameId":4232776,"toponymName":"Anna","countryId":"6252001","fcl":"P","population":4321,"countryCode":"US","name":"Anna","fclName":"city, village,...","adminCodes1":{"ISO3166_2":"IL"},"countryName":"United States","fcodeName":"populated place","adminName1":"Illinois","lat":"37.46033","fcode":"PPL"},{"adminCode1":"IL","lng":"-89.37383","geonameId":4233149,"toponymName":"Bald Knob Wilderness","countryId":"6252001","fcl":"L","population":0,"countryCode":"US","name":"Bald Knob Wilderness","fclName":"parks,area, ...","adminCodes1":{"ISO3166_2":"IL"},"countryName":"United States","fcodeName":"reserve","adminName1":"Illinois","lat":"37.55376","fcode":"RES"},{"adminCode1":"IL","lng":"-89.07936","geonameId":4246634,"toponymName":"Panther Den Wilderness","countryId":"6252001","fcl":"L","population":0,"countryCode":"US","name":"Panther Den Wilderness","fclName":"parks,area, ...","adminCodes1":{"ISO3166_2":"IL"},"countryName":"United States","fcodeName":"reserve","adminName1":"Illinois","lat":"37.592","fcode":"RES"},{"adminCode1":"IL","lng":"-89.41605","geonameId":4236035,"toponymName":"Clear Springs Wilderness","countryId":"6252001","fcl":"L","population":0,"countryCode":"US","name":"Clear Springs Wilderness","fclName":"parks,area, ...","adminCodes1":{"ISO3166_2":"IL"},"countryName":"United States","fcodeName":"reserve","adminName1":"Illinois","lat":"37.58277","fcode":"RES"},{"adminCode1":"IL","lng":"-89.25342","geonameId":4236102,"toponymName":"Cobden","countryId":"6252001","fcl":"P","population":1139,"countryCode":"US","name":"Cobden","fclName":"city, village,...","adminCodes1":{"ISO3166_2":"IL"},"countryName":"United States","fcodeName":"populated place","adminName1":"Illinois","lat":"37.53144","fcode":"PPL"},{"adminCode1":"FL","lng":"-82.38845","geonameId":4166973,"toponymName":"Olustee Battlefield Historic State Park","countryId":"6252001","fcl":"L","population":0,"countryCode":"US","name":"Olustee Battlefield Historic State Park","fclName":"parks,area, ...","adminCodes1":{"ISO3166_2":"FL"},"countryName":"United States","fcodeName":"park","adminName1":"Florida","lat":"30.21384","fcode":"PRK"},{"adminCode1":"OH","lng":"-83.29686","geonameId":5168085,"toponymName":"Richwood","countryId":"6252001","fcl":"P","population":2281,"countryCode":"US","name":"Richwood","fclName":"city, village,...","adminCodes1":{"ISO3166_2":"OH"},"countryName":"United States","fcodeName":"populated place","adminName1":"Ohio","lat":"40.42645","fcode":"PPL"},{"adminCode1":"NJ","lng":"-74.29959","geonameId":5105641,"toponymName":"Union County","countryId":"6252001","fcl":"S","population":0,"countryCode":"US","name":"Union County","fclName":"spot, building, farm","adminCodes1":{"ISO3166_2":"NJ"},"countryName":"United States","fcodeName":"airport","adminName1":"New Jersey","lat":"40.7001","fcode":"AIRP"},{"adminCode1":"OH","lng":"-81.53707","geonameId":5171728,"toponymName":"Shaker Heights","countryId":"6252001","fcl":"P","population":27646,"countryCode":"US","name":"Shaker Heights","fclName":"city, village,...","adminCodes1":{"ISO3166_2":"OH"},"countryName":"United States","fcodeName":"populated place","adminName1":"Ohio","lat":"41.47394","fcode":"PPL"},{"adminCode1":"NY","lng":"-75.95881","geonameId":5122794,"toponymName":"Johnson City","countryId":"6252001","fcl":"P","population":14773,"countryCode":"US","name":"Johnson City","fclName":"city, village,...","adminCodes1":{"ISO3166_2":"NY"},"countryName":"United States","fcodeName":"populated place","adminName1":"New York","lat":"42.11563","fcode":"PPL"},{"adminCode1":"KY","lng":"-87.9503","geonameId":4310027,"toponymName":"Sturgis Municipal Airport","countryId":"6252001","fcl":"S","population":0,"countryCode":"US","name":"Sturgis Municipal Airport","fclName":"spot, building, farm","adminCodes1":{"ISO3166_2":"KY"},"countryName":"United States","fcodeName":"airport","adminName1":"Kentucky","lat":"37.54227","fcode":"AIRP"},{"adminCode1":"KY","lng":"-87.98391","geonameId":4310030,"toponymName":"Sturgis","countryId":"6252001","fcl":"P","population":1912,"countryCode":"US","name":"Sturgis","fclName":"city, village,...","adminCodes1":{"ISO3166_2":"KY"},"countryName":"United States","fcodeName":"populated place","adminName1":"Kentucky","lat":"37.54671","fcode":"PPL"},{"adminCode1":"GA","lng":"-83.95824","geonameId":4183354,"toponymName":"Blairsville","countryId":"6252001","fcl":"P","population":554,"countryCode":"US","name":"Blairsville","fclName":"city, village,...","adminCodes1":{"ISO3166_2":"GA"},"countryName":"United States","fcodeName":"seat of a second-order administrative division","adminName1":"Georgia","lat":"34.8762","fcode":"PPLA2"},{"adminCode1":"SC","lng":"-81.61942","geonameId":4599283,"toponymName":"Union County","countryId":"6252001","fcl":"A","population":28961,"countryCode":"US","name":"Union","fclName":"country, state, region,...","adminCodes1":{"ISO3166_2":"SC"},"countryName":"United States","fcodeName":"second-order administrative division","adminName1":"South Carolina","lat":"34.68928","fcode":"ADM2"},{"adminCode1":"PA","lng":"-76.98692","geonameId":5203103,"toponymName":"New Berlin","countryId":"6252001","fcl":"P","population":867,"countryCode":"US","name":"New Berlin","fclName":"city, village,...","adminCodes1":{"ISO3166_2":"PA"},"countryName":"United States","fcodeName":"populated place","adminName1":"Pennsylvania","lat":"40.87897","fcode":"PPL"},{"adminCode1":"PA","lng":"-76.86691","geonameId":5203143,"toponymName":"New Columbia","countryId":"6252001","fcl":"P","population":1013,"countryCode":"US","name":"New Columbia","fclName":"city, village,...","adminCodes1":{"ISO3166_2":"PA"},"countryName":"United States","fcodeName":"populated place","adminName1":"Pennsylvania","lat":"41.04092","fcode":"PPL"},{"adminCode1":"PA","lng":"-77.04775","geonameId":5201080,"toponymName":"Mifflinburg","countryId":"6252001","fcl":"P","population":3520,"countryCode":"US","name":"Mifflinburg","fclName":"city, village,...","adminCodes1":{"ISO3166_2":"PA"},"countryName":"United States","fcodeName":"populated place","adminName1":"Pennsylvania","lat":"40.91758","fcode":"PPL"},{"adminCode1":"PA","lng":"-77.19029","geonameId":5192392,"toponymName":"Halfway Lake","countryId":"6252001","fcl":"H","population":0,"countryCode":"US","name":"Halfway Lake","fclName":"stream, lake, ...","adminCodes1":{"ISO3166_2":"PA"},"countryName":"United States","fcodeName":"lake","adminName1":"Pennsylvania","lat":"40.99104","fcode":"LK"},{"adminCode1":"NC","lng":"-80.53073","geonameId":4496196,"toponymName":"Union County","countryId":"6252001","fcl":"A","population":201292,"countryCode":"US","name":"Union","fclName":"country, state, region,...","adminCodes1":{"ISO3166_2":"NC"},"countryName":"United States","fcodeName":"second-order administrative division","adminName1":"North Carolina","lat":"34.98837","fcode":"ADM2"},{"adminCode1":"NY","lng":"-73.89125","geonameId":5114418,"toponymName":"Cypress Hills","countryId":"6252001","fcl":"P","population":54944,"countryCode":"US","name":"Cypress Hills","fclName":"city, village,...","adminCodes1":{"ISO3166_2":"NY"},"countryName":"United States","fcodeName":"populated place","adminName1":"New York","lat":"40.67705","fcode":"PPL"},{"adminCode1":"NH","lng":"-71.58896","geonameId":5093669,"toponymName":"Tilton","countryId":"6252001","fcl":"P","population":3612,"countryCode":"US","name":"Tilton","fclName":"city, village,...","adminCodes1":{"ISO3166_2":"NH"},"countryName":"United States","fcodeName":"populated place","adminName1":"New Hampshire","lat":"43.4423","fcode":"PPL"},{"adminCode1":"SD","lng":"-96.65609","geonameId":5232511,"toponymName":"Union County","countryId":"6252001","fcl":"A","population":14399,"countryCode":"US","name":"Union","fclName":"country, state, region,...","adminCodes1":{"ISO3166_2":"SD"},"countryName":"United States","fcodeName":"second-order administrative division","adminName1":"South Dakota","lat":"42.83249","fcode":"ADM2"},{"adminCode1":"LA","lng":"-92.65793","geonameId":4316497,"toponymName":"Bernice","countryId":"6252001","fcl":"P","population":1648,"countryCode":"US","name":"Bernice","fclName":"city, village,...","adminCodes1":{"ISO3166_2":"LA"},"countryName":"United States","fcodeName":"populated place","adminName1":"Louisiana","lat":"32.82209","fcode":"PPL"},{"adminCode1":"LA","lng":"-92.48348","geonameId":4330263,"toponymName":"Lake D'Arbonne State Park","countryId":"6252001","fcl":"L","population":0,"countryCode":"US","name":"Lake D'Arbonne State Park","fclName":"parks,area, ...","adminCodes1":{"ISO3166_2":"LA"},"countryName":"United States","fcodeName":"park","adminName1":"Louisiana","lat":"32.77653","fcode":"PRK"},{"adminCode1":"MS","lng":"-89.00784","geonameId":4438121,"toponymName":"New Albany","countryId":"6252001","fcl":"P","population":8830,"countryCode":"US","name":"New Albany","fclName":"city, village,...","adminCodes1":{"ISO3166_2":"MS"},"countryName":"United States","fcodeName":"seat of a second-order administrative division","adminName1":"Mississippi","lat":"34.49427","fcode":"PPLA2"},{"adminCode1":"IL","lng":"-89.26814","geonameId":4241992,"toponymName":"Jonesboro","countryId":"6252001","fcl":"P","population":1768,"countryCode":"US","name":"Jonesboro","fclName":"city, village,...","adminCodes1":{"ISO3166_2":"IL"},"countryName":"United States","fcodeName":"seat of a second-order administrative division","adminName1":"Illinois","lat":"37.45172","fcode":"PPLA2"},{"adminCode1":"FL","lng":"-82.33956","geonameId":4161171,"toponymName":"Lake Butler","countryId":"6252001","fcl":"P","population":1845,"countryCode":"US","name":"Lake Butler","fclName":"city, village,...","adminCodes1":{"ISO3166_2":"FL"},"countryName":"United States","fcodeName":"seat of a second-order administrative division","adminName1":"Florida","lat":"30.02274","fcode":"PPLA2"},{"adminCode1":"IA","lng":"-94.36135","geonameId":4853078,"toponymName":"Creston","countryId":"6252001","fcl":"P","population":7854,"countryCode":"US","name":"Creston","fclName":"city, village,...","adminCodes1":{"ISO3166_2":"IA"},"countryName":"United States","fcodeName":"seat of a second-order administrative division","adminName1":"Iowa","lat":"41.0586","fcode":"PPLA2"},{"adminCode1":"SC","lng":"-81.62371","geonameId":4599214,"toponymName":"Union","countryId":"6252001","fcl":"P","population":8045,"countryCode":"US","name":"Union","fclName":"city, village,...","adminCodes1":{"ISO3166_2":"SC"},"countryName":"United States","fcodeName":"seat of a second-order administrative division","adminName1":"South Carolina","lat":"34.71541","fcode":"PPLA2"},{"adminCode1":"SC","lng":"-81.64163","geonameId":4599284,"toponymName":"Union County Airport - Troy Shelton Field","countryId":"6252001","fcl":"S","population":0,"countryCode":"US","name":"Union County Airport","fclName":"spot, building, farm","adminCodes1":{"ISO3166_2":"SC"},"countryName":"United States","fcodeName":"airport","adminName1":"South Carolina","lat":"34.68531","fcode":"AIRP"},{"adminCode1":"NJ","lng":"-74.25882","geonameId":5103500,"toponymName":"Roselle","countryId":"6252001","fcl":"P","population":21670,"countryCode":"US","name":"Roselle","fclName":"city, village,...","adminCodes1":{"ISO3166_2":"NJ"},"countryName":"United States","fcodeName":"populated place","adminName1":"New Jersey","lat":"40.65223","fcode":"PPL"},{"adminCode1":"NJ","lng":"-74.26431","geonameId":5103503,"toponymName":"Roselle Park","countryId":"6252001","fcl":"P","population":13670,"countryCode":"US","name":"Roselle Park","fclName":"city, village,...","adminCodes1":{"ISO3166_2":"NJ"},"countryName":"United States","fcodeName":"populated place","adminName1":"New Jersey","lat":"40.66455","fcode":"PPL"},{"adminCode1":"NJ","lng":"-74.29959","geonameId":5097017,"toponymName":"Cranford","countryId":"6252001","fcl":"P","population":22627,"countryCode":"US","name":"Cranford","fclName":"city, village,...","adminCodes1":{"ISO3166_2":"NJ"},"countryName":"United States","fcodeName":"populated place","adminName1":"New Jersey","lat":"40.65844","fcode":"PPL"},{"adminCode1":"NJ","lng":"-74.38987","geonameId":5104473,"toponymName":"Scotch Plains","countryId":"6252001","fcl":"P","population":23584,"countryCode":"US","name":"Scotch Plains","fclName":"city, village,...","adminCodes1":{"ISO3166_2":"NJ"},"countryName":"United States","fcodeName":"populated place","adminName1":"New Jersey","lat":"40.65538","fcode":"PPL"},{"adminCode1":"NJ","lng":"-74.44265","geonameId":5095617,"toponymName":"Berkeley Heights","countryId":"6252001","fcl":"P","population":14179,"countryCode":"US","name":"Berkeley Heights","fclName":"city, village,...","adminCodes1":{"ISO3166_2":"NJ"},"countryName":"United States","fcodeName":"populated place","adminName1":"New Jersey","lat":"40.68343","fcode":"PPL"},{"adminCode1":"NM","lng":"-103.97104","geonameId":5460403,"toponymName":"Capulin Volcano National Monument","countryId":"6252001","fcl":"L","population":0,"countryCode":"US","name":"Capulin Volcano National Monument","fclName":"parks,area, ...","adminCodes1":{"ISO3166_2":"NM"},"countryName":"United States","fcodeName":"park","adminName1":"New Mexico","lat":"36.78171","fcode":"PRK"},{"adminCode1":"NM","lng":"-103.1841","geonameId":5462269,"toponymName":"Clayton","countryId":"6252001","fcl":"P","population":2774,"countryCode":"US","name":"Clayton","fclName":"city, village,...","adminCodes1":{"ISO3166_2":"NM"},"countryName":"United States","fcodeName":"seat of a second-order administrative division","adminName1":"New Mexico","lat":"36.45169","fcode":"PPLA2"},{"adminCode1":"NM","lng":"-103.30605","geonameId":5462281,"toponymName":"Clayton Lake State Park","countryId":"6252001","fcl":"L","population":0,"countryCode":"US","name":"Clayton Lake State Park","fclName":"parks,area, ...","adminCodes1":{"ISO3166_2":"NM"},"countryName":"United States","fcodeName":"park","adminName1":"New Mexico","lat":"36.57836","fcode":"PRK"}]}
