{"totalResultsCount":9228,"geonames":[{"adminCode1":"MO","lng":"-94.51328","geonameId":4392768,"toponymName":"Joplin","countryId":"6252001","fcl":"P","population":51818,"countryCode":"US","name":"Joplin","fclName":"city, village,...","adminCodes1":{"ISO3166_2":"MO"},"countryName":"United States","fcodeName":"populated place","adminName1":"Missouri","lat":"37.08423","fcode":"PPL"},{"adminCode1":"OH","lng":"-83.36714","geonameId":5162077,"toponymName":"Marysville","countryId":"6252001","fcl":"P","population":22817,"countryCode":"US","name":"Marysville","fclName":"city, village,...","adminCodes1":{"ISO3166_2":"OH"},"countryName":"United States","fcodeName":"seat of a second-order administrative division","adminName1":"Ohio","lat":"40.23645","fcode":"PPLA2"},{"adminCode1":"NC","lng":"-80.54951","geonameId":4479946,"toponymName":"Monroe","countryId":"6252001","fcl":"P","population":34623,"countryCode":"US","name":"Monroe","fclName":"city, village,...","adminCodes1":{"ISO3166_2":"NC"},"countryName":"United States","fcodeName":"seat of a second-order administrative division","adminName1":"North Carolina","lat":"34.98543","fcode":"PPLA2"},{"adminCode1":"AR","lng":"-92.66627","geonameId":4109785,"toponymName":"El Dorado","countryId":"6252001","fcl":"P","population":18386,"countryCode":"US","name":"El Dorado","fclName":"city, village,...","adminCodes1":{"ISO3166_2":"AR"},"countryName":"United States","fcodeName":"seat of a second-order administrative division","adminName1":"Arkansas","lat":"33.20763","fcode":"PPLA2"},{"adminCode1":"AR","lng":"-92.81322","geonameId":4112593,"toponymName":"Goodwin Field","countryId":"6252001","fcl":"S","population":0,"countryCode":"US","name":"Goodwin Field","fclName":"spot, building, farm","adminCodes1":{"ISO3166_2":"AR"},"countryName":"United States","fcodeName":"airport","adminName1":"Arkansas","lat":"33.22069","fcode":"AIRP"},{"adminCode1":"IA","lng":"-94.36329","geonameId":4853084,"toponymName":"Creston Municipal Airport","countryId":"6252001","fcl":"S","population":0,"countryCode":"US","name":"Creston Municipal Airport","fclName":"spot, building, farm","adminCodes1":{"ISO3166_2":"IA"},"countryName":"United States","fcodeName":"airport","adminName1":"Iowa","lat":"41.02138","fcode":"AIRP"},{"adminCode1":"NJ","lng":"-74.2632","geonameId":5105608,"toponymName":"Union","countryId":"6252001","fcl":"P","population":56771,"countryCode":"US","name":"Union","fclName":"city, village,...","adminCodes1":{"ISO3166_2":"NJ"},"countryName":"United States","fcodeName":"populated place","adminName1":"New Jersey","lat":"40.6976","fcode":"PPL"},{"adminCode1":"MI","lng":"-84.73792","geonameId":5002724,"toponymName":"Mount Pleasant Municipal Airport","countryId":"6252001","fcl":"S","population":0,"countryCode":"US","name":"Mount Pleasant Municipal Airport","fclName":"spot, building, farm","adminCodes1":{"ISO3166_2":"MI"},"countryName":"United States","fcodeName":"airport","adminName1":"Michigan","lat":"43.61985","fcode":"AIRP"},{"adminCode1":"NC","lng":"-80.66924","geonameId":4472687,"toponymName":"Indian Trail","countryId":"6252001","fcl":"P","population":37073,"countryCode":"US","name":"Indian Trail","fclName":"city, village,...","adminCodes1":{"ISO3166_2":"NC"},"countryName":"United States","fcodeName":"populated place","adminName1":"North Carolina","lat":"35.07681","fcode":"PPL"},{"adminCode1":"OH","lng":"-82.49397","geonameId":4516352,"toponymName":"Lawrence County Airpark","countryId":"6252001","fcl":"S","population":0,"countryCode":"US","name":"Lawrence County Airpark","fclName":"spot, building, farm","adminCodes1":{"ISO3166_2":"OH"},"countryName":"United States","fcodeName":"airport","adminName1":"Ohio","lat":"38.42061","fcode":"AIRP"},{"adminCode1":"IN","lng":"-85.61581","geonameId":4917602,"toponymName":"Anderson Municipal Airport","countryId":"6252001","fcl":"S","population":0,"countryCode":"US","name":"Anderson Municipal Airport","fclName":"spot, building, farm","adminCodes1":{"ISO3166_2":"IN"},"countryName":"United States","fcodeName":"airport","adminName1":"Indiana","lat":"40.10893","fcode":"AIRP"},{"adminCode1":"IN","lng":"-84.86246","geonameId":4919565,"toponymName":"Decatur Hi-Way Airport","countryId":"6252001","fcl":"S","population":0,"countryCode":"US","name":"Decatur Hi-Way Airport","fclName":"spot, building, farm","adminCodes1":{"ISO3166_2":"IN"},"countryName":"United States","fcodeName":"airport","adminName1":"Indiana","lat":"40.83755","fcode":"AIRP"},{"adminCode1":"OH","lng":"-83.35119","geonameId":5174670,"toponymName":"Union County Airport","countryId":"6252001","fcl":"S","population":0,"countryCode":"US","name":"Union County Airport","fclName":"spot, building, farm","adminCodes1":{"ISO3166_2":"OH"},"countryName":"United States","fcodeName":"airport","adminName1":"Ohio","lat":"40.22566","fcode":"AIRP"},{"adminCode1":"OH","lng":"-83.43548","geonameId":5162952,"toponymName":"Milford Center","countryId":"6252001","fcl":"P","population":823,"countryCode":"US","name":"Milford Center","fclName":"city, village,...","adminCodes1":{"ISO3166_2":"OH"},"countryName":"United States","fcodeName":"populated place","adminName1":"Ohio","lat":"40.17867","fcode":"PPL"},{"adminCode1":"OH","lng":"-83.33992","geonameId":5174756,"toponymName":"Unionville Center","countryId":"6252001","fcl":"P","population":239,"countryCode":"US","name":"Unionville Center","fclName":"city, village,...","adminCodes1":{"ISO3166_2":"OH"},"countryName":"United States","fcodeName":"populated place","adminName1":"Ohio","lat":"40.13839","fcode":"PPL"},{"adminCode1":"AR","lng":"-92.72488","geonameId":4131396,"toponymName":"Smackover","countryId":"6252001","fcl":"P","population":1782,"countryCode":"US","name":"Smackover","fclName":"city, village,...","adminCodes1":{"ISO3166_2":"AR"},"countryName":"United States","fcodeName":"populated place","adminName1":"Arkansas","lat":"33.36485","fcode":"PPL"},{"adminCode1":"OH","lng":"-83.29686","geonameId":5168085,"toponymName":"Richwood","countryId":"6252001","fcl":"P","population":2281,"countryCode":"US","name":"Richwood","fclName":"city, village,...","adminCodes1":{"ISO3166_2":"OH"},"countryName":"United States","fcodeName":"populated place","adminName1":"Ohio","lat":"40.42645","fcode":"PPL"},{"adminCode1":"PA","lng":"-76.86691","geonameId":5203143,"toponymName":"New Columbia","countryId":"6252001","fcl":"P","population":1013,"countryCode":"US","name":"New Columbia","fclName":"city, village,...","adminCodes1":{"ISO3166_2":"PA"},"countryName":"United States","fcodeName":"populated place","adminName1":"Pennsylvania","lat":"41.04092","fcode":"PPL"},{"adminCode1":"NJ","lng":"-74.29959","geonameId":5105641,"toponymName":"Union County","countryId":"6252001","fcl":"S","population":0,"countryCode":"US","name":"Union County","fclName":"spot, building, farm","adminCodes1":{"ISO3166_2":"NJ"},"countryName":"United States","fcodeName":"airport","adminName1":"New Jersey","lat":"40.7001","fcode":"AIRP"},{"adminCode1":"NJ","lng":"-74.29959","geonameId":5097017,"toponymName":"Cranford","countryId":"6252001","fcl":"P","population":22627,"countryCode":"US","name":"Cranford","fclName":"city, village,...","adminCodes1":{"ISO3166_2":"NJ"},"countryName":"United States","fcodeName":"populated place","adminName1":"New Jersey","lat":"40.65844","fcode":"PPL"},{"adminCode1":"NJ","lng":"-74.38987","geonameId":5104473,"toponymName":"Scotch Plains","countryId":"6252001","fcl":"P","population":23584,"countryCode":"US","name":"Scotch Plains","fclName":"city, village,...","adminCodes1":{"ISO3166_2":"NJ"},"countryName":"United States","fcodeName":"populated place","adminName1":"New Jersey","lat":"40.65538","fcode":"PPL"},{"adminCode1":"NJ","lng":"-74.44265","geonameId":5095617,"toponymName":"Berkeley Heights","countryId":"6252001","fcl":"P","population":14179,"countryCode":"US","name":"Berkeley Heights","fclName":"city, village,...","adminCodes1":{"ISO3166_2":"NJ"},"countryName":"United States","fcodeName":"populated place","adminName1":"New Jersey","lat":"40.68343","fcode":"PPL"},{"adminCode1":"MO","lng":"-91.00848","geonameId":4412454,"toponymName":"Union","countryId":"6252001","fcl":"P","population":10957,"countryCode":"US","name":"Union","fclName":"city, village,...","adminCodes1":{"ISO3166_2":"MO"},"countryName":"United States","fcodeName":"seat of a second-order administrative division","adminName1":"Missouri","lat":"38.45005","fcode":"PPLA2"},{"adminCode1":"MI","lng":"-85.13609","geonameId":5012928,"toponymName":"Union City","countryId":"6252001","fcl":"P","population":1584,"countryCode":"US","name":"Union City","fclName":"city, village,...","adminCodes1":{"ISO3166_2":"MI"},"countryName":"United States","fcodeName":"populated place","adminName1":"Michigan","lat":"42.06671","fcode":"PPL"},{"adminCode1":"AR","lng":"-92.33486","geonameId":4132582,"toponymName":"Strong","countryId":"6252001","fcl":"P","population":558,"countryCode":"US","name":"Strong","fclName":"city, village,...","adminCodes1":{"ISO3166_2":"AR"},"countryName":"United States","fcodeName":"populated place","adminName1":"Arkansas","lat":"33.10763","fcode":"PPL"},{"adminCode1":"AR","lng":"-92.18264","geonameId":4115759,"toponymName":"Huttig","countryId":"6252001","fcl":"P","population":564,"countryCode":"US","name":"Huttig","fclName":"city, village,...","adminCodes1":{"ISO3166_2":"AR"},"countryName":"United States","fcodeName":"populated place","adminName1":"Arkansas","lat":"33.03957","fcode":"PPL"},{"adminCode1":"OH","lng":"-83.54519","geonameId":4528071,"toponymName":"West Union","countryId":"6252001","fcl":"P","population":3179,"countryCode":"US","name":"West Union","fclName":"city, village,...","adminCodes1":{"ISO3166_2":"OH"},"countryName":"United States","fcodeName":"seat of a second-order administrative division","adminName1":"Ohio","lat":"38.79452","fcode":"PPLA2"},{"adminCode1":"IN","lng":"-84.80913","geonameId":4927449,"toponymName":"Union City","countryId":"6252001","fcl":"P","population":3447,"countryCode":"US","name":"Union City","fclName":"city, village,...","adminCodes1":{"ISO3166_2":"IN"},"countryName":"United States","fcodeName":"populated place","adminName1":"Indiana","lat":"40.20199","fcode":"PPL"},{"adminCode1":"NC","lng":"-80.7434","geonameId":4497833,"toponymName":"Waxhaw","countryId":"6252001","fcl":"P","population":13495,"countryCode":"US","name":"Waxhaw","fclName":"city, village,...","adminCodes1":{"ISO3166_2":"NC"},"countryName":"United States","fcodeName":"populated place","adminName1":"North Carolina","lat":"34.92459","fcode":"PPL"},{"adminCode1":"NJ","lng":"-74.3107","geonameId":5096655,"toponymName":"Clark","countryId":"6252001","fcl":"P","population":14628,"countryCode":"US","name":"Clark","fclName":"city, village,...","adminCodes1":{"ISO3166_2":"NJ"},"countryName":"United States","fcodeName":"populated place","adminName1":"New Jersey","lat":"40.64094","fcode":"PPL"},{"adminCode1":"NJ","lng":"-74.23015","geonameId":5099093,"toponymName":"Hillside","countryId":"6252001","fcl":"P","population":22155,"countryCode":"US","name":"Hillside","fclName":"city, village,...","adminCodes1":{"ISO3166_2":"NJ"},"countryName":"United States","fcodeName":"populated place","adminName1":"New Jersey","lat":"40.70121","fcode":"PPL"},{"adminCode1":"NJ","lng":"-74.31723","geonameId":5104952,"toponymName":"Springfield","countryId":"6252001","fcl":"P","population":14429,"countryCode":"US","name":"Springfield","fclName":"city, village,...","adminCodes1":{"ISO3166_2":"NJ"},"countryName":"United States","fcodeName":"populated place","adminName1":"New Jersey","lat":"40.70491","fcode":"PPL"},{"adminCode1":"IA","lng":"-94.19801","geonameId":4846449,"toponymName":"Afton","countryId":"6252001","fcl":"P","population":829,"countryCode":"US","name":"Afton","fclName":"city, village,...","adminCodes1":{"ISO3166_2":"IA"},"countryName":"United States","fcodeName":"populated place","adminName1":"Iowa","lat":"41.02749","fcode":"PPL"},{"adminCode1":"OH","lng":"-83.48937","geonameId":5158899,"toponymName":"Irwin","countryId":"6252001","fcl":"P","population":0,"countryCode":"US","name":"Irwin","fclName":"city, village,...","adminCodes1":{"ISO3166_2":"OH"},"countryName":"United States","fcodeName":"populated place","adminName1":"Ohio","lat":"40.12256","fcode":"PPL"},{"adminCode1":"IN","lng":"-86.42306","geonameId":4919466,"toponymName":"Culver","countryId":"6252001","fcl":"P","population":1396,"countryCode":"US","name":"Culver","fclName":"city, village,...","adminCodes1":{"ISO3166_2":"IN"},"countryName":"United States","fcodeName":"populated place","adminName1":"Indiana","lat":"41.21893","fcode":"PPL"},{"adminCode1":"OH","lng":"-82.98546","geonameId":4527760,"toponymName":"Waverly","countryId":"6252001","fcl":"P","population":4274,"countryCode":"US","name":"Waverly","fclName":"city, village,...","adminCodes1":{"ISO3166_2":"OH"},"countryName":"United States","fcodeName":"seat of a second-order administrative division","adminName1":"Ohio","lat":"39.12673","fcode":"PPLA2"},{"adminCode1":"NJ","lng":"-74.26998","geonameId":7259104,"toponymName":"Union","countryId":"6252001","fcl":"P","population":0,"countryCode":"US","name":"Union Township","fclName":"city, village,...","adminCodes1":{"ISO3166_2":"NJ"},"countryName":"United States","fcodeName":"populated place","adminName1":"New Jersey","lat":"40.6954","fcode":"PPL"},{"adminCode1":"AR","lng":"-92.95489","geonameId":4122453,"toponymName":"Mount Holly","countryId":"6252001","fcl":"P","population":0,"countryCode":"US","name":"Mount Holly","fclName":"city, village,...","adminCodes1":{"ISO3166_2":"AR"},"countryName":"United States","fcodeName":"populated place","adminName1":"Arkansas","lat":"33.30263","fcode":"PPL"},{"adminCode1":"AR","lng":"-92.66293","geonameId":4123988,"toponymName":"Norphlet","countryId":"6252001","fcl":"P","population":824,"countryCode":"US","name":"Norphlet","fclName":"city, village,...","adminCodes1":{"ISO3166_2":"AR"},"countryName":"United States","fcodeName":"populated place","adminName1":"Arkansas","lat":"33.31596","fcode":"PPL"},{"adminCode1":"AR","lng":"-92.53849","geonameId":4104089,"toponymName":"Calion","countryId":"6252001","fcl":"P","population":466,"countryCode":"US","name":"Calion","fclName":"city, village,...","adminCodes1":{"ISO3166_2":"AR"},"countryName":"United States","fcodeName":"populated place","adminName1":"Arkansas","lat":"33.32901","fcode":"PPL"},{"adminCode1":"AR","lng":"-92.48293","geonameId":4118481,"toponymName":"Lawson","countryId":"6252001","fcl":"P","population":0,"countryCode":"US","name":"Lawson","fclName":"city, village,...","adminCodes1":{"ISO3166_2":"AR"},"countryName":"United States","fcodeName":"populated place","adminName1":"Arkansas","lat":"33.1968","fcode":"PPL"},{"adminCode1":"AR","lng":"-92.72432","geonameId":4116918,"toponymName":"Junction City","countryId":"6252001","fcl":"P","population":547,"countryCode":"US","name":"Junction City","fclName":"city, village,...","adminCodes1":{"ISO3166_2":"AR"},"countryName":"United States","fcodeName":"populated place","adminName1":"Arkansas","lat":"33.01625","fcode":"PPL"},{"adminCode1":"IA","lng":"-94.05328","geonameId":4865438,"toponymName":"Lorimor","countryId":"6252001","fcl":"P","population":349,"countryCode":"US","name":"Lorimor","fclName":"city, village,...","adminCodes1":{"ISO3166_2":"IA"},"countryName":"United States","fcodeName":"populated place","adminName1":"Iowa","lat":"41.12832","fcode":"PPL"},{"adminCode1":"IA","lng":"-94.26329","geonameId":4876036,"toponymName":"Shannon City","countryId":"6252001","fcl":"P","population":70,"countryCode":"US","name":"Shannon City","fclName":"city, village,...","adminCodes1":{"ISO3166_2":"IA"},"countryName":"United States","fcodeName":"populated place","adminName1":"Iowa","lat":"40.90166","fcode":"PPL"},{"adminCode1":"IA","lng":"-94.05078","geonameId":4878383,"toponymName":"Thayer","countryId":"6252001","fcl":"P","population":56,"countryCode":"US","name":"Thayer","fclName":"city, village,...","adminCodes1":{"ISO3166_2":"IA"},"countryName":"United States","fcodeName":"populated place","adminName1":"Iowa","lat":"41.02805","fcode":"PPL"},{"adminCode1":"IA","lng":"-94.21912","geonameId":4847136,"toponymName":"Arispe","countryId":"6252001","fcl":"P","population":99,"countryCode":"US","name":"Arispe","fclName":"city, village,...","adminCodes1":{"ISO3166_2":"IA"},"countryName":"United States","fcodeName":"populated place","adminName1":"Iowa","lat":"40.94944","fcode":"PPL"},{"adminCode1":"IA","lng":"-94.46191","geonameId":4853125,"toponymName":"Cromwell","countryId":"6252001","fcl":"P","population":106,"countryCode":"US","name":"Cromwell","fclName":"city, village,...","adminCodes1":{"ISO3166_2":"IA"},"countryName":"United States","fcodeName":"populated place","adminName1":"Iowa","lat":"41.03943","fcode":"PPL"},{"adminCode1":"OH","lng":"-83.41103","geonameId":5173379,"toponymName":"Summersville","countryId":"6252001","fcl":"P","population":0,"countryCode":"US","name":"Summersville","fclName":"city, village,...","adminCodes1":{"ISO3166_2":"OH"},"countryName":"United States","fcodeName":"populated place","adminName1":"Ohio","lat":"40.40006","fcode":"PPL"},{"adminCode1":"OH","lng":"-83.46576","geonameId":5167762,"toponymName":"Raymond","countryId":"6252001","fcl":"P","population":257,"countryCode":"US","name":"Raymond","fclName":"city, village,...","adminCodes1":{"ISO3166_2":"OH"},"countryName":"United States","fcodeName":"populated place","adminName1":"Ohio","lat":"40.33478","fcode":"PPL"},{"adminCode1":"OH","lng":"-83.26131","geonameId":5161619,"toponymName":"Magnetic Springs","countryId":"6252001","fcl":"P","population":276,"countryCode":"US","name":"Magnetic Springs","fclName":"city, village,...","adminCodes1":{"ISO3166_2":"OH"},"countryName":"United States","fcodeName":"populated place","adminName1":"Ohio","lat":"40.35284","fcode":"PPL"},{"adminCode1":"OH","lng":"-83.23658","geonameId":5164250,"toponymName":"New California","countryId":"6252001","fcl":"P","population":1411,"countryCode":"US","name":"New California","fclName":"city, village,...","adminCodes1":{"ISO3166_2":"OH"},"countryName":"United States","fcodeName":"populated place","adminName1":"Ohio","lat":"40.15617","fcode":"PPL"},{"adminCode1":"OH","lng":"-83.41214","geonameId":5148278,"toponymName":"Broadway","countryId":"6252001","fcl":"P","population":0,"countryCode":"US","name":"Broadway","fclName":"city, village,...","adminCodes1":{"ISO3166_2":"OH"},"countryName":"United States","fcodeName":"populated place","adminName1":"Ohio","lat":"40.34117","fcode":"PPL"},{"adminCode1":"OH","lng":"-82.49127","geonameId":4514004,"toponymName":"Hebron","countryId":"6252001","fcl":"P","population":2409,"countryCode":"US","name":"Hebron","fclName":"city, village,...","adminCodes1":{"ISO3166_2":"OH"},"countryName":"United States","fcodeName":"populated place","adminName1":"Ohio","lat":"39.96173","fcode":"PPL"},{"adminCode1":"OH","lng":"-82.4571","geonameId":4508412,"toponymName":"Chesapeake","countryId":"6252001","fcl":"P","population":726,"countryCode":"US","name":"Chesapeake","fclName":"city, village,...","adminCodes1":{"ISO3166_2":"OH"},"countryName":"United States","fcodeName":"populated place","adminName1":"Ohio","lat":"38.42786","fcode":"PPL"},{"adminCode1":"OH","lng":"-82.3771","geonameId":4521969,"toponymName":"Proctorville","countryId":"6252001","fcl":"P","population":559,"countryCode":"US","name":"Proctorville","fclName":"city, village,...","adminCodes1":{"ISO3166_2":"OH"},"countryName":"United States","fcodeName":"populated place","adminName1":"Ohio","lat":"38.43703","fcode":"PPL"},{"adminCode1":"OH","lng":"-83.84492","geonameId":4522540,"toponymName":"Ripley","countryId":"6252001","fcl":"P","population":1721,"countryCode":"US","name":"Ripley","fclName":"city, village,...","adminCodes1":{"ISO3166_2":"OH"},"countryName":"United States","fcodeName":"populated place","adminName1":"Ohio","lat":"38.74563","fcode":"PPL"},{"adminCode1":"OH","lng":"-84.21327","geonameId":4525084,"toponymName":"South Lebanon","countryId":"6252001","fcl":"P","population":4346,"countryCode":"US","name":"South Lebanon","fclName":"city, village,...","adminCodes1":{"ISO3166_2":"OH"},"countryName":"United States","fcodeName":"populated place","adminName1":"Ohio","lat":"39.37089","fcode":"PPL"},{"adminCode1":"OH","lng":"-81.73402","geonameId":4519510,"toponymName":"New Concord","countryId":"6252001","fcl":"P","population":2343,"countryCode":"US","name":"New Concord","fclName":"city, village,...","adminCodes1":{"ISO3166_2":"OH"},"countryName":"United States","fcodeName":"populated place","adminName1":"Ohio","lat":"39.99368","fcode":"PPL"},{"adminCode1":"OH","lng":"-84.328","geonameId":4528036,"toponymName":"West Milton","countryId":"6252001","fcl":"P","population":4714,"countryCode":"US","name":"West Milton","fclName":"city, village,...","adminCodes1":{"ISO3166_2":"OH"},"countryName":"United States","fcodeName":"populated place","adminName1":"Ohio","lat":"39.96255","fcode":"PPL"},{"adminCode1":"MO","lng":"-92.09378","geonameId":4384134,"toponymName":"Dixon","countryId":"6252001","fcl":"P","population":1499,"countryCode":"US","name":"Dixon","fclName":"city, village,...","adminCodes1":{"ISO3166_2":"MO"},"countryName":"United States","fcodeName":"populated place","adminName1":"Missouri","lat":"37.99171","fcode":"PPL"},{"adminCode1":"MO","lng":"-90.07509","geonameId":4379785,"toponymName":"Campbell","countryId":"6252001","fcl":"P","population":1922,"countryCode":"US","name":"Campbell","fclName":"city, village,...","adminCodes1":{"ISO3166_2":"MO"},"countryName":"United States","fcodeName":"populated place","adminName1":"Missouri","lat":"36.49339","fcode":"PPL"},{"adminCode1":"AR","lng":"-91.87959","geonameId":4100984,"toponymName":"Beebe","countryId":"6252001","fcl":"P","population":8106,"countryCode":"US","name":"Beebe","fclName":"city, village,...","adminCodes1":{"ISO3166_2":"AR"},"countryName":"United States","fcodeName":"populated place","adminName1":"Arkansas","lat":"35.07064","fcode":"PPL"},{"adminCode1":"AR","lng":"-91.2818","geonameId":4123830,"toponymName":"Newport","countryId":"6252001","fcl":"P","population":7767,"countryCode":"US","name":"Newport","fclName":"city, village,...","adminCodes1":{"ISO3166_2":"AR"},"countryName":"United States","fcodeName":"seat of a second-order administrative division","adminName1":"Arkansas","lat":"35.6048","fcode":"PPLA2"},{"adminCode1":"AR","lng":"-91.26513","geonameId":4108184,"toponymName":"Diaz","countryId":"6252001","fcl":"P","population":1248,"countryCode":"US","name":"Diaz","fclName":"city, village,...","adminCodes1":{"ISO3166_2":"AR"},"countryName":"United States","fcodeName":"populated place","adminName1":"Arkansas","lat":"35.63841","fcode":"PPL"},{"adminCode1":"AR","lng":"-92.13599","geonameId":4104078,"toponymName":"Calico Rock","countryId":"6252001","fcl":"P","population":1734,"countryCode":"US","name":"Calico Rock","fclName":"city, village,...","adminCodes1":{"ISO3166_2":"AR"},"countryName":"United States","fcodeName":"populated place","adminName1":"Arkansas","lat":"36.11951","fcode":"PPL"},{"adminCode1":"KS","lng":"-97.53644","geonameId":4269847,"toponymName":"Colwich","countryId":"6252001","fcl":"P","population":1378,"countryCode":"US","name":"Colwich","fclName":"city, village,...","adminCodes1":{"ISO3166_2":"KS"},"countryName":"United States","fcodeName":"populated place","adminName1":"Kansas","lat":"37.77918","fcode":"PPL"},{"adminCode1":"IN","lng":"-86.91684","geonameId":4256263,"toponymName":"Crawfordsville Municipal Airport","countryId":"6252001","fcl":"S","population":0,"countryCode":"US","name":"Crawfordsville Municipal Airport","fclName":"spot, building, farm","adminCodes1":{"ISO3166_2":"IN"},"countryName":"United States","fcodeName":"airport","adminName1":"Indiana","lat":"39.98045","fcode":"AIRP"},{"adminCode1":"IN","lng":"-87.58113","geonameId":4257617,"toponymName":"Fort Branch","countryId":"6252001","fcl":"P","population":2809,"countryCode":"US","name":"Fort Branch","fclName":"city, village,...","adminCodes1":{"ISO3166_2":"IN"},"countryName":"United States","fcodeName":"populated place","adminName1":"Indiana","lat":"38.25116","fcode":"PPL"},{"adminCode1":"IA","lng":"-95.68807","geonameId":4870823,"toponymName":"Paullina","countryId":"6252001","fcl":"P","population":1017,"countryCode":"US","name":"Paullina","fclName":"city, village,...","adminCodes1":{"ISO3166_2":"IA"},"countryName":"United States","fcodeName":"populated place","adminName1":"Iowa","lat":"42.97915","fcode":"PPL"},{"adminCode1":"NE","lng":"-96.39725","geonameId":5082363,"toponymName":"Yutan","countryId":"6252001","fcl":"P","population":1212,"countryCode":"US","name":"Yutan","fclName":"city, village,...","adminCodes1":{"ISO3166_2":"NE"},"countryName":"United States","fcodeName":"populated place","adminName1":"Nebraska","lat":"41.245","fcode":"PPL"},{"adminCode1":"IA","lng":"-94.67748","geonameId":4852589,"toponymName":"Coon Rapids","countryId":"6252001","fcl":"P","population":1269,"countryCode":"US","name":"Coon Rapids","fclName":"city, village,...","adminCodes1":{"ISO3166_2":"IA"},"countryName":"United States","fcodeName":"populated place","adminName1":"Iowa","lat":"41.87082","fcode":"PPL"},{"adminCode1":"OH","lng":"-82.26016","geonameId":5151688,"toponymName":"Danville","countryId":"6252001","fcl":"P","population":1018,"countryCode":"US","name":"Danville","fclName":"city, village,...","adminCodes1":{"ISO3166_2":"OH"},"countryName":"United States","fcodeName":"populated place","adminName1":"Ohio","lat":"40.44756","fcode":"PPL"},{"adminCode1":"OH","lng":"-84.19939","geonameId":5159421,"toponymName":"Kalida","countryId":"6252001","fcl":"P","population":1562,"countryCode":"US","name":"Kalida","fclName":"city, village,...","adminCodes1":{"ISO3166_2":"OH"},"countryName":"United States","fcodeName":"populated place","adminName1":"Ohio","lat":"40.98283","fcode":"PPL"},{"adminCode1":"OH","lng":"-81.01926","geonameId":5160037,"toponymName":"Lafferty","countryId":"6252001","fcl":"P","population":304,"countryCode":"US","name":"Lafferty","fclName":"city, village,...","adminCodes1":{"ISO3166_2":"OH"},"countryName":"United States","fcodeName":"populated place","adminName1":"Ohio","lat":"40.11174","fcode":"PPL"},{"adminCode1":"OH","lng":"-82.19405","geonameId":5148241,"toponymName":"Brinkhaven","countryId":"6252001","fcl":"P","population":193,"countryCode":"US","name":"Brinkhaven","fclName":"city, village,...","adminCodes1":{"ISO3166_2":"OH"},"countryName":"United States","fcodeName":"populated place","adminName1":"Ohio","lat":"40.46951","fcode":"PPL"},{"adminCode1":"OH","lng":"-81.8393","geonameId":5145894,"toponymName":"Apple Creek","countryId":"6252001","fcl":"P","population":1184,"countryCode":"US","name":"Apple Creek","fclName":"city, village,...","adminCodes1":{"ISO3166_2":"OH"},"countryName":"United States","fcodeName":"populated place","adminName1":"Ohio","lat":"40.75172","fcode":"PPL"},{"adminCode1":"IN","lng":"-85.05886","geonameId":4917712,"toponymName":"Auburn","countryId":"6252001","fcl":"P","population":12979,"countryCode":"US","name":"Auburn","fclName":"city, village,...","adminCodes1":{"ISO3166_2":"IN"},"countryName":"United States","fcodeName":"seat of a second-order administrative division","adminName1":"Indiana","lat":"41.36699","fcode":"PPLA2"},{"adminCode1":"IN","lng":"-86.87445","geonameId":4919381,"toponymName":"Crawfordsville","countryId":"6252001","fcl":"P","population":16024,"countryCode":"US","name":"Crawfordsville","fclName":"city, village,...","adminCodes1":{"ISO3166_2":"IN"},"countryName":"United States","fcodeName":"seat of a second-order administrative division","adminName1":"Indiana","lat":"40.04115","fcode":"PPLA2"},{"adminCode1":"IN","lng":"-85.3508","geonameId":4919907,"toponymName":"Eaton","countryId":"6252001","fcl":"P","population":1748,"countryCode":"US","name":"Eaton","fclName":"city, village,...","adminCodes1":{"ISO3166_2":"IN"},"countryName":"United States","fcodeName":"populated place","adminName1":"Indiana","lat":"40.34032","fcode":"PPL"},{"adminCode1":"IN","lng":"-86.76498","geonameId":4928185,"toponymName":"White County Airport","countryId":"6252001","fcl":"S","population":0,"countryCode":"US","name":"White County Airport","fclName":"spot, building, farm","adminCodes1":{"ISO3166_2":"IN"},"countryName":"United States","fcodeName":"airport","adminName1":"Indiana","lat":"40.70986","fcode":"AIRP"},{"adminCode1":"IN","lng":"-86.69169","geonameId":4922329,"toponymName":"Kingsford Heights","countryId":"6252001","fcl":"P","population":1421,"countryCode":"US","name":"Kingsford Heights","fclName":"city, village,...","adminCodes1":{"ISO3166_2":"IN"},"countryName":"United States","fcodeName":"populated place","adminName1":"Indiana","lat":"41.4806","fcode":"PPL"},{"adminCode1":"IN","lng":"-85.00468","geonameId":4255066,"toponymName":"Brownsville","countryId":"6252001","fcl":"P","population":0,"countryCode":"US","name":"Brownsville","fclName":"city, village,...","adminCodes1":{"ISO3166_2":"IN"},"countryName":"United States","fcodeName":"populated place","adminName1":"Indiana","lat":"39.66449","fcode":"PPL"},{"adminCode1":"IN","lng":"-84.93107","geonameId":4260329,"toponymName":"Liberty","countryId":"6252001","fcl":"P","population":2038,"countryCode":"US","name":"Liberty","fclName":"city, village,...","adminCodes1":{"ISO3166_2":"IN"},"countryName":"United States","fcodeName":"seat of a second-order administrative division","adminName1":"Indiana","lat":"39.6356","fcode":"PPLA2"},{"adminCode1":"OH","lng":"-83.02906","geonameId":4528051,"toponymName":"West Portsmouth","countryId":"6252001","fcl":"P","population":3149,"countryCode":"US","name":"West Portsmouth","fclName":"city, village,...","adminCodes1":{"ISO3166_2":"OH"},"countryName":"United States","fcodeName":"populated place","adminName1":"Ohio","lat":"38.75841","fcode":"PPL"},{"adminCode1":"PA","lng":"-76.85524","geonameId":5219775,"toponymName":"Winfield","countryId":"6252001","fcl":"P","population":900,"countryCode":"US","name":"Winfield","fclName":"city, village,...","adminCodes1":{"ISO3166_2":"PA"},"countryName":"United States","fcodeName":"populated place","adminName1":"Pennsylvania","lat":"40.90925","fcode":"PPL"},{"adminCode1":"NC","lng":"-80.66868","geonameId":4479702,"toponymName":"Mineral Springs","countryId":"6252001","fcl":"P","population":2908,"countryCode":"US","name":"Mineral Springs","fclName":"city, village,...","adminCodes1":{"ISO3166_2":"NC"},"countryName":"United States","fcodeName":"populated place","adminName1":"North Carolina","lat":"34.93793","fcode":"PPL"},{"adminCode1":"NC","lng":"-80.61868","geonameId":4479947,"toponymName":"Charlotte\u2013Monroe Executive Airport","countryId":"6252001","fcl":"S","population":0,"countryCode":"US","name":"Charlotte\u2013Monroe Executive Airport","fclName":"spot, building, farm","adminCodes1":{"ISO3166_2":"NC"},"countryName":"United States","fcodeName":"airport","adminName1":"North Carolina","lat":"35.02043","fcode":"AIRP"},{"adminCode1":"NC","lng":"-80.36701","geonameId":4478116,"toponymName":"Marshville","countryId":"6252001","fcl":"P","population":2638,"countryCode":"US","name":"Marshville","fclName":"city, village,...","adminCodes1":{"ISO3166_2":"NC"},"countryName":"United States","fcodeName":"populated place","adminName1":"North Carolina","lat":"34.98849","fcode":"PPL"},{"adminCode1":"NC","lng":"-80.68618","geonameId":4493186,"toponymName":"Stallings","countryId":"6252001","fcl":"P","population":15270,"countryCode":"US","name":"Stallings","fclName":"city, village,...","adminCodes1":{"ISO3166_2":"NC"},"countryName":"United States","fcodeName":"populated place","adminName1":"North Carolina","lat":"35.0907","fcode":"PPL"},{"adminCode1":"NC","lng":"-80.7609","geonameId":4497956,"toponymName":"Weddington","countryId":"6252001","fcl":"P","population":10531,"countryCode":"US","name":"Weddington","fclName":"city, village,...","adminCodes1":{"ISO3166_2":"NC"},"countryName":"United States","fcodeName":"populated place","adminName1":"North Carolina","lat":"35.02237","fcode":"PPL"},{"adminCode1":"NC","lng":"-80.44923","geonameId":4499573,"toponymName":"Wingate","countryId":"6252001","fcl":"P","population":3854,"countryCode":"US","name":"Wingate","fclName":"city, village,...","adminCodes1":{"ISO3166_2":"NC"},"countryName":"United States","fcodeName":"populated place","adminName1":"North Carolina","lat":"34.98432","fcode":"PPL"},{"adminCode1":"NC","lng":"-80.53757","geonameId":4465711,"toponymName":"Fairview","countryId":"6252001","fcl":"P","population":3684,"countryCode":"US","name":"Fairview","fclName":"city, village,...","adminCodes1":{"ISO3166_2":"NC"},"countryName":"United States","fcodeName":"populated place","adminName1":"North Carolina","lat":"35.13848","fcode":"PPL"},{"adminCode1":"PA","lng":"-76.8983","geonameId":5178141,"toponymName":"Allenwood","countryId":"6252001","fcl":"P","population":321,"countryCode":"US","name":"Allenwood","fclName":"city, village,...","adminCodes1":{"ISO3166_2":"PA"},"countryName":"United States","fcodeName":"populated place","adminName1":"Pennsylvania","lat":"41.10758","fcode":"PPL"},{"adminCode1":"PA","lng":"-79.70199","geonameId":4558703,"toponymName":"Hopwood","countryId":"6252001","fcl":"P","population":2090,"countryCode":"US","name":"Hopwood","fclName":"city, village,...","adminCodes1":{"ISO3166_2":"PA"},"countryName":"United States","fcodeName":"populated place","adminName1":"Pennsylvania","lat":"39.87702","fcode":"PPL"},{"adminCode1":"PA","lng":"-79.71782","geonameId":4560152,"toponymName":"Oliver","countryId":"6252001","fcl":"P","population":2535,"countryCode":"US","name":"Oliver","fclName":"city, village,...","adminCodes1":{"ISO3166_2":"PA"},"countryName":"United States","fcodeName":"populated place","adminName1":"Pennsylvania","lat":"39.91869","fcode":"PPL"},{"adminCode1":"PA","lng":"-80.4131","geonameId":5203131,"toponymName":"New Castle Municipal Airport","countryId":"6252001","fcl":"S","population":0,"countryCode":"US","name":"New Castle Municipal Airport","fclName":"spot, building, farm","adminCodes1":{"ISO3166_2":"PA"},"countryName":"United States","fcodeName":"airport","adminName1":"Pennsylvania","lat":"41.02474","fcode":"AIRP"},{"adminCode1":"MO","lng":"-91.49765","geonameId":5055815,"toponymName":"La Grange","countryId":"6252001","fcl":"P","population":939,"countryCode":"US","name":"La Grange","fclName":"city, village,...","adminCodes1":{"ISO3166_2":"MO"},"countryName":"United States","fcodeName":"populated place","adminName1":"Missouri","lat":"40.04282","fcode":"PPL"},{"adminCode1":"PA","lng":"-77.72555","geonameId":5179809,"toponymName":"Belleville","countryId":"6252001","fcl":"P","population":1827,"countryCode":"US","name":"Belleville","fclName":"city, village,...","adminCodes1":{"ISO3166_2":"PA"},"countryName":"United States","fcodeName":"populated place","adminName1":"Pennsylvania","lat":"40.60507","fcode":"PPL"},{"adminCode1":"PA","lng":"-79.99588","geonameId":5190870,"toponymName":"Gastonville","countryId":"6252001","fcl":"P","population":2818,"countryCode":"US","name":"Gastonville","fclName":"city, village,...","adminCodes1":{"ISO3166_2":"PA"},"countryName":"United States","fcodeName":"populated place","adminName1":"Pennsylvania","lat":"40.25729","fcode":"PPL"},{"adminCode1":"PA","lng":"-77.14081","geonameId":5201431,"toponymName":"Millmont","countryId":"6252001","fcl":"P","population":0,"countryCode":"US","name":"Millmont","fclName":"city, village,...","adminCodes1":{"ISO3166_2":"PA"},"countryName":"United States","fcodeName":"populated place","adminName1":"Pennsylvania","lat":"40.88591","fcode":"PPL"}]}
