{"totalResultsCount":1300,"geonames":[{"adminCode1":"NV","lng":"-114.53304","geonameId":5514329,"toponymName":"Valley of Fire State Park","countryId":"6252001","fcl":"L","population":0,"countryCode":"US","name":"Valley of Fire State Park","fclName":"parks,area, ...","adminCodes1":{"ISO3166_2":"NV"},"countryName":"United States","fcodeName":"park","adminName1":"Nevada","lat":"36.45609","fcode":"PRK"},{"adminCode1":"CA","lng":"-122.51271","geonameId":11002612,"toponymName":"Ocean Beach Fire Pits","countryId":"6252001","fcl":"L","population":0,"countryCode":"US","name":"Ocean Beach Fire Pits","fclName":"parks,area, ...","adminCodes1":{"ISO3166_2":"CA"},"countryName":"United States","fcodeName":"amusement park","adminName1":"California","lat":"37.76921","fcode":"AMUS"},{"adminCode1":"TN","lng":"-83.63949","geonameId":8098036,"toponymName":"Wears Valley Volunteer Fire Department","countryId":"6252001","fcl":"S","population":0,"countryCode":"US","name":"Wears Valley Volunteer Fire Department","fclName":"spot, building, farm","adminCodes1":{"ISO3166_2":"TN"},"countryName":"United States","fcodeName":"building(s)","adminName1":"Tennessee","lat":"35.71858","fcode":"BLDG"},{"adminCode1":"UT","lng":"-111.4702","geonameId":5774743,"toponymName":"Fire Canyon","countryId":"6252001","fcl":"T","population":0,"countryCode":"US","name":"Fire Canyon","fclName":"mountain,hill,rock,... ","adminCodes1":{"ISO3166_2":"UT"},"countryName":"United States","fcodeName":"valley","adminName1":"Utah","lat":"41.00384","fcode":"VAL"},{"adminCode1":"CA","lng":"-114.90734","geonameId":8105607,"toponymName":"Chuckawalla Valley State Prison Fire Department","countryId":"6252001","fcl":"S","population":0,"countryCode":"US","name":"Chuckawalla Valley State Prison Fire Department","fclName":"spot, building, farm","adminCodes1":{"ISO3166_2":"CA"},"countryName":"United States","fcodeName":"building(s)","adminName1":"California","lat":"33.5655","fcode":"BLDG"},{"adminCode1":"CA","lng":"-123.19393","geonameId":7722432,"toponymName":"Seiad Valley Fire Company","countryId":"6252001","fcl":"S","population":0,"countryCode":"US","name":"Seiad Valley Fire Company","fclName":"spot, building, farm","adminCodes1":{"ISO3166_2":"CA"},"countryName":"United States","fcodeName":"building(s)","adminName1":"California","lat":"41.84146","fcode":"BLDG"},{"adminCode1":"CA","lng":"-120.24923","geonameId":7724823,"toponymName":"Pleasant Valley State Prison Fire Department","countryId":"6252001","fcl":"S","population":0,"countryCode":"US","name":"Pleasant Valley State Prison Fire Department","fclName":"spot, building, farm","adminCodes1":{"ISO3166_2":"CA"},"countryName":"United States","fcodeName":"building(s)","adminName1":"California","lat":"36.13688","fcode":"BLDG"},{"adminCode1":"ID","lng":"-113.95119","geonameId":5593665,"toponymName":"Friedorf Gulch","countryId":"6252001","fcl":"T","population":0,"countryCode":"US","name":"Friedorf Gulch","fclName":"mountain,hill,rock,... ","adminCodes1":{"ISO3166_2":"ID"},"countryName":"United States","fcodeName":"valley","adminName1":"Idaho","lat":"45.56159","fcode":"VAL"},{"adminCode1":"WY","lng":"-105.94556","geonameId":5825070,"toponymName":"Fire Canyon","countryId":"6252001","fcl":"T","population":0,"countryCode":"US","name":"Fire Canyon","fclName":"mountain,hill,rock,... ","adminCodes1":{"ISO3166_2":"WY"},"countryName":"United States","fcodeName":"valley","adminName1":"Wyoming","lat":"42.5283","fcode":"VAL"},{"adminCode1":"CO","lng":"-107.46395","geonameId":5421793,"toponymName":"Fire Park Draw","countryId":"6252001","fcl":"T","population":0,"countryCode":"US","name":"Fire Park Draw","fclName":"mountain,hill,rock,... ","adminCodes1":{"ISO3166_2":"CO"},"countryName":"United States","fcodeName":"valley","adminName1":"Colorado","lat":"38.27694","fcode":"VAL"},{"adminCode1":"MT","lng":"-111.1743","geonameId":5639371,"toponymName":"Central Valley Fire District Station 1 Headquarters","countryId":"6252001","fcl":"S","population":0,"countryCode":"US","name":"Central Valley Fire District Station 1 Headquarters","fclName":"spot, building, farm","adminCodes1":{"ISO3166_2":"MT"},"countryName":"United States","fcodeName":"building(s)","adminName1":"Montana","lat":"45.7751","fcode":"BLDG"},{"adminCode1":"MD","lng":"-77.04931","geonameId":6342446,"toponymName":"Carroll County Fire Department Station 6 Pleasant Valley Fire Company","countryId":"6252001","fcl":"S","population":0,"countryCode":"US","name":"Carroll County Fire Department Station 6 Pleasant Valley Fire Company","fclName":"spot, building, farm","adminCodes1":{"ISO3166_2":"MD"},"countryName":"United States","fcodeName":"building(s)","adminName1":"Maryland","lat":"39.63254","fcode":"BLDG"},{"adminCode1":"MT","lng":"-114.43536","geonameId":5678507,"toponymName":"Smith Valley Fire Department Station 1","countryId":"6252001","fcl":"S","population":0,"countryCode":"US","name":"Smith Valley Fire Department Station 1","fclName":"spot, building, farm","adminCodes1":{"ISO3166_2":"MT"},"countryName":"United States","fcodeName":"building(s)","adminName1":"Montana","lat":"48.15743","fcode":"BLDG"},{"adminCode1":"VA","lng":"-77.10877","geonameId":4758799,"toponymName":"Alexandria Fire Department Station 206 Seminary Valley","countryId":"6252001","fcl":"S","population":0,"countryCode":"US","name":"Alexandria Fire Department Station 206 Seminary Valley","fclName":"spot, building, farm","adminCodes1":{"ISO3166_2":"VA"},"countryName":"United States","fcodeName":"building(s)","adminName1":"Virginia","lat":"38.82664","fcode":"BLDG"},{"adminCode1":"VA","lng":"-77.08727","geonameId":4744099,"toponymName":"Alexandria Fire Department Station 207 Cameron Valley","countryId":"6252001","fcl":"S","population":0,"countryCode":"US","name":"Alexandria Fire Department Station 207 Cameron Valley","fclName":"spot, building, farm","adminCodes1":{"ISO3166_2":"VA"},"countryName":"United States","fcodeName":"building(s)","adminName1":"Virginia","lat":"38.80862","fcode":"BLDG"},{"adminCode1":"MT","lng":"-113.14046","geonameId":5649159,"toponymName":"Valley Rural Fire Department","countryId":"6252001","fcl":"S","population":0,"countryCode":"US","name":"Valley Rural Fire Department","fclName":"spot, building, farm","adminCodes1":{"ISO3166_2":"MT"},"countryName":"United States","fcodeName":"building(s)","adminName1":"Montana","lat":"46.66523","fcode":"BLDG"},{"adminCode1":"PA","lng":"-77.40213","geonameId":6340580,"toponymName":"Buchanan Valley Volunteer Fire Department Station 27","countryId":"6252001","fcl":"S","population":0,"countryCode":"US","name":"Buchanan Valley Volunteer Fire Department Station 27","fclName":"spot, building, farm","adminCodes1":{"ISO3166_2":"PA"},"countryName":"United States","fcodeName":"building(s)","adminName1":"Pennsylvania","lat":"39.92323","fcode":"BLDG"},{"adminCode1":"PA","lng":"-75.06178","geonameId":7148164,"toponymName":"Huntingdon Valley Fire Company 1 Station 8","countryId":"6252001","fcl":"S","population":0,"countryCode":"US","name":"Huntingdon Valley Fire Company 1 Station 8","fclName":"spot, building, farm","adminCodes1":{"ISO3166_2":"PA"},"countryName":"United States","fcodeName":"building(s)","adminName1":"Pennsylvania","lat":"40.12429","fcode":"BLDG"},{"adminCode1":"PA","lng":"-79.87581","geonameId":8092353,"toponymName":"Oakland Township - Oneida Valley Volunteer Fire Company","countryId":"6252001","fcl":"S","population":0,"countryCode":"US","name":"Oakland Township - Oneida Valley Volunteer Fire Company","fclName":"spot, building, farm","adminCodes1":{"ISO3166_2":"PA"},"countryName":"United States","fcodeName":"building(s)","adminName1":"Pennsylvania","lat":"40.8937","fcode":"BLDG"},{"adminCode1":"CA","lng":"-117.92885","geonameId":5350213,"toponymName":"Fountain Valley Fire Department Station 2","countryId":"6252001","fcl":"S","population":0,"countryCode":"US","name":"Fountain Valley Fire Department Station 2","fclName":"spot, building, farm","adminCodes1":{"ISO3166_2":"CA"},"countryName":"United States","fcodeName":"building(s)","adminName1":"California","lat":"33.71986","fcode":"BLDG"},{"adminCode1":"WA","lng":"-122.29474","geonameId":7713738,"toponymName":"Seattle Fire Department Station 30 Rainier Valley and Coleman Park","countryId":"6252001","fcl":"S","population":0,"countryCode":"US","name":"Seattle Fire Department Station 30 Rainier Valley and Coleman Park","fclName":"spot, building, farm","adminCodes1":{"ISO3166_2":"WA"},"countryName":"United States","fcodeName":"building(s)","adminName1":"Washington","lat":"47.57561","fcode":"BLDG"},{"adminCode1":"MD","lng":"-77.2671","geonameId":7701642,"toponymName":"Frederick County Volunteer Fire and Rescue Station 25 New Market - Green Valley","countryId":"6252001","fcl":"S","population":0,"countryCode":"US","name":"Frederick County Volunteer Fire and Rescue Station 25 New Market - Green Valley","fclName":"spot, building, farm","adminCodes1":{"ISO3166_2":"MD"},"countryName":"United States","fcodeName":"building(s)","adminName1":"Maryland","lat":"39.34471","fcode":"BLDG"},{"adminCode1":"NM","lng":"-105.46665","geonameId":5467550,"toponymName":"Fire Canyon","countryId":"6252001","fcl":"T","population":0,"countryCode":"US","name":"Fire Canyon","fclName":"mountain,hill,rock,... ","adminCodes1":{"ISO3166_2":"NM"},"countryName":"United States","fcodeName":"valley","adminName1":"New Mexico","lat":"32.94843","fcode":"VAL"},{"adminCode1":"NM","lng":"-107.26004","geonameId":5467551,"toponymName":"Fire Canyon","countryId":"6252001","fcl":"T","population":0,"countryCode":"US","name":"Fire Canyon","fclName":"mountain,hill,rock,... ","adminCodes1":{"ISO3166_2":"NM"},"countryName":"United States","fcodeName":"valley","adminName1":"New Mexico","lat":"36.70973","fcode":"VAL"},{"adminCode1":"CA","lng":"-122.39041","geonameId":7724964,"toponymName":"Chevron Fire Department at the Richmond Refinery","countryId":"6252001","fcl":"S","population":0,"countryCode":"US","name":"Chevron Fire Department at the Richmond Refinery","fclName":"spot, building, farm","adminCodes1":{"ISO3166_2":"CA"},"countryName":"United States","fcodeName":"building(s)","adminName1":"California","lat":"37.93163","fcode":"BLDG"},{"adminCode1":"NV","lng":"-114.39748","geonameId":5504054,"toponymName":"Valley of Fire","countryId":"6252001","fcl":"T","population":0,"countryCode":"US","name":"Valley of Fire","fclName":"mountain,hill,rock,... ","adminCodes1":{"ISO3166_2":"NV"},"countryName":"United States","fcodeName":"valley","adminName1":"Nevada","lat":"36.40109","fcode":"VAL"},{"adminCode1":"OR","lng":"-122.53078","geonameId":7310644,"toponymName":"Clackamas Fire District Number 1 Station 6 Happy Valley","countryId":"6252001","fcl":"S","population":0,"countryCode":"US","name":"Clackamas Fire District Number 1 Station 6 Happy Valley","fclName":"spot, building, farm","adminCodes1":{"ISO3166_2":"OR"},"countryName":"United States","fcodeName":"building(s)","adminName1":"Oregon","lat":"45.44735","fcode":"BLDG"},{"adminCode1":"OR","lng":"-122.48618","geonameId":7310858,"toponymName":"Clackamas Fire District Number 1 Station 7 Pleasant Valley","countryId":"6252001","fcl":"S","population":0,"countryCode":"US","name":"Clackamas Fire District Number 1 Station 7 Pleasant Valley","fclName":"spot, building, farm","adminCodes1":{"ISO3166_2":"OR"},"countryName":"United States","fcodeName":"building(s)","adminName1":"Oregon","lat":"45.44367","fcode":"BLDG"},{"adminCode1":"PA","lng":"-76.00194","geonameId":6340468,"toponymName":"Weaverland Valley Fire Deptment Station 30 - South Station","countryId":"6252001","fcl":"S","population":0,"countryCode":"US","name":"Weaverland Valley Fire Deptment Station 30 - South Station","fclName":"spot, building, farm","adminCodes1":{"ISO3166_2":"PA"},"countryName":"United States","fcodeName":"building(s)","adminName1":"Pennsylvania","lat":"40.12604","fcode":"BLDG"},{"adminCode1":"PA","lng":"-75.85715","geonameId":7148957,"toponymName":"Westwood Fire Company Station 44","countryId":"6252001","fcl":"S","population":0,"countryCode":"US","name":"Westwood Fire Company Station 44","fclName":"spot, building, farm","adminCodes1":{"ISO3166_2":"PA"},"countryName":"United States","fcodeName":"building(s)","adminName1":"Pennsylvania","lat":"39.97129","fcode":"BLDG"},{"adminCode1":"MT","lng":"-106.62139","geonameId":5654327,"toponymName":"Glasgow Fire Department North Side Fire Hall","countryId":"6252001","fcl":"S","population":0,"countryCode":"US","name":"Glasgow Fire Department North Side Fire Hall","fclName":"spot, building, farm","adminCodes1":{"ISO3166_2":"MT"},"countryName":"United States","fcodeName":"building(s)","adminName1":"Montana","lat":"48.19603","fcode":"BLDG"},{"adminCode1":"CA","lng":"-122.26219","geonameId":5335521,"toponymName":"Redwood City Fire Department Station 13","countryId":"6252001","fcl":"S","population":0,"countryCode":"US","name":"Redwood City Fire Department Station 13","fclName":"spot, building, farm","adminCodes1":{"ISO3166_2":"CA"},"countryName":"United States","fcodeName":"building(s)","adminName1":"California","lat":"37.50764","fcode":"BLDG"},{"adminCode1":"CT","lng":"-72.07883","geonameId":7178525,"toponymName":"City of Groton Fire Department Station 1","countryId":"6252001","fcl":"S","population":0,"countryCode":"US","name":"City of Groton Fire Department Station 1","fclName":"spot, building, farm","adminCodes1":{"ISO3166_2":"CT"},"countryName":"United States","fcodeName":"building(s)","adminName1":"Connecticut","lat":"41.3604","fcode":"BLDG"},{"adminCode1":"PA","lng":"-79.80237","geonameId":8092292,"toponymName":"Springdale Township Volunteer Fire Department Station 81","countryId":"6252001","fcl":"S","population":0,"countryCode":"US","name":"Springdale Township Volunteer Fire Department Station 81","fclName":"spot, building, farm","adminCodes1":{"ISO3166_2":"PA"},"countryName":"United States","fcodeName":"building(s)","adminName1":"Pennsylvania","lat":"40.54957","fcode":"BLDG"},{"adminCode1":"CA","lng":"-122.03916","geonameId":7122150,"toponymName":"Alameda County Fire Department Station 31","countryId":"6252001","fcl":"S","population":0,"countryCode":"US","name":"Alameda County Fire Department Station 31","fclName":"spot, building, farm","adminCodes1":{"ISO3166_2":"CA"},"countryName":"United States","fcodeName":"building(s)","adminName1":"California","lat":"37.59425","fcode":"BLDG"},{"adminCode1":"CA","lng":"-122.07445","geonameId":7122151,"toponymName":"Alameda County Fire Department Station 32","countryId":"6252001","fcl":"S","population":0,"countryCode":"US","name":"Alameda County Fire Department Station 32","fclName":"spot, building, farm","adminCodes1":{"ISO3166_2":"CA"},"countryName":"United States","fcodeName":"building(s)","adminName1":"California","lat":"37.59264","fcode":"BLDG"},{"adminCode1":"CA","lng":"-122.01577","geonameId":7122152,"toponymName":"Alameda County Fire Department Station 33","countryId":"6252001","fcl":"S","population":0,"countryCode":"US","name":"Alameda County Fire Department Station 33","fclName":"spot, building, farm","adminCodes1":{"ISO3166_2":"CA"},"countryName":"United States","fcodeName":"building(s)","adminName1":"California","lat":"37.59776","fcode":"BLDG"},{"adminCode1":"CA","lng":"-122.06955","geonameId":7122153,"toponymName":"Alameda County Fire Department Station 30","countryId":"6252001","fcl":"S","population":0,"countryCode":"US","name":"Alameda County Fire Department Station 30","fclName":"spot, building, farm","adminCodes1":{"ISO3166_2":"CA"},"countryName":"United States","fcodeName":"building(s)","adminName1":"California","lat":"37.5658","fcode":"BLDG"},{"adminCode1":"CA","lng":"-122.04035","geonameId":7122172,"toponymName":"Alameda County Fire Department Station 28","countryId":"6252001","fcl":"S","population":0,"countryCode":"US","name":"Alameda County Fire Department Station 28","fclName":"spot, building, farm","adminCodes1":{"ISO3166_2":"CA"},"countryName":"United States","fcodeName":"building(s)","adminName1":"California","lat":"37.52896","fcode":"BLDG"},{"adminCode1":"CA","lng":"-122.04026","geonameId":7122173,"toponymName":"Alameda County Fire Department Station 29","countryId":"6252001","fcl":"S","population":0,"countryCode":"US","name":"Alameda County Fire Department Station 29","fclName":"spot, building, farm","adminCodes1":{"ISO3166_2":"CA"},"countryName":"United States","fcodeName":"building(s)","adminName1":"California","lat":"37.54614","fcode":"BLDG"},{"adminCode1":"CA","lng":"-122.00971","geonameId":7122174,"toponymName":"Alameda County Fire Department Station 27","countryId":"6252001","fcl":"S","population":0,"countryCode":"US","name":"Alameda County Fire Department Station 27","fclName":"spot, building, farm","adminCodes1":{"ISO3166_2":"CA"},"countryName":"United States","fcodeName":"building(s)","adminName1":"California","lat":"37.52014","fcode":"BLDG"},{"adminCode1":"CA","lng":"-122.25409","geonameId":7122414,"toponymName":"Redwood City Fire Department Station 12","countryId":"6252001","fcl":"S","population":0,"countryCode":"US","name":"Redwood City Fire Department Station 12","fclName":"spot, building, farm","adminCodes1":{"ISO3166_2":"CA"},"countryName":"United States","fcodeName":"building(s)","adminName1":"California","lat":"37.4653","fcode":"BLDG"},{"adminCode1":"CA","lng":"-122.20061","geonameId":7122415,"toponymName":"Redwood City Fire Department Station 11","countryId":"6252001","fcl":"S","population":0,"countryCode":"US","name":"Redwood City Fire Department Station 11","fclName":"spot, building, farm","adminCodes1":{"ISO3166_2":"CA"},"countryName":"United States","fcodeName":"building(s)","adminName1":"California","lat":"37.48456","fcode":"BLDG"},{"adminCode1":"CA","lng":"-122.23939","geonameId":7122416,"toponymName":"Redwood City Fire Department Station 10","countryId":"6252001","fcl":"S","population":0,"countryCode":"US","name":"Redwood City Fire Department Station 10","fclName":"spot, building, farm","adminCodes1":{"ISO3166_2":"CA"},"countryName":"United States","fcodeName":"building(s)","adminName1":"California","lat":"37.47491","fcode":"BLDG"},{"adminCode1":"WA","lng":"-122.27644","geonameId":7200231,"toponymName":"Seattle Fire Department Station 28","countryId":"6252001","fcl":"S","population":0,"countryCode":"US","name":"Seattle Fire Department Station 28","fclName":"spot, building, farm","adminCodes1":{"ISO3166_2":"WA"},"countryName":"United States","fcodeName":"building(s)","adminName1":"Washington","lat":"47.54875","fcode":"BLDG"},{"adminCode1":"CA","lng":"-122.31161","geonameId":5345632,"toponymName":"El Cerrito Fire Department","countryId":"6252001","fcl":"S","population":0,"countryCode":"US","name":"El Cerrito Fire Department","fclName":"spot, building, farm","adminCodes1":{"ISO3166_2":"CA"},"countryName":"United States","fcodeName":"building(s)","adminName1":"California","lat":"37.91635","fcode":"BLDG"},{"adminCode1":"CA","lng":"-122.29102","geonameId":5346464,"toponymName":"Alameda County Fire Department - Station 35","countryId":"6252001","fcl":"S","population":0,"countryCode":"US","name":"Alameda County Fire Department - Station 35","fclName":"spot, building, farm","adminCodes1":{"ISO3166_2":"CA"},"countryName":"United States","fcodeName":"building(s)","adminName1":"California","lat":"37.84417","fcode":"BLDG"},{"adminCode1":"CA","lng":"-122.30005","geonameId":5348245,"toponymName":"Napa Fire Department Station 2","countryId":"6252001","fcl":"S","population":0,"countryCode":"US","name":"Napa Fire Department Station 2","fclName":"spot, building, farm","adminCodes1":{"ISO3166_2":"CA"},"countryName":"United States","fcodeName":"building(s)","adminName1":"California","lat":"38.31183","fcode":"BLDG"},{"adminCode1":"CA","lng":"-122.25479","geonameId":5348259,"toponymName":"Alameda City Fire Department Station 3","countryId":"6252001","fcl":"S","population":0,"countryCode":"US","name":"Alameda City Fire Department Station 3","fclName":"spot, building, farm","adminCodes1":{"ISO3166_2":"CA"},"countryName":"United States","fcodeName":"building(s)","adminName1":"California","lat":"37.77392","fcode":"BLDG"},{"adminCode1":"CA","lng":"-122.18565","geonameId":5348283,"toponymName":"Menlo Park Fire Protection District Station 6","countryId":"6252001","fcl":"S","population":0,"countryCode":"US","name":"Menlo Park Fire Protection District Station 6","fclName":"spot, building, farm","adminCodes1":{"ISO3166_2":"CA"},"countryName":"United States","fcodeName":"building(s)","adminName1":"California","lat":"37.45321","fcode":"BLDG"},{"adminCode1":"CA","lng":"-122.16618","geonameId":5404844,"toponymName":"Palo Alto Fire Department Station 1","countryId":"6252001","fcl":"S","population":0,"countryCode":"US","name":"Palo Alto Fire Department Station 1","fclName":"spot, building, farm","adminCodes1":{"ISO3166_2":"CA"},"countryName":"United States","fcodeName":"building(s)","adminName1":"California","lat":"37.44518","fcode":"BLDG"},{"adminCode1":"CA","lng":"-122.29087","geonameId":5550270,"toponymName":"Napa Fire Department Station 1","countryId":"6252001","fcl":"S","population":0,"countryCode":"US","name":"Napa Fire Department Station 1","fclName":"spot, building, farm","adminCodes1":{"ISO3166_2":"CA"},"countryName":"United States","fcodeName":"building(s)","adminName1":"California","lat":"38.29684","fcode":"BLDG"},{"adminCode1":"NY","lng":"-74.05118","geonameId":7154361,"toponymName":"Spring Valley Volunteer Fire Department Columbian Engine Company 1","countryId":"6252001","fcl":"S","population":0,"countryCode":"US","name":"Spring Valley Volunteer Fire Department Columbian Engine Company 1","fclName":"spot, building, farm","adminCodes1":{"ISO3166_2":"NY"},"countryName":"United States","fcodeName":"building(s)","adminName1":"New York","lat":"41.11419","fcode":"BLDG"},{"adminCode1":"NY","lng":"-74.04559","geonameId":7154350,"toponymName":"Spring Valley Volunteer Fire Department Hook and Ladder Company 1","countryId":"6252001","fcl":"S","population":0,"countryCode":"US","name":"Spring Valley Volunteer Fire Department Hook and Ladder Company 1","fclName":"spot, building, farm","adminCodes1":{"ISO3166_2":"NY"},"countryName":"United States","fcodeName":"building(s)","adminName1":"New York","lat":"41.11157","fcode":"BLDG"},{"adminCode1":"MT","lng":"-105.76611","geonameId":5669138,"toponymName":"North Fork Fire Gulch","countryId":"6252001","fcl":"T","population":0,"countryCode":"US","name":"North Fork Fire Gulch","fclName":"mountain,hill,rock,... ","adminCodes1":{"ISO3166_2":"MT"},"countryName":"United States","fcodeName":"valley","adminName1":"Montana","lat":"45.28943","fcode":"VAL"},{"adminCode1":"MT","lng":"-105.69528","geonameId":5651919,"toponymName":"Fire Gulch","countryId":"6252001","fcl":"T","population":0,"countryCode":"US","name":"Fire Gulch","fclName":"mountain,hill,rock,... ","adminCodes1":{"ISO3166_2":"MT"},"countryName":"United States","fcodeName":"valley","adminName1":"Montana","lat":"45.2536","fcode":"VAL"},{"adminCode1":"MT","lng":"-109.92602","geonameId":5651920,"toponymName":"Fire Gulch","countryId":"6252001","fcl":"T","population":0,"countryCode":"US","name":"Fire Gulch","fclName":"mountain,hill,rock,... ","adminCodes1":{"ISO3166_2":"MT"},"countryName":"United States","fcodeName":"valley","adminName1":"Montana","lat":"45.60105","fcode":"VAL"},{"adminCode1":"MT","lng":"-114.27317","geonameId":5651921,"toponymName":"Fire Hole Canyon","countryId":"6252001","fcl":"T","population":0,"countryCode":"US","name":"Fire Hole Canyon","fclName":"mountain,hill,rock,... ","adminCodes1":{"ISO3166_2":"MT"},"countryName":"United States","fcodeName":"valley","adminName1":"Montana","lat":"47.30493","fcode":"VAL"},{"adminCode1":"MT","lng":"-105.69528","geonameId":5649337,"toponymName":"Dry Fork Fire Gulch","countryId":"6252001","fcl":"T","population":0,"countryCode":"US","name":"Dry Fork Fire Gulch","fclName":"mountain,hill,rock,... ","adminCodes1":{"ISO3166_2":"MT"},"countryName":"United States","fcodeName":"valley","adminName1":"Montana","lat":"45.2536","fcode":"VAL"},{"adminCode1":"UT","lng":"-111.46826","geonameId":5774742,"toponymName":"Fire Canyon","countryId":"6252001","fcl":"T","population":0,"countryCode":"US","name":"Fire Canyon","fclName":"mountain,hill,rock,... ","adminCodes1":{"ISO3166_2":"UT"},"countryName":"United States","fcodeName":"valley","adminName1":"Utah","lat":"41.00189","fcode":"VAL"},{"adminCode1":"OK","lng":"-98.37701","geonameId":4536424,"toponymName":"Fire Canyon","countryId":"6252001","fcl":"T","population":0,"countryCode":"US","name":"Fire Canyon","fclName":"mountain,hill,rock,... ","adminCodes1":{"ISO3166_2":"OK"},"countryName":"United States","fcodeName":"valley","adminName1":"Oklahoma","lat":"35.56838","fcode":"VAL"},{"adminCode1":"ID","lng":"-116.341","geonameId":5593033,"toponymName":"Fire Draw","countryId":"6252001","fcl":"T","population":0,"countryCode":"US","name":"Fire Draw","fclName":"mountain,hill,rock,... ","adminCodes1":{"ISO3166_2":"ID"},"countryName":"United States","fcodeName":"valley","adminName1":"Idaho","lat":"47.30325","fcode":"VAL"},{"adminCode1":"ID","lng":"-116.34847","geonameId":5593034,"toponymName":"Fire Gulch","countryId":"6252001","fcl":"T","population":0,"countryCode":"US","name":"Fire Gulch","fclName":"mountain,hill,rock,... ","adminCodes1":{"ISO3166_2":"ID"},"countryName":"United States","fcodeName":"valley","adminName1":"Idaho","lat":"44.88656","fcode":"VAL"},{"adminCode1":"MT","lng":"-106.63372","geonameId":5654328,"toponymName":"Glasgow Volunteer Fire Department","countryId":"6252001","fcl":"S","population":0,"countryCode":"US","name":"Glasgow Volunteer Fire Department","fclName":"spot, building, farm","adminCodes1":{"ISO3166_2":"MT"},"countryName":"United States","fcodeName":"building(s)","adminName1":"Montana","lat":"48.19269","fcode":"BLDG"},{"adminCode1":"NY","lng":"-74.04444","geonameId":7154357,"toponymName":"Spring Valley Volunteer Fire Department Rockland Hook and Ladder Company","countryId":"6252001","fcl":"S","population":0,"countryCode":"US","name":"Spring Valley Volunteer Fire Department Rockland Hook and Ladder Company","fclName":"spot, building, farm","adminCodes1":{"ISO3166_2":"NY"},"countryName":"United States","fcodeName":"building(s)","adminName1":"New York","lat":"41.11676","fcode":"BLDG"},{"adminCode1":"MT","lng":"-109.25818","geonameId":5675161,"toponymName":"Ryegate Volunteer Fire Department","countryId":"6252001","fcl":"S","population":0,"countryCode":"US","name":"Ryegate Volunteer Fire Department","fclName":"spot, building, farm","adminCodes1":{"ISO3166_2":"MT"},"countryName":"United States","fcodeName":"building(s)","adminName1":"Montana","lat":"46.29787","fcode":"BLDG"},{"adminCode1":"NE","lng":"-98.77458","geonameId":5074093,"toponymName":"North Loup Rural Fire Protection District","countryId":"6252001","fcl":"S","population":0,"countryCode":"US","name":"North Loup Rural Fire Protection District","fclName":"spot, building, farm","adminCodes1":{"ISO3166_2":"NE"},"countryName":"United States","fcodeName":"building(s)","adminName1":"Nebraska","lat":"41.49422","fcode":"BLDG"},{"adminCode1":"NE","lng":"-98.92902","geonameId":5074574,"toponymName":"Ord Volunteer Fire and Rescue","countryId":"6252001","fcl":"S","population":0,"countryCode":"US","name":"Ord Volunteer Fire and Rescue","fclName":"spot, building, farm","adminCodes1":{"ISO3166_2":"NE"},"countryName":"United States","fcodeName":"building(s)","adminName1":"Nebraska","lat":"41.60145","fcode":"BLDG"},{"adminCode1":"MT","lng":"-106.40857","geonameId":5670104,"toponymName":"Opheim Volunteer Fire Department","countryId":"6252001","fcl":"S","population":0,"countryCode":"US","name":"Opheim Volunteer Fire Department","fclName":"spot, building, farm","adminCodes1":{"ISO3166_2":"MT"},"countryName":"United States","fcodeName":"building(s)","adminName1":"Montana","lat":"48.85839","fcode":"BLDG"},{"adminCode1":"ID","lng":"-116.0999","geonameId":7719470,"toponymName":"McCall Fire Protection District","countryId":"6252001","fcl":"S","population":0,"countryCode":"US","name":"McCall Fire Protection District","fclName":"spot, building, farm","adminCodes1":{"ISO3166_2":"ID"},"countryName":"United States","fcodeName":"building(s)","adminName1":"Idaho","lat":"44.89816","fcode":"BLDG"},{"adminCode1":"FL","lng":"-82.68562","geonameId":7134900,"toponymName":"Pasco County Fire Rescue Station 29 / Magnolia Valley Volunteer Fire Department","countryId":"6252001","fcl":"S","population":0,"countryCode":"US","name":"Pasco County Fire Rescue Station 29 / Magnolia Valley Volunteer Fire Department","fclName":"spot, building, farm","adminCodes1":{"ISO3166_2":"FL"},"countryName":"United States","fcodeName":"building(s)","adminName1":"Florida","lat":"28.25963","fcode":"BLDG"},{"adminCode1":"CA","lng":"-122.14012","geonameId":5387639,"toponymName":"Palo Alto Fire Department Station 3 - Rinconada Station","countryId":"6252001","fcl":"S","population":0,"countryCode":"US","name":"Palo Alto Fire Department Station 3 - Rinconada Station","fclName":"spot, building, farm","adminCodes1":{"ISO3166_2":"CA"},"countryName":"United States","fcodeName":"building(s)","adminName1":"California","lat":"37.44334","fcode":"BLDG"},{"adminCode1":"CA","lng":"-121.84718","geonameId":7122400,"toponymName":"San Jose Fire Station 19 Battalion 21","countryId":"6252001","fcl":"S","population":0,"countryCode":"US","name":"San Jose Fire Station 19 Battalion 21","fclName":"spot, building, farm","adminCodes1":{"ISO3166_2":"CA"},"countryName":"United States","fcodeName":"building(s)","adminName1":"California","lat":"37.3992","fcode":"BLDG"},{"adminCode1":"IL","lng":"-89.89872","geonameId":8090068,"toponymName":"O'Fallon - Shiloh Valley - Caseyville Township Fire Protection District - Shiloh Station","countryId":"6252001","fcl":"S","population":0,"countryCode":"US","name":"O'Fallon - Shiloh Valley - Caseyville Township Fire Protection District - Shiloh Station","fclName":"spot, building, farm","adminCodes1":{"ISO3166_2":"IL"},"countryName":"United States","fcodeName":"building(s)","adminName1":"Illinois","lat":"38.56196","fcode":"BLDG"},{"adminCode1":"ID","lng":"-115.93512","geonameId":5607638,"toponymName":"Sloans Point Fire Trail (historical)","countryId":"6252001","fcl":"R","population":0,"countryCode":"US","name":"Sloans Point Fire Trail (historical)","fclName":"road, railroad ","adminCodes1":{"ISO3166_2":"ID"},"countryName":"United States","fcodeName":"trail","adminName1":"Idaho","lat":"44.73101","fcode":"TRL"},{"adminCode1":"ID","lng":"-115.92651","geonameId":5593348,"toponymName":"Foolhen Ridge Fire Trail (historical)","countryId":"6252001","fcl":"R","population":0,"countryCode":"US","name":"Foolhen Ridge Fire Trail (historical)","fclName":"road, railroad ","adminCodes1":{"ISO3166_2":"ID"},"countryName":"United States","fcodeName":"trail","adminName1":"Idaho","lat":"44.69434","fcode":"TRL"},{"adminCode1":"MT","lng":"-108.93902","geonameId":5661806,"toponymName":"Lavina Volunteer Fire Department and Emergency Medical Services","countryId":"6252001","fcl":"S","population":0,"countryCode":"US","name":"Lavina Volunteer Fire Department and Emergency Medical Services","fclName":"spot, building, farm","adminCodes1":{"ISO3166_2":"MT"},"countryName":"United States","fcodeName":"building(s)","adminName1":"Montana","lat":"46.29549","fcode":"BLDG"},{"adminCode1":"MN","lng":"-94.58834","geonameId":5046110,"toponymName":"Scandia Valley Fire Department","countryId":"6252001","fcl":"S","population":0,"countryCode":"US","name":"Scandia Valley Fire Department","fclName":"spot, building, farm","adminCodes1":{"ISO3166_2":"MN"},"countryName":"United States","fcodeName":"building(s)","adminName1":"Minnesota","lat":"46.2234","fcode":"BLDG"},{"adminCode1":"CO","lng":"-105.50699","geonameId":8256488,"toponymName":"Estes Valley Fire Protection District - Estes Park Fire Department Dannels Station","countryId":"6252001","fcl":"S","population":0,"countryCode":"US","name":"Estes Valley Fire Protection District - Estes Park Fire Department Dannels Station","fclName":"spot, building, farm","adminCodes1":{"ISO3166_2":"CO"},"countryName":"United States","fcodeName":"building(s)","adminName1":"Colorado","lat":"40.37627","fcode":"BLDG"},{"adminCode1":"NV","lng":"-119.77106","geonameId":7703411,"toponymName":"East Fork Fire and Paramedic Districts Station 12 Sunridge - Jacks Valley Volunteer Fire Department","countryId":"6252001","fcl":"S","population":0,"countryCode":"US","name":"East Fork Fire and Paramedic Districts Station 12 Sunridge - Jacks Valley Volunteer Fire Department","fclName":"spot, building, farm","adminCodes1":{"ISO3166_2":"NV"},"countryName":"United States","fcodeName":"building(s)","adminName1":"Nevada","lat":"39.10028","fcode":"BLDG"},{"adminCode1":"IL","lng":"-89.91982","geonameId":8089957,"toponymName":"O'Fallon - Shiloh Valley - Caseyville Township Fire Protection District","countryId":"6252001","fcl":"S","population":0,"countryCode":"US","name":"O'Fallon - Shiloh Valley - Caseyville Township Fire Protection District","fclName":"spot, building, farm","adminCodes1":{"ISO3166_2":"IL"},"countryName":"United States","fcodeName":"building(s)","adminName1":"Illinois","lat":"38.58899","fcode":"BLDG"},{"adminCode1":"MN","lng":"-94.54119","geonameId":5025234,"toponymName":"Eden Valley Fire and Rescue Department","countryId":"6252001","fcl":"S","population":0,"countryCode":"US","name":"Eden Valley Fire and Rescue Department","fclName":"spot, building, farm","adminCodes1":{"ISO3166_2":"MN"},"countryName":"United States","fcodeName":"building(s)","adminName1":"Minnesota","lat":"45.32065","fcode":"BLDG"},{"adminCode1":"MI","lng":"-84.91361","geonameId":7155439,"toponymName":"Boyne Valley Township Fire and Rescue","countryId":"6252001","fcl":"S","population":0,"countryCode":"US","name":"Boyne Valley Township Fire and Rescue","fclName":"spot, building, farm","adminCodes1":{"ISO3166_2":"MI"},"countryName":"United States","fcodeName":"building(s)","adminName1":"Michigan","lat":"45.17263","fcode":"BLDG"},{"adminCode1":"PA","lng":"-80.45761","geonameId":8093133,"toponymName":"Enon Valley Community Volunteer Fire Department / Enon Valley Ambulance","countryId":"6252001","fcl":"S","population":0,"countryCode":"US","name":"Enon Valley Community Volunteer Fire Department / Enon Valley Ambulance","fclName":"spot, building, farm","adminCodes1":{"ISO3166_2":"PA"},"countryName":"United States","fcodeName":"building(s)","adminName1":"Pennsylvania","lat":"40.85566","fcode":"BLDG"},{"adminCode1":"VA","lng":"-78.41594","geonameId":6342244,"toponymName":"Shenandoah County Fire and Rescue Station 14 - Fort Valley Volunteer Fire Department","countryId":"6252001","fcl":"S","population":0,"countryCode":"US","name":"Shenandoah County Fire and Rescue Station 14 - Fort Valley Volunteer Fire Department","fclName":"spot, building, farm","adminCodes1":{"ISO3166_2":"VA"},"countryName":"United States","fcodeName":"building(s)","adminName1":"Virginia","lat":"38.84409","fcode":"BLDG"},{"adminCode1":"VA","lng":"-77.53785","geonameId":6345708,"toponymName":"Loudoun County Fire and Rescue Arcola Pleasant Valley Volunteer Fire Department Station 9","countryId":"6252001","fcl":"S","population":0,"countryCode":"US","name":"Loudoun County Fire and Rescue Arcola Pleasant Valley Volunteer Fire Department Station 9","fclName":"spot, building, farm","adminCodes1":{"ISO3166_2":"VA"},"countryName":"United States","fcodeName":"building(s)","adminName1":"Virginia","lat":"38.94639","fcode":"BLDG"},{"adminCode1":"OH","lng":"-84.44152","geonameId":6341402,"toponymName":"Reading Fire Department Valley Station","countryId":"6252001","fcl":"S","population":0,"countryCode":"US","name":"Reading Fire Department Valley Station","fclName":"spot, building, farm","adminCodes1":{"ISO3166_2":"OH"},"countryName":"United States","fcodeName":"building(s)","adminName1":"Ohio","lat":"39.2239","fcode":"BLDG"},{"adminCode1":"CA","lng":"-122.01935","geonameId":7122286,"toponymName":"Santa Clara County Fire Department West Valley Fire Station","countryId":"6252001","fcl":"S","population":0,"countryCode":"US","name":"Santa Clara County Fire Department West Valley Fire Station","fclName":"spot, building, farm","adminCodes1":{"ISO3166_2":"CA"},"countryName":"United States","fcodeName":"building(s)","adminName1":"California","lat":"37.28261","fcode":"BLDG"},{"adminCode1":"GA","lng":"-85.01792","geonameId":7711702,"toponymName":"Gordon County Fire and Rescue Department Station 7 Sugar Valley","countryId":"6252001","fcl":"S","population":0,"countryCode":"US","name":"Gordon County Fire and Rescue Department Station 7 Sugar Valley","fclName":"spot, building, farm","adminCodes1":{"ISO3166_2":"GA"},"countryName":"United States","fcodeName":"building(s)","adminName1":"Georgia","lat":"34.56171","fcode":"BLDG"},{"adminCode1":"MT","lng":"-114.40921","geonameId":5678508,"toponymName":"Smith Valley Fire Department Station 2 (historical)","countryId":"6252001","fcl":"S","population":0,"countryCode":"US","name":"Smith Valley Fire Department Station 2 (historical)","fclName":"spot, building, farm","adminCodes1":{"ISO3166_2":"MT"},"countryName":"United States","fcodeName":"building(s)","adminName1":"Montana","lat":"48.18214","fcode":"BLDG"},{"adminCode1":"MT","lng":"-114.35946","geonameId":5678509,"toponymName":"Smith Valley Fire Department Substation","countryId":"6252001","fcl":"S","population":0,"countryCode":"US","name":"Smith Valley Fire Department Substation","fclName":"spot, building, farm","adminCodes1":{"ISO3166_2":"MT"},"countryName":"United States","fcodeName":"building(s)","adminName1":"Montana","lat":"48.18006","fcode":"BLDG"},{"adminCode1":"MT","lng":"-114.41849","geonameId":5685758,"toponymName":"West Valley Volunteer Fire and Rescue Station 1","countryId":"6252001","fcl":"S","population":0,"countryCode":"US","name":"West Valley Volunteer Fire and Rescue Station 1","fclName":"spot, building, farm","adminCodes1":{"ISO3166_2":"MT"},"countryName":"United States","fcodeName":"building(s)","adminName1":"Montana","lat":"48.24422","fcode":"BLDG"},{"adminCode1":"MT","lng":"-114.30848","geonameId":5685759,"toponymName":"West Valley Volunteer Fire and Rescue Station 2","countryId":"6252001","fcl":"S","population":0,"countryCode":"US","name":"West Valley Volunteer Fire and Rescue Station 2","fclName":"spot, building, farm","adminCodes1":{"ISO3166_2":"MT"},"countryName":"United States","fcodeName":"building(s)","adminName1":"Montana","lat":"48.26559","fcode":"BLDG"},{"adminCode1":"MD","lng":"-77.73342","geonameId":6341750,"toponymName":"Potomac Valley Fire Department Company 11","countryId":"6252001","fcl":"S","population":0,"countryCode":"US","name":"Potomac Valley Fire Department Company 11","fclName":"spot, building, farm","adminCodes1":{"ISO3166_2":"MD"},"countryName":"United States","fcodeName":"building(s)","adminName1":"Maryland","lat":"39.37472","fcode":"BLDG"},{"adminCode1":"AR","lng":"-92.50105","geonameId":7130248,"toponymName":"Rea Valley Volunteer Fire Department Station 2","countryId":"6252001","fcl":"S","population":0,"countryCode":"US","name":"Rea Valley Volunteer Fire Department Station 2","fclName":"spot, building, farm","adminCodes1":{"ISO3166_2":"AR"},"countryName":"United States","fcodeName":"building(s)","adminName1":"Arkansas","lat":"36.21034","fcode":"BLDG"},{"adminCode1":"FL","lng":"-81.90528","geonameId":7151843,"toponymName":"Marion County Fire Rescue Station 8 Hog Valley","countryId":"6252001","fcl":"S","population":0,"countryCode":"US","name":"Marion County Fire Rescue Station 8 Hog Valley","fclName":"spot, building, farm","adminCodes1":{"ISO3166_2":"FL"},"countryName":"United States","fcodeName":"building(s)","adminName1":"Florida","lat":"29.4941","fcode":"BLDG"},{"adminCode1":"KS","lng":"-96.84645","geonameId":7124719,"toponymName":"Burdick and Diamond Valley Township Fire Department","countryId":"6252001","fcl":"S","population":0,"countryCode":"US","name":"Burdick and Diamond Valley Township Fire Department","fclName":"spot, building, farm","adminCodes1":{"ISO3166_2":"KS"},"countryName":"United States","fcodeName":"building(s)","adminName1":"Kansas","lat":"38.56361","fcode":"BLDG"},{"adminCode1":"MT","lng":"-111.19108","geonameId":7242841,"toponymName":"Central Valley Fire District Station 3","countryId":"6252001","fcl":"S","population":0,"countryCode":"US","name":"Central Valley Fire District Station 3","fclName":"spot, building, farm","adminCodes1":{"ISO3166_2":"MT"},"countryName":"United States","fcodeName":"building(s)","adminName1":"Montana","lat":"45.67565","fcode":"BLDG"},{"adminCode1":"MT","lng":"-111.06578","geonameId":7242914,"toponymName":"Central Valley Fire District Station 2","countryId":"6252001","fcl":"S","population":0,"countryCode":"US","name":"Central Valley Fire District Station 2","fclName":"spot, building, farm","adminCodes1":{"ISO3166_2":"MT"},"countryName":"United States","fcodeName":"building(s)","adminName1":"Montana","lat":"45.74337","fcode":"BLDG"},{"adminCode1":"OR","lng":"-123.11194","geonameId":7310494,"toponymName":"Eugene Fire Station 9 Valley River Station","countryId":"6252001","fcl":"S","population":0,"countryCode":"US","name":"Eugene Fire Station 9 Valley River Station","fclName":"spot, building, farm","adminCodes1":{"ISO3166_2":"OR"},"countryName":"United States","fcodeName":"building(s)","adminName1":"Oregon","lat":"44.08393","fcode":"BLDG"}]}
