{"totalResultsCount":157,"geonames":[{"adminCode1":"MO","lng":"-92.84103","geonameId":4413013,"toponymName":"Versailles","countryId":"6252001","fcl":"P","population":2440,"countryCode":"US","name":"Versailles","fclName":"city, village,...","adminCodes1":{"ISO3166_2":"MO"},"countryName":"United States","fcodeName":"seat of a second-order administrative division","adminName1":"Missouri","lat":"38.43141","fcode":"PPLA2"},{"adminCode1":"PA","lng":"-79.80949","geonameId":5203785,"toponymName":"North Versailles","countryId":"6252001","fcl":"P","population":10571,"countryCode":"US","name":"North Versailles","fclName":"city, village,...","adminCodes1":{"ISO3166_2":"PA"},"countryName":"United States","fcodeName":"populated place","adminName1":"Pennsylvania","lat":"40.37979","fcode":"PPL"},{"adminCode1":"IL","lng":"-90.65596","geonameId":4251983,"toponymName":"Versailles","countryId":"6252001","fcl":"P","population":464,"countryCode":"US","name":"Versailles","fclName":"city, village,...","adminCodes1":{"ISO3166_2":"IL"},"countryName":"United States","fcodeName":"populated place","adminName1":"Illinois","lat":"39.88505","fcode":"PPL"},{"adminCode1":"KY","lng":"-84.72995","geonameId":4312057,"toponymName":"Versailles","countryId":"6252001","fcl":"P","population":9146,"countryCode":"US","name":"Versailles","fclName":"city, village,...","adminCodes1":{"ISO3166_2":"KY"},"countryName":"United States","fcodeName":"seat of a second-order administrative division","adminName1":"Kentucky","lat":"38.05258","fcode":"PPLA2"},{"adminCode1":"OH","lng":"-84.4844","geonameId":5175092,"toponymName":"Versailles","countryId":"6252001","fcl":"P","population":2643,"countryCode":"US","name":"Versailles","fclName":"city, village,...","adminCodes1":{"ISO3166_2":"OH"},"countryName":"United States","fcodeName":"populated place","adminName1":"Ohio","lat":"40.22255","fcode":"PPL"},{"adminCode1":"IN","lng":"-85.24684","geonameId":4266270,"toponymName":"Versailles State Park Dam","countryId":"6252001","fcl":"H","population":0,"countryCode":"US","name":"Versailles State Park Dam","fclName":"stream, lake, ...","adminCodes1":{"ISO3166_2":"IN"},"countryName":"United States","fcodeName":"lake","adminName1":"Indiana","lat":"39.07732","fcode":"LK"},{"adminCode1":"PA","lng":"-79.83116","geonameId":5217183,"toponymName":"Versailles","countryId":"6252001","fcl":"P","population":1496,"countryCode":"US","name":"Versailles","fclName":"city, village,...","adminCodes1":{"ISO3166_2":"PA"},"countryName":"United States","fcodeName":"populated place","adminName1":"Pennsylvania","lat":"40.31563","fcode":"PPL"},{"adminCode1":"LA","lng":"-89.9609","geonameId":4344556,"toponymName":"Versailles","countryId":"6252001","fcl":"P","population":0,"countryCode":"US","name":"Versailles","fclName":"city, village,...","adminCodes1":{"ISO3166_2":"LA"},"countryName":"United States","fcodeName":"populated place","adminName1":"Louisiana","lat":"29.94826","fcode":"PPL"},{"adminCode1":"IL","lng":"-90.62435","geonameId":4251986,"toponymName":"Township of Versailles","countryId":"6252001","fcl":"A","population":0,"countryCode":"US","name":"Versailles Township","fclName":"country, state, region,...","adminCodes1":{"ISO3166_2":"IL"},"countryName":"United States","fcodeName":"third-order administrative division","adminName1":"Illinois","lat":"39.88652","fcode":"ADM3"},{"adminCode1":"CT","lng":"-72.0403","geonameId":4844835,"toponymName":"Versailles Pond","countryId":"6252001","fcl":"H","population":0,"countryCode":"US","name":"Versailles Pond","fclName":"stream, lake, ...","adminCodes1":{"ISO3166_2":"CT"},"countryName":"United States","fcodeName":"lake","adminName1":"Connecticut","lat":"41.60738","fcode":"LK"},{"adminCode1":"NY","lng":"-78.99587","geonameId":5142292,"toponymName":"Versailles","countryId":"6252001","fcl":"P","population":0,"countryCode":"US","name":"Versailles","fclName":"city, village,...","adminCodes1":{"ISO3166_2":"NY"},"countryName":"United States","fcodeName":"populated place","adminName1":"New York","lat":"42.51895","fcode":"PPL"},{"adminCode1":"TN","lng":"-86.54138","geonameId":4664660,"toponymName":"Versailles","countryId":"6252001","fcl":"P","population":0,"countryCode":"US","name":"Versailles","fclName":"city, village,...","adminCodes1":{"ISO3166_2":"TN"},"countryName":"United States","fcodeName":"populated place","adminName1":"Tennessee","lat":"35.72951","fcode":"PPL"},{"adminCode1":"IN","lng":"-85.2519","geonameId":4266266,"toponymName":"Versailles","countryId":"6252001","fcl":"P","population":2100,"countryCode":"US","name":"Versailles","fclName":"city, village,...","adminCodes1":{"ISO3166_2":"IN"},"countryName":"United States","fcodeName":"seat of a second-order administrative division","adminName1":"Indiana","lat":"39.072","fcode":"PPLA2"},{"adminCode1":"KY","lng":"-84.73222","geonameId":7170941,"toponymName":"City of Versailles","countryId":"6252001","fcl":"A","population":8568,"countryCode":"US","name":"City of Versailles","fclName":"country, state, region,...","adminCodes1":{"ISO3166_2":"KY"},"countryName":"United States","fcodeName":"third-order administrative division","adminName1":"Kentucky","lat":"38.04847","fcode":"ADM3"},{"adminCode1":"CT","lng":"-72.0373","geonameId":4844834,"toponymName":"Versailles","countryId":"6252001","fcl":"P","population":0,"countryCode":"US","name":"Versailles","fclName":"city, village,...","adminCodes1":{"ISO3166_2":"CT"},"countryName":"United States","fcodeName":"populated place","adminName1":"Connecticut","lat":"41.60177","fcode":"PPL"},{"adminCode1":"PA","lng":"-79.80803","geonameId":7258387,"toponymName":"North Versailles","countryId":"6252001","fcl":"P","population":0,"countryCode":"US","name":"North Versailles","fclName":"city, village,...","adminCodes1":{"ISO3166_2":"PA"},"countryName":"United States","fcodeName":"populated place","adminName1":"Pennsylvania","lat":"40.37809","fcode":"PPL"},{"adminCode1":"PA","lng":"-79.80834","geonameId":5203786,"toponymName":"Township of North Versailles","countryId":"6252001","fcl":"A","population":0,"countryCode":"US","name":"North Versailles Township","fclName":"country, state, region,...","adminCodes1":{"ISO3166_2":"PA"},"countryName":"United States","fcodeName":"third-order administrative division","adminName1":"Pennsylvania","lat":"40.37841","fcode":"ADM3"},{"adminCode1":"PA","lng":"-79.79498","geonameId":5213121,"toponymName":"Township of South Versailles","countryId":"6252001","fcl":"A","population":0,"countryCode":"US","name":"South Versailles Township","fclName":"country, state, region,...","adminCodes1":{"ISO3166_2":"PA"},"countryName":"United States","fcodeName":"third-order administrative division","adminName1":"Pennsylvania","lat":"40.30357","fcode":"ADM3"},{"adminCode1":"MO","lng":"-92.84527","geonameId":7165038,"toponymName":"City of Versailles","countryId":"6252001","fcl":"A","population":2482,"countryCode":"US","name":"City of Versailles","fclName":"country, state, region,...","adminCodes1":{"ISO3166_2":"MO"},"countryName":"United States","fcodeName":"administrative division","adminName1":"Missouri","lat":"38.4333","fcode":"ADMD"},{"adminCode1":"IN","lng":"-85.25649","geonameId":7165470,"toponymName":"Town of Versailles","countryId":"6252001","fcl":"A","population":2113,"countryCode":"US","name":"Town of Versailles","fclName":"country, state, region,...","adminCodes1":{"ISO3166_2":"IN"},"countryName":"United States","fcodeName":"administrative division","adminName1":"Indiana","lat":"39.06391","fcode":"ADMD"},{"adminCode1":"IL","lng":"-90.65867","geonameId":7167669,"toponymName":"Village of Versailles","countryId":"6252001","fcl":"A","population":478,"countryCode":"US","name":"Village of Versailles","fclName":"country, state, region,...","adminCodes1":{"ISO3166_2":"IL"},"countryName":"United States","fcodeName":"administrative division","adminName1":"Illinois","lat":"39.88421","fcode":"ADMD"},{"adminCode1":"OH","lng":"-84.48323","geonameId":7317614,"toponymName":"Village of Versailles","countryId":"6252001","fcl":"A","population":2687,"countryCode":"US","name":"Village of Versailles","fclName":"country, state, region,...","adminCodes1":{"ISO3166_2":"OH"},"countryName":"United States","fcodeName":"administrative division","adminName1":"Ohio","lat":"40.22232","fcode":"ADMD"},{"adminCode1":"IN","lng":"-85.22274","geonameId":4266269,"toponymName":"Versailles State Park","countryId":"6252001","fcl":"L","population":0,"countryCode":"US","name":"Versailles State Park","fclName":"parks,area, ...","adminCodes1":{"ISO3166_2":"IN"},"countryName":"United States","fcodeName":"park","adminName1":"Indiana","lat":"39.07144","fcode":"PRK"},{"adminCode1":"PA","lng":"-79.83085","geonameId":5217185,"toponymName":"Borough of Versailles","countryId":"6252001","fcl":"A","population":1515,"countryCode":"US","name":"Borough of Versailles","fclName":"country, state, region,...","adminCodes1":{"ISO3166_2":"PA"},"countryName":"United States","fcodeName":"third-order administrative division","adminName1":"Pennsylvania","lat":"40.31773","fcode":"ADM3"},{"adminCode1":"PA","lng":"-79.84949","geonameId":5206947,"toponymName":"Port Perry","countryId":"6252001","fcl":"P","population":0,"countryCode":"US","name":"Port Perry","fclName":"city, village,...","adminCodes1":{"ISO3166_2":"PA"},"countryName":"United States","fcodeName":"populated place","adminName1":"Pennsylvania","lat":"40.3909","fcode":"PPL"},{"adminCode1":"PA","lng":"-79.80143","geonameId":5185553,"toponymName":"Coulter","countryId":"6252001","fcl":"P","population":0,"countryCode":"US","name":"Coulter","fclName":"city, village,...","adminCodes1":{"ISO3166_2":"PA"},"countryName":"United States","fcodeName":"populated place","adminName1":"Pennsylvania","lat":"40.29646","fcode":"PPL"},{"adminCode1":"IN","lng":"-85.24579","geonameId":4266267,"toponymName":"Versailles Airport","countryId":"6252001","fcl":"S","population":0,"countryCode":"US","name":"Versailles Airport","fclName":"spot, building, farm","adminCodes1":{"ISO3166_2":"IN"},"countryName":"United States","fcodeName":"airport","adminName1":"Indiana","lat":"39.05978","fcode":"AIRP"},{"adminCode1":"OH","lng":"-84.48328","geonameId":5175094,"toponymName":"Versailles High School","countryId":"6252001","fcl":"S","population":0,"countryCode":"US","name":"Versailles High School","fclName":"spot, building, farm","adminCodes1":{"ISO3166_2":"OH"},"countryName":"United States","fcodeName":"school","adminName1":"Ohio","lat":"40.21783","fcode":"SCH"},{"adminCode1":"TN","lng":"-86.53686","geonameId":8112791,"toponymName":"Versailles Aerodrome","countryId":"6252001","fcl":"S","population":0,"countryCode":"US","name":"Versailles Aerodrome","fclName":"spot, building, farm","adminCodes1":{"ISO3166_2":"TN"},"countryName":"United States","fcodeName":"airport","adminName1":"Tennessee","lat":"35.73127","fcode":"AIRP"},{"adminCode1":"IL","lng":"-90.57457","geonameId":4250238,"toponymName":"Sneider Landing Strip","countryId":"6252001","fcl":"S","population":0,"countryCode":"US","name":"Sneider Landing Strip","fclName":"spot, building, farm","adminCodes1":{"ISO3166_2":"IL"},"countryName":"United States","fcodeName":"airport","adminName1":"Illinois","lat":"39.90283","fcode":"AIRP"},{"adminCode1":"TN","lng":"-86.53999","geonameId":4664661,"toponymName":"Versailles Knob","countryId":"6252001","fcl":"T","population":0,"countryCode":"US","name":"Versailles Knob","fclName":"mountain,hill,rock,... ","adminCodes1":{"ISO3166_2":"TN"},"countryName":"United States","fcodeName":"mountain","adminName1":"Tennessee","lat":"35.71896","fcode":"MT"},{"adminCode1":"MO","lng":"-92.75463","geonameId":4413014,"toponymName":"Versailles Hollow","countryId":"6252001","fcl":"T","population":0,"countryCode":"US","name":"Versailles Hollow","fclName":"mountain,hill,rock,... ","adminCodes1":{"ISO3166_2":"MO"},"countryName":"United States","fcodeName":"valley","adminName1":"Missouri","lat":"38.09753","fcode":"VAL"},{"adminCode1":"IL","lng":"-90.64791","geonameId":4248274,"toponymName":"Robison Cemetery","countryId":"6252001","fcl":"S","population":0,"countryCode":"US","name":"Robison Cemetery","fclName":"spot, building, farm","adminCodes1":{"ISO3166_2":"IL"},"countryName":"United States","fcodeName":"cemetery","adminName1":"Illinois","lat":"39.90727","fcode":"CMTY"},{"adminCode1":"PA","lng":"-79.82088","geonameId":5218936,"toponymName":"West Wilmerding","countryId":"6252001","fcl":"P","population":0,"countryCode":"US","name":"West Wilmerding","fclName":"city, village,...","adminCodes1":{"ISO3166_2":"PA"},"countryName":"United States","fcodeName":"populated place","adminName1":"Pennsylvania","lat":"40.39868","fcode":"PPL"},{"adminCode1":"PA","lng":"-79.7956","geonameId":5178179,"toponymName":"Alpsville","countryId":"6252001","fcl":"P","population":0,"countryCode":"US","name":"Alpsville","fclName":"city, village,...","adminCodes1":{"ISO3166_2":"PA"},"countryName":"United States","fcodeName":"populated place","adminName1":"Pennsylvania","lat":"40.30563","fcode":"PPL"},{"adminCode1":"PA","lng":"-79.82644","geonameId":5189734,"toponymName":"Fite Station","countryId":"6252001","fcl":"P","population":0,"countryCode":"US","name":"Fite Station","fclName":"city, village,...","adminCodes1":{"ISO3166_2":"PA"},"countryName":"United States","fcodeName":"populated place","adminName1":"Pennsylvania","lat":"40.37146","fcode":"PPL"},{"adminCode1":"PA","lng":"-79.78811","geonameId":11390245,"toponymName":"Coulter - South Versailles Cemetery","countryId":"6252001","fcl":"S","population":0,"countryCode":"US","name":"Coulter - South Versailles Cemetery","fclName":"spot, building, farm","adminCodes1":{"ISO3166_2":"PA"},"countryName":"United States","fcodeName":"cemetery","adminName1":"Pennsylvania","lat":"40.3043","fcode":"CMTY"},{"adminCode1":"MO","lng":"-92.84486","geonameId":8124155,"toponymName":"Versailles City Cemetery","countryId":"6252001","fcl":"S","population":0,"countryCode":"US","name":"Versailles City Cemetery","fclName":"spot, building, farm","adminCodes1":{"ISO3166_2":"MO"},"countryName":"United States","fcodeName":"cemetery","adminName1":"Missouri","lat":"38.42415","fcode":"CMTY"},{"adminCode1":"KY","lng":"-84.70375","geonameId":8088738,"toponymName":"Versailles Fire Station 3","countryId":"6252001","fcl":"S","population":0,"countryCode":"US","name":"Versailles Fire Station 3","fclName":"spot, building, farm","adminCodes1":{"ISO3166_2":"KY"},"countryName":"United States","fcodeName":"building(s)","adminName1":"Kentucky","lat":"38.03269","fcode":"BLDG"},{"adminCode1":"OH","lng":"-84.48467","geonameId":5175097,"toponymName":"Versailles Post Office","countryId":"6252001","fcl":"S","population":0,"countryCode":"US","name":"Versailles Post Office","fclName":"spot, building, farm","adminCodes1":{"ISO3166_2":"OH"},"countryName":"United States","fcodeName":"post office","adminName1":"Ohio","lat":"40.22227","fcode":"PO"},{"adminCode1":"CT","lng":"-72.04397","geonameId":4844837,"toponymName":"Versailles Post Office","countryId":"6252001","fcl":"S","population":0,"countryCode":"US","name":"Versailles Post Office","fclName":"spot, building, farm","adminCodes1":{"ISO3166_2":"CT"},"countryName":"United States","fcodeName":"post office","adminName1":"Connecticut","lat":"41.59982","fcode":"PO"},{"adminCode1":"MO","lng":"-92.87335","geonameId":4406554,"toponymName":"Roy Otten Memorial Airfield","countryId":"6252001","fcl":"S","population":0,"countryCode":"US","name":"Roy Otten Memorial Airfield","fclName":"spot, building, farm","adminCodes1":{"ISO3166_2":"MO"},"countryName":"United States","fcodeName":"airfield","adminName1":"Missouri","lat":"38.42868","fcode":"AIRF"},{"adminCode1":"OH","lng":"-84.49051","geonameId":5156456,"toponymName":"Greenlawn Cemetery","countryId":"6252001","fcl":"S","population":0,"countryCode":"US","name":"Greenlawn Cemetery","fclName":"spot, building, farm","adminCodes1":{"ISO3166_2":"OH"},"countryName":"United States","fcodeName":"cemetery","adminName1":"Ohio","lat":"40.22505","fcode":"CMTY"},{"adminCode1":"IL","lng":"-90.65485","geonameId":4250375,"toponymName":"South Side Cemetery","countryId":"6252001","fcl":"S","population":0,"countryCode":"US","name":"South Side Cemetery","fclName":"spot, building, farm","adminCodes1":{"ISO3166_2":"IL"},"countryName":"United States","fcodeName":"cemetery","adminName1":"Illinois","lat":"39.88171","fcode":"CMTY"},{"adminCode1":"IL","lng":"-90.65513","geonameId":4250973,"toponymName":"Suratt Burial Ground","countryId":"6252001","fcl":"S","population":0,"countryCode":"US","name":"Suratt Burial Ground","fclName":"spot, building, farm","adminCodes1":{"ISO3166_2":"IL"},"countryName":"United States","fcodeName":"cemetery","adminName1":"Illinois","lat":"39.85449","fcode":"CMTY"},{"adminCode1":"IL","lng":"-90.56124","geonameId":4242752,"toponymName":"Lavina Henry Cemetery","countryId":"6252001","fcl":"S","population":0,"countryCode":"US","name":"Lavina Henry Cemetery","fclName":"spot, building, farm","adminCodes1":{"ISO3166_2":"IL"},"countryName":"United States","fcodeName":"cemetery","adminName1":"Illinois","lat":"39.92366","fcode":"CMTY"},{"adminCode1":"IL","lng":"-90.59457","geonameId":4245180,"toponymName":"Mount Zion Cemetery","countryId":"6252001","fcl":"S","population":0,"countryCode":"US","name":"Mount Zion Cemetery","fclName":"spot, building, farm","adminCodes1":{"ISO3166_2":"IL"},"countryName":"United States","fcodeName":"cemetery","adminName1":"Illinois","lat":"39.90894","fcode":"CMTY"},{"adminCode1":"IL","lng":"-90.63207","geonameId":4246848,"toponymName":"Perry Springs Station","countryId":"6252001","fcl":"S","population":0,"countryCode":"US","name":"Perry Springs Station","fclName":"spot, building, farm","adminCodes1":{"ISO3166_2":"IL"},"countryName":"United States","fcodeName":"","adminName1":"Illinois","lat":"39.8506"},{"adminCode1":"IL","lng":"-90.66929","geonameId":4252858,"toponymName":"West Side Cemetery","countryId":"6252001","fcl":"S","population":0,"countryCode":"US","name":"West Side Cemetery","fclName":"spot, building, farm","adminCodes1":{"ISO3166_2":"IL"},"countryName":"United States","fcodeName":"cemetery","adminName1":"Illinois","lat":"39.88783","fcode":"CMTY"},{"adminCode1":"IL","lng":"-90.64985","geonameId":4253439,"toponymName":"Woods Cemetery","countryId":"6252001","fcl":"S","population":0,"countryCode":"US","name":"Woods Cemetery","fclName":"spot, building, farm","adminCodes1":{"ISO3166_2":"IL"},"countryName":"United States","fcodeName":"cemetery","adminName1":"Illinois","lat":"39.84366","fcode":"CMTY"},{"adminCode1":"PA","lng":"-79.80424","geonameId":5209803,"toponymName":"Saint Johns - Saint John the Baptist Cemetery","countryId":"6252001","fcl":"S","population":0,"countryCode":"US","name":"Saint Johns - Saint John the Baptist Cemetery","fclName":"spot, building, farm","adminCodes1":{"ISO3166_2":"PA"},"countryName":"United States","fcodeName":"cemetery","adminName1":"Pennsylvania","lat":"40.37427","fcode":"CMTY"},{"adminCode1":"PA","lng":"-79.79367","geonameId":5209960,"toponymName":"Saint Joseph Catholic Cemetery and Mausoleum","countryId":"6252001","fcl":"S","population":0,"countryCode":"US","name":"Saint Joseph Catholic Cemetery and Mausoleum","fclName":"spot, building, farm","adminCodes1":{"ISO3166_2":"PA"},"countryName":"United States","fcodeName":"cemetery","adminName1":"Pennsylvania","lat":"40.37608","fcode":"CMTY"},{"adminCode1":"PA","lng":"-79.82505","geonameId":5191932,"toponymName":"Green Valley Elementary School","countryId":"6252001","fcl":"S","population":0,"countryCode":"US","name":"Green Valley Elementary School","fclName":"spot, building, farm","adminCodes1":{"ISO3166_2":"PA"},"countryName":"United States","fcodeName":"school","adminName1":"Pennsylvania","lat":"40.37451","fcode":"SCH"},{"adminCode1":"PA","lng":"-79.79708","geonameId":8092973,"toponymName":"Sunset Central Volunteer Fire Department Station 213","countryId":"6252001","fcl":"S","population":0,"countryCode":"US","name":"Sunset Central Volunteer Fire Department Station 213","fclName":"spot, building, farm","adminCodes1":{"ISO3166_2":"PA"},"countryName":"United States","fcodeName":"building(s)","adminName1":"Pennsylvania","lat":"40.37451","fcode":"BLDG"},{"adminCode1":"PA","lng":"-79.8327","geonameId":8092436,"toponymName":"Versailles Volunteer Fire Company Station 286 / Versailles Emergency Medical Services","countryId":"6252001","fcl":"S","population":0,"countryCode":"US","name":"Versailles Volunteer Fire Company Station 286 / Versailles Emergency Medical Services","fclName":"spot, building, farm","adminCodes1":{"ISO3166_2":"PA"},"countryName":"United States","fcodeName":"building(s)","adminName1":"Pennsylvania","lat":"40.31582","fcode":"BLDG"},{"adminCode1":"IL","lng":"-90.65985","geonameId":4251984,"toponymName":"Versailles Grade School","countryId":"6252001","fcl":"S","population":0,"countryCode":"US","name":"Versailles Grade School","fclName":"spot, building, farm","adminCodes1":{"ISO3166_2":"IL"},"countryName":"United States","fcodeName":"school","adminName1":"Illinois","lat":"39.8856","fcode":"SCH"},{"adminCode1":"IL","lng":"-90.65635","geonameId":8089798,"toponymName":"Versailles Fire Protection District","countryId":"6252001","fcl":"S","population":0,"countryCode":"US","name":"Versailles Fire Protection District","fclName":"spot, building, farm","adminCodes1":{"ISO3166_2":"IL"},"countryName":"United States","fcodeName":"building(s)","adminName1":"Illinois","lat":"39.88405","fcode":"BLDG"},{"adminCode1":"PA","lng":"-79.82087","geonameId":7183475,"toponymName":"North Versailles Public Library","countryId":"6252001","fcl":"S","population":0,"countryCode":"US","name":"North Versailles Public Library","fclName":"spot, building, farm","adminCodes1":{"ISO3166_2":"PA"},"countryName":"United States","fcodeName":"library","adminName1":"Pennsylvania","lat":"40.39532","fcode":"LIBR"},{"adminCode1":"PA","lng":"-79.81957","geonameId":7184670,"toponymName":"North Versailles Post Office","countryId":"6252001","fcl":"S","population":0,"countryCode":"US","name":"North Versailles Post Office","fclName":"spot, building, farm","adminCodes1":{"ISO3166_2":"PA"},"countryName":"United States","fcodeName":"post office","adminName1":"Pennsylvania","lat":"40.38216","fcode":"PO"},{"adminCode1":"PA","lng":"-79.83187","geonameId":7183738,"toponymName":"Versailles Borough Hall","countryId":"6252001","fcl":"S","population":0,"countryCode":"US","name":"Versailles Borough Hall","fclName":"spot, building, farm","adminCodes1":{"ISO3166_2":"PA"},"countryName":"United States","fcodeName":"building(s)","adminName1":"Pennsylvania","lat":"40.31561","fcode":"BLDG"},{"adminCode1":"PA","lng":"-79.83098","geonameId":11394101,"toponymName":"Versailles Borough Police Department","countryId":"6252001","fcl":"S","population":0,"countryCode":"US","name":"Versailles Borough Police Department","fclName":"spot, building, farm","adminCodes1":{"ISO3166_2":"PA"},"countryName":"United States","fcodeName":"building(s)","adminName1":"Pennsylvania","lat":"40.3151","fcode":"BLDG"},{"adminCode1":"OH","lng":"-84.48414","geonameId":7245383,"toponymName":"Versailles Fire Department Station 19","countryId":"6252001","fcl":"S","population":0,"countryCode":"US","name":"Versailles Fire Department Station 19","fclName":"spot, building, farm","adminCodes1":{"ISO3166_2":"OH"},"countryName":"United States","fcodeName":"building(s)","adminName1":"Ohio","lat":"40.22204","fcode":"BLDG"},{"adminCode1":"OH","lng":"-84.48744","geonameId":7246295,"toponymName":"Versailles Emergency Medical Services","countryId":"6252001","fcl":"S","population":0,"countryCode":"US","name":"Versailles Emergency Medical Services","fclName":"spot, building, farm","adminCodes1":{"ISO3166_2":"OH"},"countryName":"United States","fcodeName":"building(s)","adminName1":"Ohio","lat":"40.22228","fcode":"BLDG"},{"adminCode1":"AL","lng":"-88.08284","geonameId":7313386,"toponymName":"Versailles Mini Mall","countryId":"6252001","fcl":"S","population":0,"countryCode":"US","name":"Versailles Mini Mall","fclName":"spot, building, farm","adminCodes1":{"ISO3166_2":"AL"},"countryName":"United States","fcodeName":"mall","adminName1":"Alabama","lat":"30.71923","fcode":"MALL"},{"adminCode1":"LA","lng":"-89.96757","geonameId":4344557,"toponymName":"Versailles Plantation (historical)","countryId":"6252001","fcl":"S","population":0,"countryCode":"US","name":"Versailles Plantation (historical)","fclName":"spot, building, farm","adminCodes1":{"ISO3166_2":"LA"},"countryName":"United States","fcodeName":"","adminName1":"Louisiana","lat":"29.93743"},{"adminCode1":"MO","lng":"-92.81269","geonameId":4413018,"toponymName":"Versailles Municipal Airport (historical)","countryId":"6252001","fcl":"S","population":0,"countryCode":"US","name":"Versailles Municipal Airport (historical)","fclName":"spot, building, farm","adminCodes1":{"ISO3166_2":"MO"},"countryName":"United States","fcodeName":"abandoned airfield","adminName1":"Missouri","lat":"38.44364","fcode":"AIRQ"},{"adminCode1":"IL","lng":"-90.63763","geonameId":4251985,"toponymName":"Versailles Springs","countryId":"6252001","fcl":"H","population":0,"countryCode":"US","name":"Versailles Springs","fclName":"stream, lake, ...","adminCodes1":{"ISO3166_2":"IL"},"countryName":"United States","fcodeName":"spring(s)","adminName1":"Illinois","lat":"39.89644","fcode":"SPNG"},{"adminCode1":"KY","lng":"-84.658","geonameId":4312171,"toponymName":"WCGW-FM (Versailles)","countryId":"6252001","fcl":"S","population":0,"countryCode":"US","name":"WCGW-FM (Versailles)","fclName":"spot, building, farm","adminCodes1":{"ISO3166_2":"KY"},"countryName":"United States","fcodeName":"tower","adminName1":"Kentucky","lat":"38.04563","fcode":"TOWR"},{"adminCode1":"IN","lng":"-85.25551","geonameId":4266268,"toponymName":"Versailles Elementary School","countryId":"6252001","fcl":"S","population":0,"countryCode":"US","name":"Versailles Elementary School","fclName":"spot, building, farm","adminCodes1":{"ISO3166_2":"IN"},"countryName":"United States","fcodeName":"school","adminName1":"Indiana","lat":"39.07172","fcode":"SCH"},{"adminCode1":"CT","lng":"-72.03563","geonameId":4844838,"toponymName":"Versailles Station","countryId":"6252001","fcl":"S","population":0,"countryCode":"US","name":"Versailles Station","fclName":"spot, building, farm","adminCodes1":{"ISO3166_2":"CT"},"countryName":"United States","fcodeName":"","adminName1":"Connecticut","lat":"41.61427"},{"adminCode1":"OH","lng":"-84.48634","geonameId":5175093,"toponymName":"Versailles Elementary School","countryId":"6252001","fcl":"S","population":0,"countryCode":"US","name":"Versailles Elementary School","fclName":"spot, building, farm","adminCodes1":{"ISO3166_2":"OH"},"countryName":"United States","fcodeName":"school","adminName1":"Ohio","lat":"40.22033","fcode":"SCH"},{"adminCode1":"OH","lng":"-84.48634","geonameId":5175095,"toponymName":"Versailles Medical Center","countryId":"6252001","fcl":"S","population":0,"countryCode":"US","name":"Versailles Medical Center","fclName":"spot, building, farm","adminCodes1":{"ISO3166_2":"OH"},"countryName":"United States","fcodeName":"hospital","adminName1":"Ohio","lat":"40.21755","fcode":"HSP"},{"adminCode1":"OH","lng":"-84.48356","geonameId":5175096,"toponymName":"Versailles Middle School","countryId":"6252001","fcl":"S","population":0,"countryCode":"US","name":"Versailles Middle School","fclName":"spot, building, farm","adminCodes1":{"ISO3166_2":"OH"},"countryName":"United States","fcodeName":"school","adminName1":"Ohio","lat":"40.22116","fcode":"SCH"},{"adminCode1":"OH","lng":"-84.48495","geonameId":5175098,"toponymName":"Versailles Village Hall","countryId":"6252001","fcl":"S","population":0,"countryCode":"US","name":"Versailles Village Hall","fclName":"spot, building, farm","adminCodes1":{"ISO3166_2":"OH"},"countryName":"United States","fcodeName":"building(s)","adminName1":"Ohio","lat":"40.22227","fcode":"BLDG"},{"adminCode1":"IL","lng":"-89.23397","geonameId":4914746,"toponymName":"Versailles School (historical)","countryId":"6252001","fcl":"S","population":0,"countryCode":"US","name":"Versailles School (historical)","fclName":"spot, building, farm","adminCodes1":{"ISO3166_2":"IL"},"countryName":"United States","fcodeName":"school","adminName1":"Illinois","lat":"40.69198","fcode":"SCH"},{"adminCode1":"KY","lng":"-84.72908","geonameId":8087639,"toponymName":"Versailles Fire Department Station 1","countryId":"6252001","fcl":"S","population":0,"countryCode":"US","name":"Versailles Fire Department Station 1","fclName":"spot, building, farm","adminCodes1":{"ISO3166_2":"KY"},"countryName":"United States","fcodeName":"building(s)","adminName1":"Kentucky","lat":"38.05193","fcode":"BLDG"},{"adminCode1":"KY","lng":"-84.71999","geonameId":8088371,"toponymName":"Versailles Fire Department Station 2","countryId":"6252001","fcl":"S","population":0,"countryCode":"US","name":"Versailles Fire Department Station 2","fclName":"spot, building, farm","adminCodes1":{"ISO3166_2":"KY"},"countryName":"United States","fcodeName":"building(s)","adminName1":"Kentucky","lat":"38.05915","fcode":"BLDG"},{"adminCode1":"MO","lng":"-92.86466","geonameId":7722154,"toponymName":"Versailles Rural Fire Protection District","countryId":"6252001","fcl":"S","population":0,"countryCode":"US","name":"Versailles Rural Fire Protection District","fclName":"spot, building, farm","adminCodes1":{"ISO3166_2":"MO"},"countryName":"United States","fcodeName":"building(s)","adminName1":"Missouri","lat":"38.4317","fcode":"BLDG"},{"adminCode1":"MO","lng":"-92.84256","geonameId":7720798,"toponymName":"Versailles City Fire Department","countryId":"6252001","fcl":"S","population":0,"countryCode":"US","name":"Versailles City Fire Department","fclName":"spot, building, farm","adminCodes1":{"ISO3166_2":"MO"},"countryName":"United States","fcodeName":"building(s)","adminName1":"Missouri","lat":"38.43134","fcode":"BLDG"},{"adminCode1":"IN","lng":"-85.25213","geonameId":7726485,"toponymName":"Versailles Volunteer Fire Department","countryId":"6252001","fcl":"S","population":0,"countryCode":"US","name":"Versailles Volunteer Fire Department","fclName":"spot, building, farm","adminCodes1":{"ISO3166_2":"IN"},"countryName":"United States","fcodeName":"building(s)","adminName1":"Indiana","lat":"39.07096","fcode":"BLDG"},{"adminCode1":"OH","lng":"-84.48451","geonameId":9675077,"toponymName":"Versailles Village Police Department","countryId":"6252001","fcl":"S","population":0,"countryCode":"US","name":"Versailles Village Police Department","fclName":"spot, building, farm","adminCodes1":{"ISO3166_2":"OH"},"countryName":"United States","fcodeName":"building(s)","adminName1":"Ohio","lat":"40.22249","fcode":"BLDG"},{"adminCode1":"KY","lng":"-84.73099","geonameId":11385156,"toponymName":"Versailles Police Department","countryId":"6252001","fcl":"S","population":0,"countryCode":"US","name":"Versailles Police Department","fclName":"spot, building, farm","adminCodes1":{"ISO3166_2":"KY"},"countryName":"United States","fcodeName":"building(s)","adminName1":"Kentucky","lat":"38.05225","fcode":"BLDG"},{"adminCode1":"CA","lng":"-122.23858","geonameId":5406035,"toponymName":"Versailles Station (historical)","countryId":"6252001","fcl":"S","population":0,"countryCode":"US","name":"Versailles Station (historical)","fclName":"spot, building, farm","adminCodes1":{"ISO3166_2":"CA"},"countryName":"United States","fcodeName":"","adminName1":"California","lat":"37.7591"},{"adminCode1":"PA","lng":"-79.84609","geonameId":5200482,"toponymName":"McKeesport and Versailles Cemetery","countryId":"6252001","fcl":"S","population":0,"countryCode":"US","name":"McKeesport and Versailles Cemetery","fclName":"spot, building, farm","adminCodes1":{"ISO3166_2":"PA"},"countryName":"United States","fcodeName":"cemetery","adminName1":"Pennsylvania","lat":"40.3498","fcode":"CMTY"},{"adminCode1":"PA","lng":"-79.83894","geonameId":5217184,"toponymName":"Versailles School","countryId":"6252001","fcl":"S","population":0,"countryCode":"US","name":"Versailles School","fclName":"spot, building, farm","adminCodes1":{"ISO3166_2":"PA"},"countryName":"United States","fcodeName":"school","adminName1":"Pennsylvania","lat":"40.34535","fcode":"SCH"},{"adminCode1":"CT","lng":"-72.04035","geonameId":4844836,"toponymName":"Versailles Pond Dam","countryId":"6252001","fcl":"S","population":0,"countryCode":"US","name":"Versailles Pond Dam","fclName":"spot, building, farm","adminCodes1":{"ISO3166_2":"CT"},"countryName":"United States","fcodeName":"dam","adminName1":"Connecticut","lat":"41.60482","fcode":"DAM"},{"adminCode1":"CT","lng":"-72.04813","geonameId":4844839,"toponymName":"Versailles United Methodist Church","countryId":"6252001","fcl":"S","population":0,"countryCode":"US","name":"Versailles United Methodist Church","fclName":"spot, building, farm","adminCodes1":{"ISO3166_2":"CT"},"countryName":"United States","fcodeName":"church","adminName1":"Connecticut","lat":"41.59788","fcode":"CH"},{"adminCode1":"IL","lng":"-90.56902","geonameId":4232517,"toponymName":"Adams School (historical)","countryId":"6252001","fcl":"S","population":0,"countryCode":"US","name":"Adams School (historical)","fclName":"spot, building, farm","adminCodes1":{"ISO3166_2":"IL"},"countryName":"United States","fcodeName":"school","adminName1":"Illinois","lat":"39.91921","fcode":"SCH"},{"adminCode1":"IL","lng":"-90.64679","geonameId":4232660,"toponymName":"Alsup Farm Pond Dam","countryId":"6252001","fcl":"S","population":0,"countryCode":"US","name":"Alsup Farm Pond Dam","fclName":"spot, building, farm","adminCodes1":{"ISO3166_2":"IL"},"countryName":"United States","fcodeName":"dam","adminName1":"Illinois","lat":"39.87171","fcode":"DAM"},{"adminCode1":"IL","lng":"-90.60485","geonameId":4232902,"toponymName":"Arnold Cemetery","countryId":"6252001","fcl":"S","population":0,"countryCode":"US","name":"Arnold Cemetery","fclName":"spot, building, farm","adminCodes1":{"ISO3166_2":"IL"},"countryName":"United States","fcodeName":"cemetery","adminName1":"Illinois","lat":"39.90505","fcode":"CMTY"},{"adminCode1":"IL","lng":"-90.64041","geonameId":4248275,"toponymName":"Robison School (historical)","countryId":"6252001","fcl":"S","population":0,"countryCode":"US","name":"Robison School (historical)","fclName":"spot, building, farm","adminCodes1":{"ISO3166_2":"IL"},"countryName":"United States","fcodeName":"school","adminName1":"Illinois","lat":"39.91088","fcode":"SCH"},{"adminCode1":"IL","lng":"-90.62929","geonameId":4248430,"toponymName":"Root Cemetery","countryId":"6252001","fcl":"S","population":0,"countryCode":"US","name":"Root Cemetery","fclName":"spot, building, farm","adminCodes1":{"ISO3166_2":"IL"},"countryName":"United States","fcodeName":"cemetery","adminName1":"Illinois","lat":"39.87116","fcode":"CMTY"},{"adminCode1":"IL","lng":"-90.59374","geonameId":4249411,"toponymName":"Sand Ridge School (historical)","countryId":"6252001","fcl":"S","population":0,"countryCode":"US","name":"Sand Ridge School (historical)","fclName":"spot, building, farm","adminCodes1":{"ISO3166_2":"IL"},"countryName":"United States","fcodeName":"school","adminName1":"Illinois","lat":"39.85421","fcode":"SCH"},{"adminCode1":"IL","lng":"-90.59929","geonameId":4251938,"toponymName":"Vandeventer Cemetery","countryId":"6252001","fcl":"S","population":0,"countryCode":"US","name":"Vandeventer Cemetery","fclName":"spot, building, farm","adminCodes1":{"ISO3166_2":"IL"},"countryName":"United States","fcodeName":"cemetery","adminName1":"Illinois","lat":"39.8931","fcode":"CMTY"},{"adminCode1":"IL","lng":"-90.60068","geonameId":4251939,"toponymName":"Vandeventer School (historical)","countryId":"6252001","fcl":"S","population":0,"countryCode":"US","name":"Vandeventer School (historical)","fclName":"spot, building, farm","adminCodes1":{"ISO3166_2":"IL"},"countryName":"United States","fcodeName":"school","adminName1":"Illinois","lat":"39.89338","fcode":"SCH"},{"adminCode1":"IL","lng":"-90.68096","geonameId":4251943,"toponymName":"Varder Bridge","countryId":"6252001","fcl":"S","population":0,"countryCode":"US","name":"Varder Bridge","fclName":"spot, building, farm","adminCodes1":{"ISO3166_2":"IL"},"countryName":"United States","fcodeName":"bridge","adminName1":"Illinois","lat":"39.8506","fcode":"BDG"},{"adminCode1":"IL","lng":"-90.66985","geonameId":4240087,"toponymName":"Hall Cemetery","countryId":"6252001","fcl":"S","population":0,"countryCode":"US","name":"Hall Cemetery","fclName":"spot, building, farm","adminCodes1":{"ISO3166_2":"IL"},"countryName":"United States","fcodeName":"cemetery","adminName1":"Illinois","lat":"39.86144","fcode":"CMTY"},{"adminCode1":"IL","lng":"-90.67068","geonameId":4240096,"toponymName":"Hall School (historical)","countryId":"6252001","fcl":"S","population":0,"countryCode":"US","name":"Hall School (historical)","fclName":"spot, building, farm","adminCodes1":{"ISO3166_2":"IL"},"countryName":"United States","fcodeName":"school","adminName1":"Illinois","lat":"39.86199","fcode":"SCH"},{"adminCode1":"IL","lng":"-90.62985","geonameId":4240117,"toponymName":"Hambaugh Cemetery","countryId":"6252001","fcl":"S","population":0,"countryCode":"US","name":"Hambaugh Cemetery","fclName":"spot, building, farm","adminCodes1":{"ISO3166_2":"IL"},"countryName":"United States","fcodeName":"cemetery","adminName1":"Illinois","lat":"39.8656","fcode":"CMTY"},{"adminCode1":"IL","lng":"-90.63374","geonameId":4240118,"toponymName":"Hambaugh School (historical)","countryId":"6252001","fcl":"S","population":0,"countryCode":"US","name":"Hambaugh School (historical)","fclName":"spot, building, farm","adminCodes1":{"ISO3166_2":"IL"},"countryName":"United States","fcodeName":"school","adminName1":"Illinois","lat":"39.86171","fcode":"SCH"}]}
