{"totalResultsCount":28,"geonames":[{"adminCode1":"GA","lng":"-81.30344","geonameId":4218752,"toponymName":"Richmond Hill","countryId":"6252001","fcl":"P","population":11935,"countryCode":"US","name":"Richmond Hill","fclName":"city, village,...","adminCodes1":{"ISO3166_2":"GA"},"countryName":"United States","fcodeName":"populated place","adminName1":"Georgia","lat":"31.93827","fcode":"PPL"},{"adminCode1":"DE","lng":"-75.50103","geonameId":4145221,"toponymName":"Ways Corner","countryId":"6252001","fcl":"P","population":0,"countryCode":"US","name":"Ways Corner","fclName":"city, village,...","adminCodes1":{"ISO3166_2":"DE"},"countryName":"United States","fcodeName":"populated place","adminName1":"Delaware","lat":"39.82483","fcode":"PPL"},{"adminCode1":"MN","lng":"-95.27925","geonameId":5052126,"toponymName":"Ways Lake","countryId":"6252001","fcl":"H","population":0,"countryCode":"US","name":"Ways Lake","fclName":"stream, lake, ...","adminCodes1":{"ISO3166_2":"MN"},"countryName":"United States","fcodeName":"lake","adminName1":"Minnesota","lat":"47.19177","fcode":"LK"},{"adminCode1":"TX","lng":"-94.90631","geonameId":4670798,"toponymName":"Anderson Ways","countryId":"6252001","fcl":"P","population":0,"countryCode":"US","name":"Anderson Ways","fclName":"city, village,...","adminCodes1":{"ISO3166_2":"TX"},"countryName":"United States","fcodeName":"populated place","adminName1":"Texas","lat":"29.26079","fcode":"PPL"},{"adminCode1":"NJ","lng":"-74.57182","geonameId":4500487,"toponymName":"All Ways Memorial Park","countryId":"6252001","fcl":"L","population":0,"countryCode":"US","name":"All Ways Memorial Park","fclName":"parks,area, ...","adminCodes1":{"ISO3166_2":"NJ"},"countryName":"United States","fcodeName":"park","adminName1":"New Jersey","lat":"39.34595","fcode":"PRK"},{"adminCode1":"PA","lng":"-77.01941","geonameId":5218297,"toponymName":"Ways Garden Park","countryId":"6252001","fcl":"L","population":0,"countryCode":"US","name":"Ways Garden Park","fclName":"parks,area, ...","adminCodes1":{"ISO3166_2":"PA"},"countryName":"United States","fcodeName":"park","adminName1":"Pennsylvania","lat":"41.23924","fcode":"PRK"},{"adminCode1":"CO","lng":"-106.94366","geonameId":5583226,"toponymName":"Ways Gulch","countryId":"6252001","fcl":"T","population":0,"countryCode":"US","name":"Ways Gulch","fclName":"mountain,hill,rock,... ","adminCodes1":{"ISO3166_2":"CO"},"countryName":"United States","fcodeName":"valley","adminName1":"Colorado","lat":"40.79136","fcode":"VAL"},{"adminCode1":"GA","lng":"-82.33401","geonameId":4229807,"toponymName":"Ways Church","countryId":"6252001","fcl":"S","population":0,"countryCode":"US","name":"Ways Church","fclName":"spot, building, farm","adminCodes1":{"ISO3166_2":"GA"},"countryName":"United States","fcodeName":"church","adminName1":"Georgia","lat":"33.18237","fcode":"CH"},{"adminCode1":"MS","lng":"-90.03314","geonameId":4450428,"toponymName":"Way","countryId":"6252001","fcl":"P","population":0,"countryCode":"US","name":"Way","fclName":"city, village,...","adminCodes1":{"ISO3166_2":"MS"},"countryName":"United States","fcodeName":"populated place","adminName1":"Mississippi","lat":"32.74402","fcode":"PPL"},{"adminCode1":"NY","lng":"-76.41049","geonameId":5144774,"toponymName":"Winding Ways","countryId":"6252001","fcl":"P","population":0,"countryCode":"US","name":"Winding Ways","fclName":"city, village,...","adminCodes1":{"ISO3166_2":"NY"},"countryName":"United States","fcodeName":"populated place","adminName1":"New York","lat":"42.88896","fcode":"PPL"},{"adminCode1":"NY","lng":"-73.89347","geonameId":5144150,"toponymName":"Weys Corners","countryId":"6252001","fcl":"P","population":0,"countryCode":"US","name":"Weys Corners","fclName":"city, village,...","adminCodes1":{"ISO3166_2":"NY"},"countryName":"United States","fcodeName":"populated place","adminName1":"New York","lat":"41.95787","fcode":"PPL"},{"adminCode1":"VA","lng":"-77.73944","geonameId":4792537,"toponymName":"Ways Point","countryId":"6252001","fcl":"T","population":0,"countryCode":"US","name":"Ways Point","fclName":"mountain,hill,rock,... ","adminCodes1":{"ISO3166_2":"VA"},"countryName":"United States","fcodeName":"cape","adminName1":"Virginia","lat":"38.01042","fcode":"CAPE"},{"adminCode1":"GA","lng":"-82.33846","geonameId":4229809,"toponymName":"Ways Grove Church","countryId":"6252001","fcl":"S","population":0,"countryCode":"US","name":"Ways Grove Church","fclName":"spot, building, farm","adminCodes1":{"ISO3166_2":"GA"},"countryName":"United States","fcodeName":"church","adminName1":"Georgia","lat":"33.18681","fcode":"CH"},{"adminCode1":"TN","lng":"-88.84117","geonameId":4621493,"toponymName":"Fairview","countryId":"6252001","fcl":"P","population":0,"countryCode":"US","name":"Fairview","fclName":"city, village,...","adminCodes1":{"ISO3166_2":"TN"},"countryName":"United States","fcodeName":"populated place","adminName1":"Tennessee","lat":"35.76368","fcode":"PPL"},{"adminCode1":"NY","lng":"-73.92986","geonameId":5143459,"toponymName":"Ways Reef","countryId":"6252001","fcl":"T","population":0,"countryCode":"US","name":"Ways Reef","fclName":"mountain,hill,rock,... ","adminCodes1":{"ISO3166_2":"NY"},"countryName":"United States","fcodeName":"bar","adminName1":"New York","lat":"40.77788","fcode":"BAR"},{"adminCode1":"GA","lng":"-83.55879","geonameId":4228606,"toponymName":"WAYS-FM (Macon)","countryId":"6252001","fcl":"S","population":0,"countryCode":"US","name":"WAYS-FM (Macon)","fclName":"spot, building, farm","adminCodes1":{"ISO3166_2":"GA"},"countryName":"United States","fcodeName":"tower","adminName1":"Georgia","lat":"32.75292","fcode":"TOWR"},{"adminCode1":"GA","lng":"-82.33429","geonameId":4229805,"toponymName":"Ways Bridge","countryId":"6252001","fcl":"S","population":0,"countryCode":"US","name":"Ways Bridge","fclName":"spot, building, farm","adminCodes1":{"ISO3166_2":"GA"},"countryName":"United States","fcodeName":"bridge","adminName1":"Georgia","lat":"33.18098","fcode":"BDG"},{"adminCode1":"GA","lng":"-82.3329","geonameId":4229806,"toponymName":"Ways Cemetery","countryId":"6252001","fcl":"S","population":0,"countryCode":"US","name":"Ways Cemetery","fclName":"spot, building, farm","adminCodes1":{"ISO3166_2":"GA"},"countryName":"United States","fcodeName":"cemetery","adminName1":"Georgia","lat":"33.18237","fcode":"CMTY"},{"adminCode1":"GA","lng":"-82.33818","geonameId":4229808,"toponymName":"Ways Grove Cemetery","countryId":"6252001","fcl":"S","population":0,"countryCode":"US","name":"Ways Grove Cemetery","fclName":"spot, building, farm","adminCodes1":{"ISO3166_2":"GA"},"countryName":"United States","fcodeName":"cemetery","adminName1":"Georgia","lat":"33.18626","fcode":"CMTY"},{"adminCode1":"GA","lng":"-81.41177","geonameId":4229810,"toponymName":"Ways Temple","countryId":"6252001","fcl":"S","population":0,"countryCode":"US","name":"Ways Temple","fclName":"spot, building, farm","adminCodes1":{"ISO3166_2":"GA"},"countryName":"United States","fcodeName":"church","adminName1":"Georgia","lat":"31.70244","fcode":"CH"},{"adminCode1":"TX","lng":"-98.52861","geonameId":7207492,"toponymName":"Ways of Christ Church","countryId":"6252001","fcl":"S","population":0,"countryCode":"US","name":"Ways of Christ Church","fclName":"spot, building, farm","adminCodes1":{"ISO3166_2":"TX"},"countryName":"United States","fcodeName":"church","adminName1":"Texas","lat":"29.41627","fcode":"CH"},{"adminCode1":"TX","lng":"-94.80325","geonameId":4674071,"toponymName":"Bible Ways Church","countryId":"6252001","fcl":"S","population":0,"countryCode":"US","name":"Bible Ways Church","fclName":"spot, building, farm","adminCodes1":{"ISO3166_2":"TX"},"countryName":"United States","fcodeName":"church","adminName1":"Texas","lat":"29.29551","fcode":"CH"},{"adminCode1":"MA","lng":"-70.73337","geonameId":4946778,"toponymName":"Parting Ways Cemetery","countryId":"6252001","fcl":"S","population":0,"countryCode":"US","name":"Parting Ways Cemetery","fclName":"spot, building, farm","adminCodes1":{"ISO3166_2":"MA"},"countryName":"United States","fcodeName":"cemetery","adminName1":"Massachusetts","lat":"41.94594","fcode":"CMTY"},{"adminCode1":"AK","lng":"-131.66887","geonameId":11550046,"toponymName":"McKay Marine Ways (historical)","countryId":"6252001","fcl":"S","population":0,"countryCode":"US","name":"McKay Marine Ways (historical)","fclName":"spot, building, farm","adminCodes1":{"ISO3166_2":"AK"},"countryName":"United States","fcodeName":"building(s)","adminName1":"Alaska","lat":"55.34845","fcode":"BLDG"},{"adminCode1":"PA","lng":"-75.86661","geonameId":4562083,"toponymName":"Ways Run","countryId":"6252001","fcl":"H","population":0,"countryCode":"US","name":"Ways Run","fclName":"stream, lake, ...","adminCodes1":{"ISO3166_2":"PA"},"countryName":"United States","fcodeName":"stream","adminName1":"Pennsylvania","lat":"39.74622","fcode":"STM"},{"adminCode1":"CA","lng":"-120.66969","geonameId":7255469,"toponymName":"Awakening Ways Spiritual Community","countryId":"6252001","fcl":"S","population":0,"countryCode":"US","name":"Awakening Ways Spiritual Community","fclName":"spot, building, farm","adminCodes1":{"ISO3166_2":"CA"},"countryName":"United States","fcodeName":"church","adminName1":"California","lat":"35.46909","fcode":"CH"},{"adminCode1":"NH","lng":"-72.17564","geonameId":5094327,"toponymName":"Ways Brook","countryId":"6252001","fcl":"H","population":0,"countryCode":"US","name":"Ways Brook","fclName":"stream, lake, ...","adminCodes1":{"ISO3166_2":"NH"},"countryName":"United States","fcodeName":"stream","adminName1":"New Hampshire","lat":"43.24813","fcode":"STM"},{"adminCode1":"NC","lng":"-80.89424","geonameId":4496807,"toponymName":"WAYS-AM (Charlotte)","countryId":"6252001","fcl":"S","population":0,"countryCode":"US","name":"WAYS-AM (Charlotte)","fclName":"spot, building, farm","adminCodes1":{"ISO3166_2":"NC"},"countryName":"United States","fcodeName":"tower","adminName1":"North Carolina","lat":"35.2982","fcode":"TOWR"}]}
