{"totalResultsCount":2392,"geonames":[{"adminCode1":"PA","lng":"-79.76477","geonameId":5203211,"toponymName":"New Kensington","countryId":"6252001","fcl":"P","population":12713,"countryCode":"US","name":"New Kensington","fclName":"city, village,...","adminCodes1":{"ISO3166_2":"PA"},"countryName":"United States","fcodeName":"populated place","adminName1":"Pennsylvania","lat":"40.56979","fcode":"PPL"},{"adminCode1":"PA","lng":"-79.53893","geonameId":5192029,"toponymName":"Greensburg","countryId":"6252001","fcl":"P","population":14495,"countryCode":"US","name":"Greensburg","fclName":"city, village,...","adminCodes1":{"ISO3166_2":"PA"},"countryName":"United States","fcodeName":"seat of a second-order administrative division","adminName1":"Pennsylvania","lat":"40.30146","fcode":"PPLA2"},{"adminCode1":"PA","lng":"-79.40682","geonameId":5197215,"toponymName":"Arnold Palmer Regional Airport","countryId":"6252001","fcl":"S","population":0,"countryCode":"US","name":"Arnold Palmer Regional Airport","fclName":"spot, building, farm","adminCodes1":{"ISO3166_2":"PA"},"countryName":"United States","fcodeName":"airport","adminName1":"Pennsylvania","lat":"40.27223","fcode":"AIRP"},{"adminCode1":"PA","lng":"-79.46696","geonameId":5219013,"toponymName":"Westmoreland County","countryId":"6252001","fcl":"A","population":365169,"countryCode":"US","name":"Westmoreland","fclName":"country, state, region,...","adminCodes1":{"ISO3166_2":"PA"},"countryName":"United States","fcodeName":"second-order administrative division","adminName1":"Pennsylvania","lat":"40.31073","fcode":"ADM2"},{"adminCode1":"VA","lng":"-76.79991","geonameId":4793032,"toponymName":"Westmoreland County","countryId":"6252001","fcl":"A","population":17454,"countryCode":"US","name":"Westmoreland","fclName":"country, state, region,...","adminCodes1":{"ISO3166_2":"VA"},"countryName":"United States","fcodeName":"second-order administrative division","adminName1":"Virginia","lat":"38.11282","fcode":"ADM2"},{"adminCode1":"VA","lng":"-76.86413","geonameId":4793038,"toponymName":"Westmoreland State Park","countryId":"6252001","fcl":"L","population":0,"countryCode":"US","name":"Westmoreland State Park","fclName":"parks,area, ...","adminCodes1":{"ISO3166_2":"VA"},"countryName":"United States","fcodeName":"park","adminName1":"Virginia","lat":"38.1618","fcode":"PRK"},{"adminCode1":"VA","lng":"-76.96358","geonameId":4753654,"toponymName":"Colonial Beach","countryId":"6252001","fcl":"P","population":3580,"countryCode":"US","name":"Colonial Beach","fclName":"city, village,...","adminCodes1":{"ISO3166_2":"VA"},"countryName":"United States","fcodeName":"populated place","adminName1":"Virginia","lat":"38.25457","fcode":"PPL"},{"adminCode1":"PA","lng":"-79.69755","geonameId":5202765,"toponymName":"Murrysville","countryId":"6252001","fcl":"P","population":20134,"countryCode":"US","name":"Murrysville","fclName":"city, village,...","adminCodes1":{"ISO3166_2":"PA"},"countryName":"United States","fcodeName":"populated place","adminName1":"Pennsylvania","lat":"40.4284","fcode":"PPL"},{"adminCode1":"PA","lng":"-79.37948","geonameId":5197227,"toponymName":"Latrobe","countryId":"6252001","fcl":"P","population":8081,"countryCode":"US","name":"Latrobe","fclName":"city, village,...","adminCodes1":{"ISO3166_2":"PA"},"countryName":"United States","fcodeName":"populated place","adminName1":"Pennsylvania","lat":"40.32118","fcode":"PPL"},{"adminCode1":"VA","lng":"-76.66885","geonameId":4777315,"toponymName":"Oldhams","countryId":"6252001","fcl":"P","population":0,"countryCode":"US","name":"Oldhams","fclName":"city, village,...","adminCodes1":{"ISO3166_2":"VA"},"countryName":"United States","fcodeName":"populated place","adminName1":"Virginia","lat":"38.00263","fcode":"PPL"},{"adminCode1":"VA","lng":"-76.92079","geonameId":4760687,"toponymName":"George Washington Birthplace National Monument","countryId":"6252001","fcl":"L","population":0,"countryCode":"US","name":"George Washington Birthplace National Monument","fclName":"parks,area, ...","adminCodes1":{"ISO3166_2":"VA"},"countryName":"United States","fcodeName":"park","adminName1":"Virginia","lat":"38.19363","fcode":"PRK"},{"adminCode1":"PA","lng":"-79.8331","geonameId":5209100,"toponymName":"Rostraver Airport","countryId":"6252001","fcl":"S","population":0,"countryCode":"US","name":"Rostraver Airport","fclName":"spot, building, farm","adminCodes1":{"ISO3166_2":"PA"},"countryName":"United States","fcodeName":"airport","adminName1":"Pennsylvania","lat":"40.2084","fcode":"AIRP"},{"adminCode1":"PA","lng":"-79.57671","geonameId":5220405,"toponymName":"Youngwood","countryId":"6252001","fcl":"P","population":2956,"countryCode":"US","name":"Youngwood","fclName":"city, village,...","adminCodes1":{"ISO3166_2":"PA"},"countryName":"United States","fcodeName":"populated place","adminName1":"Pennsylvania","lat":"40.24035","fcode":"PPL"},{"adminCode1":"PA","lng":"-79.60948","geonameId":5203263,"toponymName":"New Stanton","countryId":"6252001","fcl":"P","population":2129,"countryCode":"US","name":"New Stanton","fclName":"city, village,...","adminCodes1":{"ISO3166_2":"PA"},"countryName":"United States","fcodeName":"populated place","adminName1":"Pennsylvania","lat":"40.21924","fcode":"PPL"},{"adminCode1":"PA","lng":"-79.58698","geonameId":5211279,"toponymName":"Scottdale","countryId":"6252001","fcl":"P","population":4251,"countryCode":"US","name":"Scottdale","fclName":"city, village,...","adminCodes1":{"ISO3166_2":"PA"},"countryName":"United States","fcodeName":"populated place","adminName1":"Pennsylvania","lat":"40.10035","fcode":"PPL"},{"adminCode1":"PA","lng":"-79.75727","geonameId":5199087,"toponymName":"Lower Burrell","countryId":"6252001","fcl":"P","population":11761,"countryCode":"US","name":"Lower Burrell","fclName":"city, village,...","adminCodes1":{"ISO3166_2":"PA"},"countryName":"United States","fcodeName":"populated place","adminName1":"Pennsylvania","lat":"40.55312","fcode":"PPL"},{"adminCode1":"PA","lng":"-79.36226","geonameId":5199209,"toponymName":"Loyalhanna","countryId":"6252001","fcl":"P","population":3428,"countryCode":"US","name":"Loyalhanna","fclName":"city, village,...","adminCodes1":{"ISO3166_2":"PA"},"countryName":"United States","fcodeName":"populated place","adminName1":"Pennsylvania","lat":"40.32257","fcode":"PPL"},{"adminCode1":"PA","lng":"-79.67004","geonameId":5199677,"toponymName":"Manor","countryId":"6252001","fcl":"P","population":3299,"countryCode":"US","name":"Manor","fclName":"city, village,...","adminCodes1":{"ISO3166_2":"PA"},"countryName":"United States","fcodeName":"populated place","adminName1":"Pennsylvania","lat":"40.33396","fcode":"PPL"},{"adminCode1":"PA","lng":"-79.88783","geonameId":5201665,"toponymName":"Monessen","countryId":"6252001","fcl":"P","population":7483,"countryCode":"US","name":"Monessen","fclName":"city, village,...","adminCodes1":{"ISO3166_2":"PA"},"countryName":"United States","fcodeName":"populated place","adminName1":"Pennsylvania","lat":"40.14841","fcode":"PPL"},{"adminCode1":"PA","lng":"-79.54115","geonameId":5202286,"toponymName":"Mount Pleasant","countryId":"6252001","fcl":"P","population":4363,"countryCode":"US","name":"Mount Pleasant","fclName":"city, village,...","adminCodes1":{"ISO3166_2":"PA"},"countryName":"United States","fcodeName":"populated place","adminName1":"Pennsylvania","lat":"40.14896","fcode":"PPL"},{"adminCode1":"PA","lng":"-79.75893","geonameId":5215921,"toponymName":"Trafford","countryId":"6252001","fcl":"P","population":3144,"countryCode":"US","name":"Trafford","fclName":"city, village,...","adminCodes1":{"ISO3166_2":"PA"},"countryName":"United States","fcodeName":"populated place","adminName1":"Pennsylvania","lat":"40.38562","fcode":"PPL"},{"adminCode1":"PA","lng":"-79.56477","geonameId":5217103,"toponymName":"Vandergrift","countryId":"6252001","fcl":"P","population":5032,"countryCode":"US","name":"Vandergrift","fclName":"city, village,...","adminCodes1":{"ISO3166_2":"PA"},"countryName":"United States","fcodeName":"populated place","adminName1":"Pennsylvania","lat":"40.60284","fcode":"PPL"},{"adminCode1":"PA","lng":"-79.76699","geonameId":5218822,"toponymName":"West Newton","countryId":"6252001","fcl":"P","population":2544,"countryCode":"US","name":"West Newton","fclName":"city, village,...","adminCodes1":{"ISO3166_2":"PA"},"countryName":"United States","fcodeName":"populated place","adminName1":"Pennsylvania","lat":"40.20979","fcode":"PPL"},{"adminCode1":"PA","lng":"-79.91589","geonameId":5192819,"toponymName":"Hartwood Acres Park","countryId":"6252001","fcl":"L","population":0,"countryCode":"US","name":"Hartwood Acres Park","fclName":"parks,area, ...","adminCodes1":{"ISO3166_2":"PA"},"countryName":"United States","fcodeName":"park","adminName1":"Pennsylvania","lat":"40.5684","fcode":"PRK"},{"adminCode1":"PA","lng":"-79.48532","geonameId":5182768,"toponymName":"Calumet","countryId":"6252001","fcl":"P","population":1241,"countryCode":"US","name":"Calumet","fclName":"city, village,...","adminCodes1":{"ISO3166_2":"PA"},"countryName":"United States","fcodeName":"populated place","adminName1":"Pennsylvania","lat":"40.2109","fcode":"PPL"},{"adminCode1":"PA","lng":"-79.57032","geonameId":5186717,"toponymName":"Delmont","countryId":"6252001","fcl":"P","population":2640,"countryCode":"US","name":"Delmont","fclName":"city, village,...","adminCodes1":{"ISO3166_2":"PA"},"countryName":"United States","fcodeName":"populated place","adminName1":"Pennsylvania","lat":"40.41312","fcode":"PPL"},{"adminCode1":"PA","lng":"-79.29976","geonameId":5186775,"toponymName":"Derry","countryId":"6252001","fcl":"P","population":2594,"countryCode":"US","name":"Derry","fclName":"city, village,...","adminCodes1":{"ISO3166_2":"PA"},"countryName":"United States","fcodeName":"populated place","adminName1":"Pennsylvania","lat":"40.33396","fcode":"PPL"},{"adminCode1":"PA","lng":"-79.70115","geonameId":5195024,"toponymName":"Irwin","countryId":"6252001","fcl":"P","population":3859,"countryCode":"US","name":"Irwin","fclName":"city, village,...","adminCodes1":{"ISO3166_2":"PA"},"countryName":"United States","fcodeName":"populated place","adminName1":"Pennsylvania","lat":"40.32451","fcode":"PPL"},{"adminCode1":"PA","lng":"-79.61532","geonameId":5195283,"toponymName":"Jeannette","countryId":"6252001","fcl":"P","population":9335,"countryCode":"US","name":"Jeannette","fclName":"city, village,...","adminCodes1":{"ISO3166_2":"PA"},"countryName":"United States","fcodeName":"populated place","adminName1":"Pennsylvania","lat":"40.32812","fcode":"PPL"},{"adminCode1":"PA","lng":"-79.38309","geonameId":5196126,"toponymName":"Keystone State Park","countryId":"6252001","fcl":"L","population":0,"countryCode":"US","name":"Keystone State Park","fclName":"parks,area, ...","adminCodes1":{"ISO3166_2":"PA"},"countryName":"United States","fcodeName":"park","adminName1":"Pennsylvania","lat":"40.37201","fcode":"PRK"},{"adminCode1":"PA","lng":"-79.23753","geonameId":5197989,"toponymName":"Ligonier","countryId":"6252001","fcl":"P","population":1540,"countryCode":"US","name":"Ligonier","fclName":"city, village,...","adminCodes1":{"ISO3166_2":"PA"},"countryName":"United States","fcodeName":"populated place","adminName1":"Pennsylvania","lat":"40.24313","fcode":"PPL"},{"adminCode1":"PA","lng":"-79.67699","geonameId":5219009,"toponymName":"Westmoreland City","countryId":"6252001","fcl":"P","population":0,"countryCode":"US","name":"Westmoreland City","fclName":"city, village,...","adminCodes1":{"ISO3166_2":"PA"},"countryName":"United States","fcodeName":"populated place","adminName1":"Pennsylvania","lat":"40.33118","fcode":"PPL"},{"adminCode1":"VA","lng":"-76.77496","geonameId":4789038,"toponymName":"Templeman","countryId":"6252001","fcl":"P","population":0,"countryCode":"US","name":"Templeman","fclName":"city, village,...","adminCodes1":{"ISO3166_2":"VA"},"countryName":"United States","fcodeName":"populated place","adminName1":"Virginia","lat":"38.07069","fcode":"PPL"},{"adminCode1":"PA","lng":"-79.85135","geonameId":7258901,"toponymName":"Lynnwood-Pricedale","countryId":"6252001","fcl":"P","population":2031,"countryCode":"US","name":"Lynnwood-Pricedale","fclName":"city, village,...","adminCodes1":{"ISO3166_2":"PA"},"countryName":"United States","fcodeName":"populated place","adminName1":"Pennsylvania","lat":"40.13071","fcode":"PPL"},{"adminCode1":"VA","lng":"-76.71802","geonameId":4774309,"toponymName":"Mount Holly","countryId":"6252001","fcl":"P","population":0,"countryCode":"US","name":"Mount Holly","fclName":"city, village,...","adminCodes1":{"ISO3166_2":"VA"},"countryName":"United States","fcodeName":"populated place","adminName1":"Virginia","lat":"38.09124","fcode":"PPL"},{"adminCode1":"VA","lng":"-76.73774","geonameId":4776196,"toponymName":"Nomini","countryId":"6252001","fcl":"P","population":0,"countryCode":"US","name":"Nomini","fclName":"city, village,...","adminCodes1":{"ISO3166_2":"VA"},"countryName":"United States","fcodeName":"populated place","adminName1":"Virginia","lat":"38.09846","fcode":"PPL"},{"adminCode1":"VA","lng":"-76.67471","geonameId":4747148,"toponymName":"Bettys Pond","countryId":"6252001","fcl":"H","population":0,"countryCode":"US","name":"Bettys Pond","fclName":"stream, lake, ...","adminCodes1":{"ISO3166_2":"VA"},"countryName":"United States","fcodeName":"lake","adminName1":"Virginia","lat":"38.15013","fcode":"LK"},{"adminCode1":"VA","lng":"-76.61607","geonameId":4747785,"toponymName":"Blackbeard Pond","countryId":"6252001","fcl":"H","population":0,"countryCode":"US","name":"Blackbeard Pond","fclName":"stream, lake, ...","adminCodes1":{"ISO3166_2":"VA"},"countryName":"United States","fcodeName":"lake","adminName1":"Virginia","lat":"38.14624","fcode":"LK"},{"adminCode1":"VA","lng":"-76.58079","geonameId":4767919,"toponymName":"Kinsale","countryId":"6252001","fcl":"P","population":0,"countryCode":"US","name":"Kinsale","fclName":"city, village,...","adminCodes1":{"ISO3166_2":"VA"},"countryName":"United States","fcodeName":"populated place","adminName1":"Virginia","lat":"38.02957","fcode":"PPL"},{"adminCode1":"VA","lng":"-76.99858","geonameId":4769104,"toponymName":"Leedstown","countryId":"6252001","fcl":"P","population":0,"countryCode":"US","name":"Leedstown","fclName":"city, village,...","adminCodes1":{"ISO3166_2":"VA"},"countryName":"United States","fcodeName":"populated place","adminName1":"Virginia","lat":"38.11152","fcode":"PPL"},{"adminCode1":"VA","lng":"-76.63551","geonameId":4753546,"toponymName":"Coles Point","countryId":"6252001","fcl":"P","population":0,"countryCode":"US","name":"Coles Point","fclName":"city, village,...","adminCodes1":{"ISO3166_2":"VA"},"countryName":"United States","fcodeName":"populated place","adminName1":"Virginia","lat":"38.14374","fcode":"PPL"},{"adminCode1":"VA","lng":"-76.65107","geonameId":4762699,"toponymName":"Hague","countryId":"6252001","fcl":"P","population":0,"countryCode":"US","name":"Hague","fclName":"city, village,...","adminCodes1":{"ISO3166_2":"VA"},"countryName":"United States","fcodeName":"populated place","adminName1":"Virginia","lat":"38.07235","fcode":"PPL"},{"adminCode1":"PA","lng":"-79.45087","geonameId":5206533,"toponymName":"Pleasant Unity","countryId":"6252001","fcl":"P","population":0,"countryCode":"US","name":"Pleasant Unity","fclName":"city, village,...","adminCodes1":{"ISO3166_2":"PA"},"countryName":"United States","fcodeName":"populated place","adminName1":"Pennsylvania","lat":"40.23951","fcode":"PPL"},{"adminCode1":"PA","lng":"-79.23864","geonameId":5207757,"toponymName":"Rector","countryId":"6252001","fcl":"P","population":0,"countryCode":"US","name":"Rector","fclName":"city, village,...","adminCodes1":{"ISO3166_2":"PA"},"countryName":"United States","fcodeName":"populated place","adminName1":"Pennsylvania","lat":"40.19674","fcode":"PPL"},{"adminCode1":"PA","lng":"-79.73116","geonameId":5208357,"toponymName":"Rillton","countryId":"6252001","fcl":"P","population":0,"countryCode":"US","name":"Rillton","fclName":"city, village,...","adminCodes1":{"ISO3166_2":"PA"},"countryName":"United States","fcodeName":"populated place","adminName1":"Pennsylvania","lat":"40.28924","fcode":"PPL"},{"adminCode1":"PA","lng":"-79.6081","geonameId":5209261,"toponymName":"Ruffs Dale","countryId":"6252001","fcl":"P","population":0,"countryCode":"US","name":"Ruffs Dale","fclName":"city, village,...","adminCodes1":{"ISO3166_2":"PA"},"countryName":"United States","fcodeName":"populated place","adminName1":"Pennsylvania","lat":"40.17507","fcode":"PPL"},{"adminCode1":"PA","lng":"-79.41031","geonameId":5219346,"toponymName":"Whitney","countryId":"6252001","fcl":"P","population":0,"countryCode":"US","name":"Whitney","fclName":"city, village,...","adminCodes1":{"ISO3166_2":"PA"},"countryName":"United States","fcodeName":"populated place","adminName1":"Pennsylvania","lat":"40.2534","fcode":"PPL"},{"adminCode1":"PA","lng":"-79.69726","geonameId":5220193,"toponymName":"Wyano","countryId":"6252001","fcl":"P","population":484,"countryCode":"US","name":"Wyano","fclName":"city, village,...","adminCodes1":{"ISO3166_2":"PA"},"countryName":"United States","fcodeName":"populated place","adminName1":"Pennsylvania","lat":"40.19729","fcode":"PPL"},{"adminCode1":"PA","lng":"-79.36559","geonameId":5220398,"toponymName":"Youngstown","countryId":"6252001","fcl":"P","population":316,"countryCode":"US","name":"Youngstown","fclName":"city, village,...","adminCodes1":{"ISO3166_2":"PA"},"countryName":"United States","fcodeName":"populated place","adminName1":"Pennsylvania","lat":"40.27979","fcode":"PPL"},{"adminCode1":"PA","lng":"-79.68282","geonameId":5220412,"toponymName":"Yukon","countryId":"6252001","fcl":"P","population":677,"countryCode":"US","name":"Yukon","fclName":"city, village,...","adminCodes1":{"ISO3166_2":"PA"},"countryName":"United States","fcodeName":"populated place","adminName1":"Pennsylvania","lat":"40.21257","fcode":"PPL"},{"adminCode1":"PA","lng":"-79.42198","geonameId":5203094,"toponymName":"New Alexandria","countryId":"6252001","fcl":"P","population":560,"countryCode":"US","name":"New Alexandria","fclName":"city, village,...","adminCodes1":{"ISO3166_2":"PA"},"countryName":"United States","fcodeName":"populated place","adminName1":"Pennsylvania","lat":"40.39868","fcode":"PPL"},{"adminCode1":"PA","lng":"-79.31642","geonameId":5203152,"toponymName":"New Derry","countryId":"6252001","fcl":"P","population":0,"countryCode":"US","name":"New Derry","fclName":"city, village,...","adminCodes1":{"ISO3166_2":"PA"},"countryName":"United States","fcodeName":"populated place","adminName1":"Pennsylvania","lat":"40.35063","fcode":"PPL"},{"adminCode1":"PA","lng":"-79.07531","geonameId":5203168,"toponymName":"New Florence","countryId":"6252001","fcl":"P","population":666,"countryCode":"US","name":"New Florence","fclName":"city, village,...","adminCodes1":{"ISO3166_2":"PA"},"countryName":"United States","fcodeName":"populated place","adminName1":"Pennsylvania","lat":"40.38035","fcode":"PPL"},{"adminCode1":"PA","lng":"-79.8681","geonameId":5203529,"toponymName":"North Belle Vernon","countryId":"6252001","fcl":"P","population":1905,"countryCode":"US","name":"North Belle Vernon","fclName":"city, village,...","adminCodes1":{"ISO3166_2":"PA"},"countryName":"United States","fcodeName":"populated place","adminName1":"Pennsylvania","lat":"40.12924","fcode":"PPL"},{"adminCode1":"PA","lng":"-79.49754","geonameId":5203886,"toponymName":"Norvelt","countryId":"6252001","fcl":"P","population":948,"countryCode":"US","name":"Norvelt","fclName":"city, village,...","adminCodes1":{"ISO3166_2":"PA"},"countryName":"United States","fcodeName":"populated place","adminName1":"Pennsylvania","lat":"40.20813","fcode":"PPL"},{"adminCode1":"PA","lng":"-79.64115","geonameId":5205359,"toponymName":"Penn","countryId":"6252001","fcl":"P","population":478,"countryCode":"US","name":"Penn","fclName":"city, village,...","adminCodes1":{"ISO3166_2":"PA"},"countryName":"United States","fcodeName":"populated place","adminName1":"Pennsylvania","lat":"40.32896","fcode":"PPL"},{"adminCode1":"PA","lng":"-79.60847","geonameId":5206381,"toponymName":"Greensburg Jeannette Regional Airport","countryId":"6252001","fcl":"S","population":0,"countryCode":"US","name":"Greensburg Jeannette Regional Airport","fclName":"spot, building, farm","adminCodes1":{"ISO3166_2":"PA"},"countryName":"United States","fcodeName":"airport","adminName1":"Pennsylvania","lat":"40.37797","fcode":"AIRP"},{"adminCode1":"PA","lng":"-79.02003","geonameId":5211504,"toponymName":"Seward","countryId":"6252001","fcl":"P","population":477,"countryCode":"US","name":"Seward","fclName":"city, village,...","adminCodes1":{"ISO3166_2":"PA"},"countryName":"United States","fcodeName":"populated place","adminName1":"Pennsylvania","lat":"40.41424","fcode":"PPL"},{"adminCode1":"PA","lng":"-79.5231","geonameId":5212501,"toponymName":"Slickville","countryId":"6252001","fcl":"P","population":388,"countryCode":"US","name":"Slickville","fclName":"city, village,...","adminCodes1":{"ISO3166_2":"PA"},"countryName":"United States","fcodeName":"populated place","adminName1":"Pennsylvania","lat":"40.45979","fcode":"PPL"},{"adminCode1":"PA","lng":"-79.74115","geonameId":5212680,"toponymName":"Smithton","countryId":"6252001","fcl":"P","population":381,"countryCode":"US","name":"Smithton","fclName":"city, village,...","adminCodes1":{"ISO3166_2":"PA"},"countryName":"United States","fcodeName":"populated place","adminName1":"Pennsylvania","lat":"40.15396","fcode":"PPL"},{"adminCode1":"PA","lng":"-79.54476","geonameId":5213024,"toponymName":"South Greensburg","countryId":"6252001","fcl":"P","population":2054,"countryCode":"US","name":"South Greensburg","fclName":"city, village,...","adminCodes1":{"ISO3166_2":"PA"},"countryName":"United States","fcodeName":"populated place","adminName1":"Pennsylvania","lat":"40.2784","fcode":"PPL"},{"adminCode1":"PA","lng":"-79.52087","geonameId":5213165,"toponymName":"Southwest","countryId":"6252001","fcl":"P","population":0,"countryCode":"US","name":"Southwest","fclName":"city, village,...","adminCodes1":{"ISO3166_2":"PA"},"countryName":"United States","fcodeName":"populated place","adminName1":"Pennsylvania","lat":"40.19896","fcode":"PPL"},{"adminCode1":"PA","lng":"-79.54698","geonameId":5213167,"toponymName":"Southwest Greensburg","countryId":"6252001","fcl":"P","population":2086,"countryCode":"US","name":"Southwest Greensburg","fclName":"city, village,...","adminCodes1":{"ISO3166_2":"PA"},"countryName":"United States","fcodeName":"populated place","adminName1":"Pennsylvania","lat":"40.29118","fcode":"PPL"},{"adminCode1":"PA","lng":"-79.33281","geonameId":5213604,"toponymName":"Stahlstown","countryId":"6252001","fcl":"P","population":0,"countryCode":"US","name":"Stahlstown","fclName":"city, village,...","adminCodes1":{"ISO3166_2":"PA"},"countryName":"United States","fcodeName":"populated place","adminName1":"Pennsylvania","lat":"40.15007","fcode":"PPL"},{"adminCode1":"PA","lng":"-79.79921","geonameId":5214937,"toponymName":"Sutersville","countryId":"6252001","fcl":"P","population":583,"countryCode":"US","name":"Sutersville","fclName":"city, village,...","adminCodes1":{"ISO3166_2":"PA"},"countryName":"United States","fcodeName":"populated place","adminName1":"Pennsylvania","lat":"40.23618","fcode":"PPL"},{"adminCode1":"PA","lng":"-79.77088","geonameId":5199068,"toponymName":"Lowber","countryId":"6252001","fcl":"P","population":0,"countryCode":"US","name":"Lowber","fclName":"city, village,...","adminCodes1":{"ISO3166_2":"PA"},"countryName":"United States","fcodeName":"populated place","adminName1":"Pennsylvania","lat":"40.2459","fcode":"PPL"},{"adminCode1":"PA","lng":"-79.47809","geonameId":5199306,"toponymName":"Luxor","countryId":"6252001","fcl":"P","population":0,"countryCode":"US","name":"Luxor","fclName":"city, village,...","adminCodes1":{"ISO3166_2":"PA"},"countryName":"United States","fcodeName":"populated place","adminName1":"Pennsylvania","lat":"40.33424","fcode":"PPL"},{"adminCode1":"PA","lng":"-79.67726","geonameId":5199446,"toponymName":"Madison","countryId":"6252001","fcl":"P","population":379,"countryCode":"US","name":"Madison","fclName":"city, village,...","adminCodes1":{"ISO3166_2":"PA"},"countryName":"United States","fcodeName":"populated place","adminName1":"Pennsylvania","lat":"40.24729","fcode":"PPL"},{"adminCode1":"PA","lng":"-79.46309","geonameId":5199604,"toponymName":"Mammoth","countryId":"6252001","fcl":"P","population":525,"countryCode":"US","name":"Mammoth","fclName":"city, village,...","adminCodes1":{"ISO3166_2":"PA"},"countryName":"United States","fcodeName":"populated place","adminName1":"Pennsylvania","lat":"40.2009","fcode":"PPL"},{"adminCode1":"PA","lng":"-79.5981","geonameId":5215238,"toponymName":"Tarrs","countryId":"6252001","fcl":"P","population":0,"countryCode":"US","name":"Tarrs","fclName":"city, village,...","adminCodes1":{"ISO3166_2":"PA"},"countryName":"United States","fcodeName":"populated place","adminName1":"Pennsylvania","lat":"40.17007","fcode":"PPL"},{"adminCode1":"PA","lng":"-79.22281","geonameId":5215834,"toponymName":"Torrance","countryId":"6252001","fcl":"P","population":0,"countryCode":"US","name":"Torrance","fclName":"city, village,...","adminCodes1":{"ISO3166_2":"PA"},"countryName":"United States","fcodeName":"populated place","adminName1":"Pennsylvania","lat":"40.41729","fcode":"PPL"},{"adminCode1":"PA","lng":"-79.48782","geonameId":5216734,"toponymName":"United","countryId":"6252001","fcl":"P","population":0,"countryCode":"US","name":"United","fclName":"city, village,...","adminCodes1":{"ISO3166_2":"PA"},"countryName":"United States","fcodeName":"populated place","adminName1":"Pennsylvania","lat":"40.2184","fcode":"PPL"},{"adminCode1":"PA","lng":"-79.84866","geonameId":5218345,"toponymName":"Webster","countryId":"6252001","fcl":"P","population":255,"countryCode":"US","name":"Webster","fclName":"city, village,...","adminCodes1":{"ISO3166_2":"PA"},"countryName":"United States","fcodeName":"populated place","adminName1":"Pennsylvania","lat":"40.18507","fcode":"PPL"},{"adminCode1":"PA","lng":"-79.68643","geonameId":5218466,"toponymName":"Wendel","countryId":"6252001","fcl":"P","population":0,"countryCode":"US","name":"Wendel","fclName":"city, village,...","adminCodes1":{"ISO3166_2":"PA"},"countryName":"United States","fcodeName":"populated place","adminName1":"Pennsylvania","lat":"40.29563","fcode":"PPL"},{"adminCode1":"PA","lng":"-79.61282","geonameId":5218773,"toponymName":"West Leechburg","countryId":"6252001","fcl":"P","population":1294,"countryCode":"US","name":"West Leechburg","fclName":"city, village,...","adminCodes1":{"ISO3166_2":"PA"},"countryName":"United States","fcodeName":"populated place","adminName1":"Pennsylvania","lat":"40.62229","fcode":"PPL"},{"adminCode1":"VA","lng":"-76.78219","geonameId":4795025,"toponymName":"Zacata","countryId":"6252001","fcl":"P","population":0,"countryCode":"US","name":"Zacata","fclName":"city, village,...","adminCodes1":{"ISO3166_2":"VA"},"countryName":"United States","fcodeName":"populated place","adminName1":"Virginia","lat":"38.12013","fcode":"PPL"},{"adminCode1":"PA","lng":"-79.73504","geonameId":5178463,"toponymName":"Ardara","countryId":"6252001","fcl":"P","population":0,"countryCode":"US","name":"Ardara","fclName":"city, village,...","adminCodes1":{"ISO3166_2":"PA"},"countryName":"United States","fcodeName":"populated place","adminName1":"Pennsylvania","lat":"40.35785","fcode":"PPL"},{"adminCode1":"PA","lng":"-79.55115","geonameId":5178501,"toponymName":"Armbrust","countryId":"6252001","fcl":"P","population":0,"countryCode":"US","name":"Armbrust","fclName":"city, village,...","adminCodes1":{"ISO3166_2":"PA"},"countryName":"United States","fcodeName":"populated place","adminName1":"Pennsylvania","lat":"40.22368","fcode":"PPL"},{"adminCode1":"PA","lng":"-79.76672","geonameId":5178527,"toponymName":"Arnold","countryId":"6252001","fcl":"P","population":4988,"countryCode":"US","name":"Arnold","fclName":"city, village,...","adminCodes1":{"ISO3166_2":"PA"},"countryName":"United States","fcodeName":"populated place","adminName1":"Pennsylvania","lat":"40.58007","fcode":"PPL"},{"adminCode1":"PA","lng":"-79.66143","geonameId":5178543,"toponymName":"Arona","countryId":"6252001","fcl":"P","population":352,"countryCode":"US","name":"Arona","fclName":"city, village,...","adminCodes1":{"ISO3166_2":"PA"},"countryName":"United States","fcodeName":"populated place","adminName1":"Pennsylvania","lat":"40.26924","fcode":"PPL"},{"adminCode1":"PA","lng":"-79.46143","geonameId":5178749,"toponymName":"Avonmore","countryId":"6252001","fcl":"P","population":982,"countryCode":"US","name":"Avonmore","fclName":"city, village,...","adminCodes1":{"ISO3166_2":"PA"},"countryName":"United States","fcodeName":"populated place","adminName1":"Pennsylvania","lat":"40.52895","fcode":"PPL"},{"adminCode1":"PA","lng":"-79.1517","geonameId":5181145,"toponymName":"Bolivar","countryId":"6252001","fcl":"P","population":446,"countryCode":"US","name":"Bolivar","fclName":"city, village,...","adminCodes1":{"ISO3166_2":"PA"},"countryName":"United States","fcodeName":"populated place","adminName1":"Pennsylvania","lat":"40.39701","fcode":"PPL"},{"adminCode1":"PA","lng":"-79.50337","geonameId":5181278,"toponymName":"Bovard","countryId":"6252001","fcl":"P","population":0,"countryCode":"US","name":"Bovard","fclName":"city, village,...","adminCodes1":{"ISO3166_2":"PA"},"countryName":"United States","fcodeName":"populated place","adminName1":"Pennsylvania","lat":"40.31979","fcode":"PPL"},{"adminCode1":"PA","lng":"-79.34004","geonameId":5181405,"toponymName":"Bradenville","countryId":"6252001","fcl":"P","population":545,"countryCode":"US","name":"Bradenville","fclName":"city, village,...","adminCodes1":{"ISO3166_2":"PA"},"countryName":"United States","fcodeName":"populated place","adminName1":"Pennsylvania","lat":"40.32146","fcode":"PPL"},{"adminCode1":"PA","lng":"-79.42865","geonameId":5177826,"toponymName":"Acme","countryId":"6252001","fcl":"P","population":0,"countryCode":"US","name":"Acme","fclName":"city, village,...","adminCodes1":{"ISO3166_2":"PA"},"countryName":"United States","fcodeName":"populated place","adminName1":"Pennsylvania","lat":"40.12674","fcode":"PPL"},{"adminCode1":"PA","lng":"-79.65615","geonameId":5177870,"toponymName":"Adamsburg","countryId":"6252001","fcl":"P","population":169,"countryCode":"US","name":"Adamsburg","fclName":"city, village,...","adminCodes1":{"ISO3166_2":"PA"},"countryName":"United States","fcodeName":"populated place","adminName1":"Pennsylvania","lat":"40.31174","fcode":"PPL"},{"adminCode1":"PA","lng":"-79.58726","geonameId":5178212,"toponymName":"Alverton","countryId":"6252001","fcl":"P","population":0,"countryCode":"US","name":"Alverton","fclName":"city, village,...","adminCodes1":{"ISO3166_2":"PA"},"countryName":"United States","fcodeName":"populated place","adminName1":"Pennsylvania","lat":"40.14007","fcode":"PPL"},{"adminCode1":"PA","lng":"-79.6056","geonameId":5191693,"toponymName":"Grapeville","countryId":"6252001","fcl":"P","population":538,"countryCode":"US","name":"Grapeville","fclName":"city, village,...","adminCodes1":{"ISO3166_2":"PA"},"countryName":"United States","fcodeName":"populated place","adminName1":"Pennsylvania","lat":"40.32535","fcode":"PPL"},{"adminCode1":"PA","lng":"-79.49671","geonameId":5192596,"toponymName":"Hannastown","countryId":"6252001","fcl":"P","population":0,"countryCode":"US","name":"Hannastown","fclName":"city, village,...","adminCodes1":{"ISO3166_2":"PA"},"countryName":"United States","fcodeName":"populated place","adminName1":"Pennsylvania","lat":"40.35368","fcode":"PPL"},{"adminCode1":"PA","lng":"-79.64838","geonameId":5192742,"toponymName":"Harrison City","countryId":"6252001","fcl":"P","population":134,"countryCode":"US","name":"Harrison City","fclName":"city, village,...","adminCodes1":{"ISO3166_2":"PA"},"countryName":"United States","fcodeName":"populated place","adminName1":"Pennsylvania","lat":"40.35424","fcode":"PPL"},{"adminCode1":"PA","lng":"-79.71754","geonameId":5193305,"toponymName":"Herminie","countryId":"6252001","fcl":"P","population":789,"countryCode":"US","name":"Herminie","fclName":"city, village,...","adminCodes1":{"ISO3166_2":"PA"},"countryName":"United States","fcodeName":"populated place","adminName1":"Pennsylvania","lat":"40.2634","fcode":"PPL"},{"adminCode1":"PA","lng":"-79.39837","geonameId":5194343,"toponymName":"Hostetter","countryId":"6252001","fcl":"P","population":740,"countryCode":"US","name":"Hostetter","fclName":"city, village,...","adminCodes1":{"ISO3166_2":"PA"},"countryName":"United States","fcodeName":"populated place","adminName1":"Pennsylvania","lat":"40.26618","fcode":"PPL"},{"adminCode1":"PA","lng":"-79.62226","geonameId":5184420,"toponymName":"Claridge","countryId":"6252001","fcl":"P","population":0,"countryCode":"US","name":"Claridge","fclName":"city, village,...","adminCodes1":{"ISO3166_2":"PA"},"countryName":"United States","fcodeName":"populated place","adminName1":"Pennsylvania","lat":"40.36562","fcode":"PPL"},{"adminCode1":"PA","lng":"-79.76838","geonameId":5184984,"toponymName":"Collinsburg","countryId":"6252001","fcl":"P","population":1125,"countryCode":"US","name":"Collinsburg","fclName":"city, village,...","adminCodes1":{"ISO3166_2":"PA"},"countryName":"United States","fcodeName":"populated place","adminName1":"Pennsylvania","lat":"40.22424","fcode":"PPL"},{"adminCode1":"PA","lng":"-79.47059","geonameId":5185706,"toponymName":"Crabtree","countryId":"6252001","fcl":"P","population":277,"countryCode":"US","name":"Crabtree","fclName":"city, village,...","adminCodes1":{"ISO3166_2":"PA"},"countryName":"United States","fcodeName":"populated place","adminName1":"Pennsylvania","lat":"40.36229","fcode":"PPL"},{"adminCode1":"PA","lng":"-79.67865","geonameId":5186370,"toponymName":"Darragh","countryId":"6252001","fcl":"P","population":0,"countryCode":"US","name":"Darragh","fclName":"city, village,...","adminCodes1":{"ISO3166_2":"PA"},"countryName":"United States","fcodeName":"populated place","adminName1":"Pennsylvania","lat":"40.26646","fcode":"PPL"},{"adminCode1":"PA","lng":"-79.38254","geonameId":5187110,"toponymName":"Donegal","countryId":"6252001","fcl":"P","population":119,"countryCode":"US","name":"Donegal","fclName":"city, village,...","adminCodes1":{"ISO3166_2":"PA"},"countryName":"United States","fcodeName":"populated place","adminName1":"Pennsylvania","lat":"40.11257","fcode":"PPL"},{"adminCode1":"PA","lng":"-79.56116","geonameId":5188097,"toponymName":"East Vandergrift","countryId":"6252001","fcl":"P","population":652,"countryCode":"US","name":"East Vandergrift","fclName":"city, village,...","adminCodes1":{"ISO3166_2":"PA"},"countryName":"United States","fcodeName":"populated place","adminName1":"Pennsylvania","lat":"40.59812","fcode":"PPL"},{"adminCode1":"PA","lng":"-79.6256","geonameId":5189019,"toponymName":"Export","countryId":"6252001","fcl":"P","population":883,"countryCode":"US","name":"Export","fclName":"city, village,...","adminCodes1":{"ISO3166_2":"PA"},"countryName":"United States","fcodeName":"populated place","adminName1":"Pennsylvania","lat":"40.41812","fcode":"PPL"},{"adminCode1":"PA","lng":"-79.82421","geonameId":5189445,"toponymName":"Fellsburg","countryId":"6252001","fcl":"P","population":1180,"countryCode":"US","name":"Fellsburg","fclName":"city, village,...","adminCodes1":{"ISO3166_2":"PA"},"countryName":"United States","fcodeName":"populated place","adminName1":"Pennsylvania","lat":"40.18313","fcode":"PPL"}]}
