{"totalResultsCount":183,"geonames":[{"adminCode1":"AR","lng":"-93.39352","geonameId":4107630,"toponymName":"Danville","countryId":"6252001","fcl":"P","population":2350,"countryCode":"US","name":"Danville","fclName":"city, village,...","adminCodes1":{"ISO3166_2":"AR"},"countryName":"United States","fcodeName":"populated place","adminName1":"Arkansas","lat":"35.05398","fcode":"PPL"},{"adminCode1":"CA","lng":"-121.99996","geonameId":5341531,"toponymName":"Danville","countryId":"6252001","fcl":"P","population":44400,"countryCode":"US","name":"Danville","fclName":"city, village,...","adminCodes1":{"ISO3166_2":"CA"},"countryName":"United States","fcodeName":"populated place","adminName1":"California","lat":"37.82159","fcode":"PPL"},{"adminCode1":"VT","lng":"-72.1951","geonameId":5242676,"toponymName":"West Danville","countryId":"6252001","fcl":"P","population":0,"countryCode":"US","name":"West Danville","fclName":"city, village,...","adminCodes1":{"ISO3166_2":"VT"},"countryName":"United States","fcodeName":"populated place","adminName1":"Vermont","lat":"44.4095","fcode":"PPL"},{"adminCode1":"KS","lng":"-97.892","geonameId":4270225,"toponymName":"Danville","countryId":"6252001","fcl":"P","population":36,"countryCode":"US","name":"Danville","fclName":"city, village,...","adminCodes1":{"ISO3166_2":"KS"},"countryName":"United States","fcodeName":"populated place","adminName1":"Kansas","lat":"37.28613","fcode":"PPL"},{"adminCode1":"MO","lng":"-91.53489","geonameId":4383291,"toponymName":"Danville","countryId":"6252001","fcl":"P","population":34,"countryCode":"US","name":"Danville","fclName":"city, village,...","adminCodes1":{"ISO3166_2":"MO"},"countryName":"United States","fcodeName":"populated place","adminName1":"Missouri","lat":"38.9106","fcode":"PPL"},{"adminCode1":"IA","lng":"-91.3146","geonameId":4853392,"toponymName":"Danville","countryId":"6252001","fcl":"P","population":936,"countryCode":"US","name":"Danville","fclName":"city, village,...","adminCodes1":{"ISO3166_2":"IA"},"countryName":"United States","fcodeName":"populated place","adminName1":"Iowa","lat":"40.86448","fcode":"PPL"},{"adminCode1":"AR","lng":"-93.43232","geonameId":8096357,"toponymName":"Danville Municipal Airport","countryId":"6252001","fcl":"S","population":0,"countryCode":"US","name":"Danville Municipal Airport","fclName":"spot, building, farm","adminCodes1":{"ISO3166_2":"AR"},"countryName":"United States","fcodeName":"airport","adminName1":"Arkansas","lat":"35.08694","fcode":"AIRP"},{"adminCode1":"WA","lng":"-118.50808","geonameId":5791771,"toponymName":"Danville","countryId":"6252001","fcl":"P","population":34,"countryCode":"US","name":"Danville","fclName":"city, village,...","adminCodes1":{"ISO3166_2":"WA"},"countryName":"United States","fcodeName":"populated place","adminName1":"Washington","lat":"48.9924","fcode":"PPL"},{"adminCode1":"MO","lng":"-91.44822","geonameId":4400253,"toponymName":"New Florence","countryId":"6252001","fcl":"P","population":728,"countryCode":"US","name":"New Florence","fclName":"city, village,...","adminCodes1":{"ISO3166_2":"MO"},"countryName":"United States","fcodeName":"populated place","adminName1":"Missouri","lat":"38.91032","fcode":"PPL"},{"adminCode1":"MO","lng":"-91.53116","geonameId":4383293,"toponymName":"Township of Danville","countryId":"6252001","fcl":"A","population":0,"countryCode":"US","name":"Danville Township","fclName":"country, state, region,...","adminCodes1":{"ISO3166_2":"MO"},"countryName":"United States","fcodeName":"third-order administrative division","adminName1":"Missouri","lat":"38.88819","fcode":"ADM3"},{"adminCode1":"AR","lng":"-93.39061","geonameId":4107635,"toponymName":"Township of Danville","countryId":"6252001","fcl":"A","population":0,"countryCode":"US","name":"Danville Township","fclName":"country, state, region,...","adminCodes1":{"ISO3166_2":"AR"},"countryName":"United States","fcodeName":"third-order administrative division","adminName1":"Arkansas","lat":"35.04737","fcode":"ADM3"},{"adminCode1":"IA","lng":"-93.31948","geonameId":4853403,"toponymName":"Township of Danville","countryId":"6252001","fcl":"A","population":0,"countryCode":"US","name":"Danville Township","fclName":"country, state, region,...","adminCodes1":{"ISO3166_2":"IA"},"countryName":"United States","fcodeName":"third-order administrative division","adminName1":"Iowa","lat":"43.29901","fcode":"ADM3"},{"adminCode1":"TX","lng":"-94.82688","geonameId":4685216,"toponymName":"Danville","countryId":"6252001","fcl":"P","population":0,"countryCode":"US","name":"Danville","fclName":"city, village,...","adminCodes1":{"ISO3166_2":"TX"},"countryName":"United States","fcodeName":"populated place","adminName1":"Texas","lat":"32.40098","fcode":"PPL"},{"adminCode1":"WV","lng":"-81.83401","geonameId":4803635,"toponymName":"Danville","countryId":"6252001","fcl":"P","population":655,"countryCode":"US","name":"Danville","fclName":"city, village,...","adminCodes1":{"ISO3166_2":"WV"},"countryName":"United States","fcodeName":"populated place","adminName1":"West Virginia","lat":"38.08093","fcode":"PPL"},{"adminCode1":"MO","lng":"-91.57155","geonameId":4398528,"toponymName":"Mineola","countryId":"6252001","fcl":"P","population":0,"countryCode":"US","name":"Mineola","fclName":"city, village,...","adminCodes1":{"ISO3166_2":"MO"},"countryName":"United States","fcodeName":"populated place","adminName1":"Missouri","lat":"38.8881","fcode":"PPL"},{"adminCode1":"AR","lng":"-93.42935","geonameId":4106638,"toponymName":"Corinth","countryId":"6252001","fcl":"P","population":69,"countryCode":"US","name":"Corinth","fclName":"city, village,...","adminCodes1":{"ISO3166_2":"AR"},"countryName":"United States","fcodeName":"populated place","adminName1":"Arkansas","lat":"35.07342","fcode":"PPL"},{"adminCode1":"IL","lng":"-87.7053","geonameId":4895279,"toponymName":"Hartshorn","countryId":"6252001","fcl":"P","population":0,"countryCode":"US","name":"Hartshorn","fclName":"city, village,...","adminCodes1":{"ISO3166_2":"IL"},"countryName":"United States","fcodeName":"populated place","adminName1":"Illinois","lat":"40.12976","fcode":"PPL"},{"adminCode1":"IA","lng":"-91.31726","geonameId":4853402,"toponymName":"Township of Danville","countryId":"6252001","fcl":"A","population":0,"countryCode":"US","name":"Danville Township","fclName":"country, state, region,...","adminCodes1":{"ISO3166_2":"IA"},"countryName":"United States","fcodeName":"third-order administrative division","adminName1":"Iowa","lat":"40.84274","fcode":"ADM3"},{"adminCode1":"MN","lng":"-93.82808","geonameId":5023850,"toponymName":"Township of Danville","countryId":"6252001","fcl":"A","population":0,"countryCode":"US","name":"Danville Township","fclName":"country, state, region,...","adminCodes1":{"ISO3166_2":"MN"},"countryName":"United States","fcodeName":"third-order administrative division","adminName1":"Minnesota","lat":"43.89166","fcode":"ADM3"},{"adminCode1":"KS","lng":"-97.89207","geonameId":7163063,"toponymName":"City of Danville","countryId":"6252001","fcl":"A","population":38,"countryCode":"US","name":"City of Danville","fclName":"country, state, region,...","adminCodes1":{"ISO3166_2":"KS"},"countryName":"United States","fcodeName":"administrative division","adminName1":"Kansas","lat":"37.28595","fcode":"ADMD"},{"adminCode1":"AR","lng":"-93.39024","geonameId":7169838,"toponymName":"City of Danville","countryId":"6252001","fcl":"A","population":2409,"countryCode":"US","name":"City of Danville","fclName":"country, state, region,...","adminCodes1":{"ISO3166_2":"AR"},"countryName":"United States","fcodeName":"administrative division","adminName1":"Arkansas","lat":"35.05273","fcode":"ADMD"},{"adminCode1":"MO","lng":"-91.50544","geonameId":4383292,"toponymName":"Danville State Wildlife Area","countryId":"6252001","fcl":"L","population":0,"countryCode":"US","name":"Danville State Wildlife Area","fclName":"parks,area, ...","adminCodes1":{"ISO3166_2":"MO"},"countryName":"United States","fcodeName":"park","adminName1":"Missouri","lat":"38.87171","fcode":"PRK"},{"adminCode1":"NV","lng":"-116.58368","geonameId":5502689,"toponymName":"Danville Pass","countryId":"6252001","fcl":"T","population":0,"countryCode":"US","name":"Danville Pass","fclName":"mountain,hill,rock,... ","adminCodes1":{"ISO3166_2":"NV"},"countryName":"United States","fcodeName":"gap","adminName1":"Nevada","lat":"38.7791","fcode":"GAP"},{"adminCode1":"NV","lng":"-116.52868","geonameId":5502702,"toponymName":"Danville Mining District","countryId":"6252001","fcl":"A","population":0,"countryCode":"US","name":"Danville Mining District","fclName":"country, state, region,...","adminCodes1":{"ISO3166_2":"NV"},"countryName":"United States","fcodeName":"administrative division","adminName1":"Nevada","lat":"38.77188","fcode":"ADMD"},{"adminCode1":"IA","lng":"-91.31456","geonameId":7316728,"toponymName":"City of Danville","countryId":"6252001","fcl":"A","population":934,"countryCode":"US","name":"City of Danville","fclName":"country, state, region,...","adminCodes1":{"ISO3166_2":"IA"},"countryName":"United States","fcodeName":"third-order administrative division","adminName1":"Iowa","lat":"40.86004","fcode":"ADM3"},{"adminCode1":"IA","lng":"-91.33833","geonameId":8113968,"toponymName":"McCoy Airport","countryId":"6252001","fcl":"S","population":0,"countryCode":"US","name":"McCoy Airport","fclName":"spot, building, farm","adminCodes1":{"ISO3166_2":"IA"},"countryName":"United States","fcodeName":"airport","adminName1":"Iowa","lat":"40.81421","fcode":"AIRP"},{"adminCode1":"AR","lng":"-93.39161","geonameId":4107662,"toponymName":"Danville High School","countryId":"6252001","fcl":"S","population":0,"countryCode":"US","name":"Danville High School","fclName":"spot, building, farm","adminCodes1":{"ISO3166_2":"AR"},"countryName":"United States","fcodeName":"school","adminName1":"Arkansas","lat":"35.05153","fcode":"SCH"},{"adminCode1":"LA","lng":"-92.83627","geonameId":4321636,"toponymName":"Danville Gas Field","countryId":"6252001","fcl":"L","population":0,"countryCode":"US","name":"Danville Gas Field","fclName":"parks,area, ...","adminCodes1":{"ISO3166_2":"LA"},"countryName":"United States","fcodeName":"oilfield","adminName1":"Louisiana","lat":"32.22516","fcode":"OILF"},{"adminCode1":"WV","lng":"-81.83425","geonameId":7161600,"toponymName":"Town of Danville","countryId":"6252001","fcl":"A","population":691,"countryCode":"US","name":"Town of Danville","fclName":"country, state, region,...","adminCodes1":{"ISO3166_2":"WV"},"countryName":"United States","fcodeName":"administrative division","adminName1":"West Virginia","lat":"38.08077","fcode":"ADMD"},{"adminCode1":"NV","lng":"-116.51479","geonameId":5502685,"toponymName":"Danville Canyon","countryId":"6252001","fcl":"T","population":0,"countryCode":"US","name":"Danville Canyon","fclName":"mountain,hill,rock,... ","adminCodes1":{"ISO3166_2":"NV"},"countryName":"United States","fcodeName":"valley","adminName1":"Nevada","lat":"38.76688","fcode":"VAL"},{"adminCode1":"VT","lng":"-72.19454","geonameId":5242677,"toponymName":"West Danville Number 15 Dam","countryId":"6252001","fcl":"S","population":0,"countryCode":"US","name":"West Danville Number 15 Dam","fclName":"spot, building, farm","adminCodes1":{"ISO3166_2":"VT"},"countryName":"United States","fcodeName":"dam","adminName1":"Vermont","lat":"44.40839","fcode":"DAM"},{"adminCode1":"MO","lng":"-91.63523","geonameId":4405296,"toponymName":"Redgate Ranch Airport","countryId":"6252001","fcl":"S","population":0,"countryCode":"US","name":"Redgate Ranch Airport","fclName":"spot, building, farm","adminCodes1":{"ISO3166_2":"MO"},"countryName":"United States","fcodeName":"airport","adminName1":"Missouri","lat":"38.90323","fcode":"AIRP"},{"adminCode1":"MO","lng":"-91.64184","geonameId":4399379,"toponymName":"Mount Horeb Church","countryId":"6252001","fcl":"S","population":0,"countryCode":"US","name":"Mount Horeb Church","fclName":"spot, building, farm","adminCodes1":{"ISO3166_2":"MO"},"countryName":"United States","fcodeName":"church","adminName1":"Missouri","lat":"38.84449","fcode":"CH"},{"adminCode1":"AR","lng":"-93.29018","geonameId":4121372,"toponymName":"Mickles","countryId":"6252001","fcl":"P","population":0,"countryCode":"US","name":"Mickles","fclName":"city, village,...","adminCodes1":{"ISO3166_2":"AR"},"countryName":"United States","fcodeName":"populated place","adminName1":"Arkansas","lat":"35.06898","fcode":"PPL"},{"adminCode1":"MO","lng":"-91.56475","geonameId":8115254,"toponymName":"Sky-Vu Airport","countryId":"6252001","fcl":"S","population":0,"countryCode":"US","name":"Sky-Vu Airport","fclName":"spot, building, farm","adminCodes1":{"ISO3166_2":"MO"},"countryName":"United States","fcodeName":"airport","adminName1":"Missouri","lat":"38.90066","fcode":"AIRP"},{"adminCode1":"WV","lng":"-79.87535","geonameId":4810666,"toponymName":"Kasson","countryId":"6252001","fcl":"P","population":0,"countryCode":"US","name":"Kasson","fclName":"city, village,...","adminCodes1":{"ISO3166_2":"WV"},"countryName":"United States","fcodeName":"populated place","adminName1":"West Virginia","lat":"39.22482","fcode":"PPL"},{"adminCode1":"AR","lng":"-93.65603","geonameId":4109315,"toponymName":"Dutch Creek Mountain","countryId":"6252001","fcl":"T","population":0,"countryCode":"US","name":"Dutch Creek Mountain","fclName":"mountain,hill,rock,... ","adminCodes1":{"ISO3166_2":"AR"},"countryName":"United States","fcodeName":"ridge(s)","adminName1":"Arkansas","lat":"34.9537","fcode":"RDGE"},{"adminCode1":"NV","lng":"-116.5184","geonameId":5502684,"toponymName":"Danville (historical)","countryId":"6252001","fcl":"P","population":0,"countryCode":"US","name":"Danville (historical)","fclName":"city, village,...","adminCodes1":{"ISO3166_2":"NV"},"countryName":"United States","fcodeName":"abandoned populated place","adminName1":"Nevada","lat":"38.76938","fcode":"PPLQ"},{"adminCode1":"KY","lng":"-84.79023","geonameId":4312990,"toponymName":"West Danville","countryId":"6252001","fcl":"P","population":0,"countryCode":"US","name":"West Danville","fclName":"city, village,...","adminCodes1":{"ISO3166_2":"KY"},"countryName":"United States","fcodeName":"populated place","adminName1":"Kentucky","lat":"37.6448","fcode":"PPL"},{"adminCode1":"IA","lng":"-91.31348","geonameId":4853395,"toponymName":"Danville Center","countryId":"6252001","fcl":"P","population":0,"countryCode":"US","name":"Danville Center","fclName":"city, village,...","adminCodes1":{"ISO3166_2":"IA"},"countryName":"United States","fcodeName":"populated place","adminName1":"Iowa","lat":"40.85698","fcode":"PPL"},{"adminCode1":"LA","lng":"-92.84793","geonameId":4321634,"toponymName":"Danville","countryId":"6252001","fcl":"P","population":0,"countryCode":"US","name":"Danville","fclName":"city, village,...","adminCodes1":{"ISO3166_2":"LA"},"countryName":"United States","fcodeName":"populated place","adminName1":"Louisiana","lat":"32.22905","fcode":"PPL"},{"adminCode1":"AR","lng":"-93.30213","geonameId":4107634,"toponymName":"Danville Mountain","countryId":"6252001","fcl":"T","population":0,"countryCode":"US","name":"Danville Mountain","fclName":"mountain,hill,rock,... ","adminCodes1":{"ISO3166_2":"AR"},"countryName":"United States","fcodeName":"ridge(s)","adminName1":"Arkansas","lat":"35.04453","fcode":"RDGE"},{"adminCode1":"AR","lng":"-93.39387","geonameId":7129926,"toponymName":"Yell County Sheriff Danville Office","countryId":"6252001","fcl":"S","population":0,"countryCode":"US","name":"Yell County Sheriff Danville Office","fclName":"spot, building, farm","adminCodes1":{"ISO3166_2":"AR"},"countryName":"United States","fcodeName":"building(s)","adminName1":"Arkansas","lat":"35.05724","fcode":"BLDG"},{"adminCode1":"MO","lng":"-91.50016","geonameId":4385091,"toponymName":"Easterday Dam","countryId":"6252001","fcl":"S","population":0,"countryCode":"US","name":"Easterday Dam","fclName":"spot, building, farm","adminCodes1":{"ISO3166_2":"MO"},"countryName":"United States","fcodeName":"dam","adminName1":"Missouri","lat":"38.91504","fcode":"DAM"},{"adminCode1":"MO","lng":"-91.49683","geonameId":4385092,"toponymName":"Easterday East Dam","countryId":"6252001","fcl":"S","population":0,"countryCode":"US","name":"Easterday East Dam","fclName":"spot, building, farm","adminCodes1":{"ISO3166_2":"MO"},"countryName":"United States","fcodeName":"dam","adminName1":"Missouri","lat":"38.91671","fcode":"DAM"},{"adminCode1":"MO","lng":"-91.63489","geonameId":4382617,"toponymName":"Holt-Covington Cemetery","countryId":"6252001","fcl":"S","population":0,"countryCode":"US","name":"Holt-Covington Cemetery","fclName":"spot, building, farm","adminCodes1":{"ISO3166_2":"MO"},"countryName":"United States","fcodeName":"cemetery","adminName1":"Missouri","lat":"38.90004","fcode":"CMTY"},{"adminCode1":"MO","lng":"-91.46516","geonameId":4376847,"toponymName":"Bethel Lake Dam","countryId":"6252001","fcl":"S","population":0,"countryCode":"US","name":"Bethel Lake Dam","fclName":"spot, building, farm","adminCodes1":{"ISO3166_2":"MO"},"countryName":"United States","fcodeName":"dam","adminName1":"Missouri","lat":"38.89838","fcode":"DAM"},{"adminCode1":"MO","lng":"-91.48683","geonameId":4380041,"toponymName":"Carl Dreyer Lake Dam","countryId":"6252001","fcl":"S","population":0,"countryCode":"US","name":"Carl Dreyer Lake Dam","fclName":"spot, building, farm","adminCodes1":{"ISO3166_2":"MO"},"countryName":"United States","fcodeName":"dam","adminName1":"Missouri","lat":"38.93504","fcode":"DAM"},{"adminCode1":"MO","lng":"-91.47683","geonameId":4380325,"toponymName":"Cates Dam","countryId":"6252001","fcl":"S","population":0,"countryCode":"US","name":"Cates Dam","fclName":"spot, building, farm","adminCodes1":{"ISO3166_2":"MO"},"countryName":"United States","fcodeName":"dam","adminName1":"Missouri","lat":"38.92837","fcode":"DAM"},{"adminCode1":"MO","lng":"-91.5335","geonameId":4397599,"toponymName":"McClain Lake Dam","countryId":"6252001","fcl":"S","population":0,"countryCode":"US","name":"McClain Lake Dam","fclName":"spot, building, farm","adminCodes1":{"ISO3166_2":"MO"},"countryName":"United States","fcodeName":"dam","adminName1":"Missouri","lat":"38.90504","fcode":"DAM"},{"adminCode1":"MO","lng":"-91.63183","geonameId":4402933,"toponymName":"Pepmiller Lake Dam","countryId":"6252001","fcl":"S","population":0,"countryCode":"US","name":"Pepmiller Lake Dam","fclName":"spot, building, farm","adminCodes1":{"ISO3166_2":"MO"},"countryName":"United States","fcodeName":"dam","adminName1":"Missouri","lat":"38.90171","fcode":"DAM"},{"adminCode1":"MO","lng":"-91.57016","geonameId":4404124,"toponymName":"Polizzi Lake Dam","countryId":"6252001","fcl":"S","population":0,"countryCode":"US","name":"Polizzi Lake Dam","fclName":"spot, building, farm","adminCodes1":{"ISO3166_2":"MO"},"countryName":"United States","fcodeName":"dam","adminName1":"Missouri","lat":"38.95171","fcode":"DAM"},{"adminCode1":"MO","lng":"-91.6335","geonameId":4407030,"toponymName":"Saint Joseph Lake Dam","countryId":"6252001","fcl":"S","population":0,"countryCode":"US","name":"Saint Joseph Lake Dam","fclName":"spot, building, farm","adminCodes1":{"ISO3166_2":"MO"},"countryName":"United States","fcodeName":"dam","adminName1":"Missouri","lat":"38.83171","fcode":"DAM"},{"adminCode1":"MO","lng":"-91.5685","geonameId":4390862,"toponymName":"Hoffman Lake Dam","countryId":"6252001","fcl":"S","population":0,"countryCode":"US","name":"Hoffman Lake Dam","fclName":"spot, building, farm","adminCodes1":{"ISO3166_2":"MO"},"countryName":"United States","fcodeName":"dam","adminName1":"Missouri","lat":"38.91837","fcode":"DAM"},{"adminCode1":"MO","lng":"-91.53683","geonameId":4410539,"toponymName":"Sturgeon Lake Dam","countryId":"6252001","fcl":"S","population":0,"countryCode":"US","name":"Sturgeon Lake Dam","fclName":"spot, building, farm","adminCodes1":{"ISO3166_2":"MO"},"countryName":"United States","fcodeName":"dam","adminName1":"Missouri","lat":"38.93004","fcode":"DAM"},{"adminCode1":"AR","lng":"-93.40769","geonameId":4109403,"toponymName":"Earl Ladd Memorial Cemetery","countryId":"6252001","fcl":"S","population":0,"countryCode":"US","name":"Earl Ladd Memorial Cemetery","fclName":"spot, building, farm","adminCodes1":{"ISO3166_2":"AR"},"countryName":"United States","fcodeName":"cemetery","adminName1":"Arkansas","lat":"35.0362","fcode":"CMTY"},{"adminCode1":"AR","lng":"-93.32907","geonameId":4103710,"toponymName":"Bunker Hill","countryId":"6252001","fcl":"T","population":0,"countryCode":"US","name":"Bunker Hill","fclName":"mountain,hill,rock,... ","adminCodes1":{"ISO3166_2":"AR"},"countryName":"United States","fcodeName":"mountain","adminName1":"Arkansas","lat":"35.05426","fcode":"MT"},{"adminCode1":"AR","lng":"-93.3881","geonameId":4137269,"toponymName":"Chambers Memorial Hospital","countryId":"6252001","fcl":"S","population":0,"countryCode":"US","name":"Chambers Memorial Hospital","fclName":"spot, building, farm","adminCodes1":{"ISO3166_2":"AR"},"countryName":"United States","fcodeName":"hospital","adminName1":"Arkansas","lat":"35.05446","fcode":"HSP"},{"adminCode1":"IL","lng":"-88.80396","geonameId":4245666,"toponymName":"Newburg","countryId":"6252001","fcl":"P","population":0,"countryCode":"US","name":"Newburg","fclName":"city, village,...","adminCodes1":{"ISO3166_2":"IL"},"countryName":"United States","fcodeName":"populated place","adminName1":"Illinois","lat":"39.98115","fcode":"PPL"},{"adminCode1":"KS","lng":"-98.04116","geonameId":4272047,"toponymName":"Gilbert","countryId":"6252001","fcl":"P","population":0,"countryCode":"US","name":"Gilbert","fclName":"city, village,...","adminCodes1":{"ISO3166_2":"KS"},"countryName":"United States","fcodeName":"populated place","adminName1":"Kansas","lat":"39.48278","fcode":"PPL"},{"adminCode1":"WA","lng":"-122.02873","geonameId":5791768,"toponymName":"Danville","countryId":"6252001","fcl":"P","population":0,"countryCode":"US","name":"Danville","fclName":"city, village,...","adminCodes1":{"ISO3166_2":"WA"},"countryName":"United States","fcodeName":"populated place","adminName1":"Washington","lat":"47.36149","fcode":"PPL"},{"adminCode1":"IA","lng":"-91.31582","geonameId":4853399,"toponymName":"Danville Elementary School","countryId":"6252001","fcl":"S","population":0,"countryCode":"US","name":"Danville Elementary School","fclName":"spot, building, farm","adminCodes1":{"ISO3166_2":"IA"},"countryName":"United States","fcodeName":"school","adminName1":"Iowa","lat":"40.86025","fcode":"SCH"},{"adminCode1":"VA","lng":"-79.44002","geonameId":4754206,"toponymName":"Country Club West","countryId":"6252001","fcl":"P","population":0,"countryCode":"US","name":"Country Club West","fclName":"city, village,...","adminCodes1":{"ISO3166_2":"VA"},"countryName":"United States","fcodeName":"section of populated place","adminName1":"Virginia","lat":"36.56903","fcode":"PPLX"},{"adminCode1":"IA","lng":"-91.31682","geonameId":4853401,"toponymName":"Danville Post Office","countryId":"6252001","fcl":"S","population":0,"countryCode":"US","name":"Danville Post Office","fclName":"spot, building, farm","adminCodes1":{"ISO3166_2":"IA"},"countryName":"United States","fcodeName":"post office","adminName1":"Iowa","lat":"40.86559","fcode":"PO"},{"adminCode1":"WA","lng":"-118.50848","geonameId":7720201,"toponymName":"Ferry / Okanogan County Fire District 14 Danville Hall","countryId":"6252001","fcl":"S","population":0,"countryCode":"US","name":"Ferry / Okanogan County Fire District 14 Danville Hall","fclName":"spot, building, farm","adminCodes1":{"ISO3166_2":"WA"},"countryName":"United States","fcodeName":"building(s)","adminName1":"Washington","lat":"48.99255","fcode":"BLDG"},{"adminCode1":"VA","lng":"-79.43605","geonameId":4792790,"toponymName":"Schoolfield Elementary School","countryId":"6252001","fcl":"S","population":0,"countryCode":"US","name":"Schoolfield Elementary School","fclName":"spot, building, farm","adminCodes1":{"ISO3166_2":"VA"},"countryName":"United States","fcodeName":"school","adminName1":"Virginia","lat":"36.56856","fcode":"SCH"},{"adminCode1":"MO","lng":"-91.49822","geonameId":4382696,"toponymName":"Crab Apple School (historical)","countryId":"6252001","fcl":"S","population":0,"countryCode":"US","name":"Crab Apple School (historical)","fclName":"spot, building, farm","adminCodes1":{"ISO3166_2":"MO"},"countryName":"United States","fcodeName":"school","adminName1":"Missouri","lat":"38.94365","fcode":"SCH"},{"adminCode1":"MO","lng":"-91.44349","geonameId":4383800,"toponymName":"Devault School (historical)","countryId":"6252001","fcl":"S","population":0,"countryCode":"US","name":"Devault School (historical)","fclName":"spot, building, farm","adminCodes1":{"ISO3166_2":"MO"},"countryName":"United States","fcodeName":"school","adminName1":"Missouri","lat":"38.89476","fcode":"SCH"},{"adminCode1":"MO","lng":"-91.49989","geonameId":4393851,"toponymName":"Knox School (historical)","countryId":"6252001","fcl":"S","population":0,"countryCode":"US","name":"Knox School (historical)","fclName":"spot, building, farm","adminCodes1":{"ISO3166_2":"MO"},"countryName":"United States","fcodeName":"school","adminName1":"Missouri","lat":"38.90421","fcode":"SCH"},{"adminCode1":"MO","lng":"-91.60878","geonameId":4404476,"toponymName":"Prairie Fork School (historical)","countryId":"6252001","fcl":"S","population":0,"countryCode":"US","name":"Prairie Fork School (historical)","fclName":"spot, building, farm","adminCodes1":{"ISO3166_2":"MO"},"countryName":"United States","fcodeName":"school","adminName1":"Missouri","lat":"38.85393","fcode":"SCH"},{"adminCode1":"MO","lng":"-91.44461","geonameId":4391548,"toponymName":"Hugo Church","countryId":"6252001","fcl":"S","population":0,"countryCode":"US","name":"Hugo Church","fclName":"spot, building, farm","adminCodes1":{"ISO3166_2":"MO"},"countryName":"United States","fcodeName":"church","adminName1":"Missouri","lat":"38.85365","fcode":"CH"},{"adminCode1":"MO","lng":"-91.61132","geonameId":4412991,"toponymName":"Verbena Dale School (historical)","countryId":"6252001","fcl":"S","population":0,"countryCode":"US","name":"Verbena Dale School (historical)","fclName":"spot, building, farm","adminCodes1":{"ISO3166_2":"MO"},"countryName":"United States","fcodeName":"school","adminName1":"Missouri","lat":"38.89737","fcode":"SCH"},{"adminCode1":"AR","lng":"-93.37796","geonameId":4111519,"toponymName":"Fourche Ranger Station","countryId":"6252001","fcl":"S","population":0,"countryCode":"US","name":"Fourche Ranger Station","fclName":"spot, building, farm","adminCodes1":{"ISO3166_2":"AR"},"countryName":"United States","fcodeName":"forest station","adminName1":"Arkansas","lat":"35.05287","fcode":"STNF"},{"adminCode1":"IA","lng":"-93.34993","geonameId":4861873,"toponymName":"Interchange 203","countryId":"6252001","fcl":"R","population":0,"countryCode":"US","name":"Interchange 203","fclName":"road, railroad ","adminCodes1":{"ISO3166_2":"IA"},"countryName":"United States","fcodeName":"road junction","adminName1":"Iowa","lat":"43.2844","fcode":"RDJCT"},{"adminCode1":"WV","lng":"-79.8748","geonameId":4803636,"toponymName":"Kasson United Methodist Church","countryId":"6252001","fcl":"S","population":0,"countryCode":"US","name":"Kasson United Methodist Church","fclName":"spot, building, farm","adminCodes1":{"ISO3166_2":"WV"},"countryName":"United States","fcodeName":"church","adminName1":"West Virginia","lat":"39.22288","fcode":"CH"},{"adminCode1":"IA","lng":"-91.37571","geonameId":4869861,"toponymName":"Old Geode Park Cemetery","countryId":"6252001","fcl":"S","population":0,"countryCode":"US","name":"Old Geode Park Cemetery","fclName":"spot, building, farm","adminCodes1":{"ISO3166_2":"IA"},"countryName":"United States","fcodeName":"cemetery","adminName1":"Iowa","lat":"40.80559","fcode":"CMTY"},{"adminCode1":"VA","lng":"-79.4226","geonameId":6513970,"toponymName":"Innkeeper Danville West","countryId":"6252001","fcl":"S","population":0,"countryCode":"US","name":"Innkeeper Danville West","fclName":"spot, building, farm","adminCodes1":{"ISO3166_2":"VA"},"countryName":"United States","fcodeName":"hotel","adminName1":"Virginia","lat":"36.5872","fcode":"HTL"},{"adminCode1":"AR","lng":"-93.38111","geonameId":7129928,"toponymName":"Danville Police Department","countryId":"6252001","fcl":"S","population":0,"countryCode":"US","name":"Danville Police Department","fclName":"spot, building, farm","adminCodes1":{"ISO3166_2":"AR"},"countryName":"United States","fcodeName":"building(s)","adminName1":"Arkansas","lat":"35.05467","fcode":"BLDG"},{"adminCode1":"AR","lng":"-93.38353","geonameId":7127971,"toponymName":"Danville Fire Department","countryId":"6252001","fcl":"S","population":0,"countryCode":"US","name":"Danville Fire Department","fclName":"spot, building, farm","adminCodes1":{"ISO3166_2":"AR"},"countryName":"United States","fcodeName":"building(s)","adminName1":"Arkansas","lat":"35.05412","fcode":"BLDG"},{"adminCode1":"AR","lng":"-93.39657","geonameId":4107631,"toponymName":"Danville Cemetery","countryId":"6252001","fcl":"S","population":0,"countryCode":"US","name":"Danville Cemetery","fclName":"spot, building, farm","adminCodes1":{"ISO3166_2":"AR"},"countryName":"United States","fcodeName":"cemetery","adminName1":"Arkansas","lat":"35.05398","fcode":"CMTY"},{"adminCode1":"MN","lng":"-93.80744","geonameId":5023849,"toponymName":"Danville Cemetery","countryId":"6252001","fcl":"S","population":0,"countryCode":"US","name":"Danville Cemetery","fclName":"spot, building, farm","adminCodes1":{"ISO3166_2":"MN"},"countryName":"United States","fcodeName":"cemetery","adminName1":"Minnesota","lat":"43.90801","fcode":"CMTY"},{"adminCode1":"VT","lng":"-72.19457","geonameId":11382588,"toponymName":"West Danville Post Office","countryId":"6252001","fcl":"S","population":0,"countryCode":"US","name":"West Danville Post Office","fclName":"spot, building, farm","adminCodes1":{"ISO3166_2":"VT"},"countryName":"United States","fcodeName":"post office","adminName1":"Vermont","lat":"44.40887","fcode":"PO"},{"adminCode1":"SD","lng":"-97.08173","geonameId":8488691,"toponymName":"Viborg Post Office","countryId":"6252001","fcl":"S","population":0,"countryCode":"US","name":"Viborg Post Office","fclName":"spot, building, farm","adminCodes1":{"ISO3166_2":"SD"},"countryName":"United States","fcodeName":"post office","adminName1":"South Dakota","lat":"43.17015","fcode":"PO"},{"adminCode1":"CA","lng":"-121.991","geonameId":6501100,"toponymName":"Best Western Danville Sycamore","countryId":"6252001","fcl":"S","population":0,"countryCode":"US","name":"Best Western Danville Sycamore","fclName":"spot, building, farm","adminCodes1":{"ISO3166_2":"CA"},"countryName":"United States","fcodeName":"hotel","adminName1":"California","lat":"37.8112","fcode":"HTL"},{"adminCode1":"IA","lng":"-91.31682","geonameId":4869849,"toponymName":"Old Danville Cemetery","countryId":"6252001","fcl":"S","population":0,"countryCode":"US","name":"Old Danville Cemetery","fclName":"spot, building, farm","adminCodes1":{"ISO3166_2":"IA"},"countryName":"United States","fcodeName":"cemetery","adminName1":"Iowa","lat":"40.85281","fcode":"CMTY"},{"adminCode1":"IA","lng":"-91.31321","geonameId":4853393,"toponymName":"Danville","countryId":"6252001","fcl":"S","population":0,"countryCode":"US","name":"Danville","fclName":"spot, building, farm","adminCodes1":{"ISO3166_2":"IA"},"countryName":"United States","fcodeName":"","adminName1":"Iowa","lat":"40.8667"},{"adminCode1":"IA","lng":"-91.31598","geonameId":4853394,"toponymName":"Danville Care Center","countryId":"6252001","fcl":"S","population":0,"countryCode":"US","name":"Danville Care Center","fclName":"spot, building, farm","adminCodes1":{"ISO3166_2":"IA"},"countryName":"United States","fcodeName":"hospital","adminName1":"Iowa","lat":"40.86254","fcode":"HSP"},{"adminCode1":"IA","lng":"-91.31404","geonameId":4853396,"toponymName":"Danville Chiropractic Office","countryId":"6252001","fcl":"S","population":0,"countryCode":"US","name":"Danville Chiropractic Office","fclName":"spot, building, farm","adminCodes1":{"ISO3166_2":"IA"},"countryName":"United States","fcodeName":"hospital","adminName1":"Iowa","lat":"40.8667","fcode":"HSP"},{"adminCode1":"IA","lng":"-91.31487","geonameId":4853397,"toponymName":"Danville City Hall","countryId":"6252001","fcl":"S","population":0,"countryCode":"US","name":"Danville City Hall","fclName":"spot, building, farm","adminCodes1":{"ISO3166_2":"IA"},"countryName":"United States","fcodeName":"building(s)","adminName1":"Iowa","lat":"40.86615","fcode":"BLDG"},{"adminCode1":"IA","lng":"-91.31606","geonameId":4853398,"toponymName":"Danville Fire Department","countryId":"6252001","fcl":"S","population":0,"countryCode":"US","name":"Danville Fire Department","fclName":"spot, building, farm","adminCodes1":{"ISO3166_2":"IA"},"countryName":"United States","fcodeName":"building(s)","adminName1":"Iowa","lat":"40.86659","fcode":"BLDG"},{"adminCode1":"IA","lng":"-91.31487","geonameId":4853400,"toponymName":"Danville Police Department","countryId":"6252001","fcl":"S","population":0,"countryCode":"US","name":"Danville Police Department","fclName":"spot, building, farm","adminCodes1":{"ISO3166_2":"IA"},"countryName":"United States","fcodeName":"building(s)","adminName1":"Iowa","lat":"40.86615","fcode":"BLDG"},{"adminCode1":"IA","lng":"-91.31582","geonameId":9671557,"toponymName":"Danville Junior/ Senior High School","countryId":"6252001","fcl":"S","population":0,"countryCode":"US","name":"Danville Junior/ Senior High School","fclName":"spot, building, farm","adminCodes1":{"ISO3166_2":"IA"},"countryName":"United States","fcodeName":"school","adminName1":"Iowa","lat":"40.86057","fcode":"SCH"},{"adminCode1":"VA","lng":"-79.40891","geonameId":4792782,"toponymName":"West End Christian Church","countryId":"6252001","fcl":"S","population":0,"countryCode":"US","name":"West End Christian Church","fclName":"spot, building, farm","adminCodes1":{"ISO3166_2":"VA"},"countryName":"United States","fcodeName":"church","adminName1":"Virginia","lat":"36.57764","fcode":"CH"},{"adminCode1":"VA","lng":"-79.41447","geonameId":4792860,"toponymName":"West Main Baptist Church","countryId":"6252001","fcl":"S","population":0,"countryCode":"US","name":"West Main Baptist Church","fclName":"spot, building, farm","adminCodes1":{"ISO3166_2":"VA"},"countryName":"United States","fcodeName":"church","adminName1":"Virginia","lat":"36.57681","fcode":"CH"},{"adminCode1":"LA","lng":"-92.85126","geonameId":4321635,"toponymName":"Danville Cemetery","countryId":"6252001","fcl":"S","population":0,"countryCode":"US","name":"Danville Cemetery","fclName":"spot, building, farm","adminCodes1":{"ISO3166_2":"LA"},"countryName":"United States","fcodeName":"cemetery","adminName1":"Louisiana","lat":"32.2387","fcode":"CMTY"},{"adminCode1":"TX","lng":"-98.23473","geonameId":4685217,"toponymName":"Danville School","countryId":"6252001","fcl":"S","population":0,"countryCode":"US","name":"Danville School","fclName":"spot, building, farm","adminCodes1":{"ISO3166_2":"TX"},"countryName":"United States","fcodeName":"school","adminName1":"Texas","lat":"29.63939","fcode":"SCH"},{"adminCode1":"LA","lng":"-91.93902","geonameId":4344384,"toponymName":"Upper Danville Landing","countryId":"6252001","fcl":"S","population":0,"countryCode":"US","name":"Upper Danville Landing","fclName":"spot, building, farm","adminCodes1":{"ISO3166_2":"LA"},"countryName":"United States","fcodeName":"","adminName1":"Louisiana","lat":"31.92961"},{"adminCode1":"AR","lng":"-93.31518","geonameId":4107632,"toponymName":"Danville Creek","countryId":"6252001","fcl":"H","population":0,"countryCode":"US","name":"Danville Creek","fclName":"stream, lake, ...","adminCodes1":{"ISO3166_2":"AR"},"countryName":"United States","fcodeName":"stream","adminName1":"Arkansas","lat":"34.88259","fcode":"STM"},{"adminCode1":"KS","lng":"-95.37026","geonameId":4270226,"toponymName":"Danville School (historical)","countryId":"6252001","fcl":"S","population":0,"countryCode":"US","name":"Danville School (historical)","fclName":"spot, building, farm","adminCodes1":{"ISO3166_2":"KS"},"countryName":"United States","fcodeName":"school","adminName1":"Kansas","lat":"37.44172","fcode":"SCH"},{"adminCode1":"CO","lng":"-104.80609","geonameId":5418959,"toponymName":"Danville Mine","countryId":"6252001","fcl":"S","population":0,"countryCode":"US","name":"Danville Mine","fclName":"spot, building, farm","adminCodes1":{"ISO3166_2":"CO"},"countryName":"United States","fcodeName":"mine(s)","adminName1":"Colorado","lat":"38.88499","fcode":"MN"}]}
