{"totalResultsCount":1162,"geonames":[{"adminCode1":"WY","lng":"-104.56783","geonameId":5842707,"toponymName":"Weston County","countryId":"6252001","fcl":"A","population":7208,"countryCode":"US","name":"Weston","fclName":"country, state, region,...","adminCodes1":{"ISO3166_2":"WY"},"countryName":"United States","fcodeName":"second-order administrative division","adminName1":"Wyoming","lat":"43.84049","fcode":"ADM2"},{"adminCode1":"WY","lng":"-104.62802","geonameId":5841818,"toponymName":"Upton","countryId":"6252001","fcl":"P","population":1109,"countryCode":"US","name":"Upton","fclName":"city, village,...","adminCodes1":{"ISO3166_2":"WY"},"countryName":"United States","fcodeName":"populated place","adminName1":"Wyoming","lat":"44.0997","fcode":"PPL"},{"adminCode1":"WY","lng":"-104.20494","geonameId":5833349,"toponymName":"Newcastle","countryId":"6252001","fcl":"P","population":3534,"countryCode":"US","name":"Newcastle","fclName":"city, village,...","adminCodes1":{"ISO3166_2":"WY"},"countryName":"United States","fcodeName":"seat of a second-order administrative division","adminName1":"Wyoming","lat":"43.8547","fcode":"PPLA2"},{"adminCode1":"FL","lng":"-80.39977","geonameId":4178003,"toponymName":"Weston","countryId":"6252001","fcl":"P","population":69959,"countryCode":"US","name":"Weston","fclName":"city, village,...","adminCodes1":{"ISO3166_2":"FL"},"countryName":"United States","fcodeName":"populated place","adminName1":"Florida","lat":"26.10037","fcode":"PPL"},{"adminCode1":"WY","lng":"-104.4219","geonameId":5834348,"toponymName":"Osage","countryId":"6252001","fcl":"P","population":208,"countryCode":"US","name":"Osage","fclName":"city, village,...","adminCodes1":{"ISO3166_2":"WY"},"countryName":"United States","fcodeName":"populated place","adminName1":"Wyoming","lat":"43.98081","fcode":"PPL"},{"adminCode1":"MA","lng":"-71.30311","geonameId":4955259,"toponymName":"Weston","countryId":"6252001","fcl":"P","population":11682,"countryCode":"US","name":"Weston","fclName":"city, village,...","adminCodes1":{"ISO3166_2":"MA"},"countryName":"United States","fcodeName":"populated place","adminName1":"Massachusetts","lat":"42.36676","fcode":"PPL"},{"adminCode1":"OH","lng":"-83.79716","geonameId":5176550,"toponymName":"Weston","countryId":"6252001","fcl":"P","population":1638,"countryCode":"US","name":"Weston","fclName":"city, village,...","adminCodes1":{"ISO3166_2":"OH"},"countryName":"United States","fcodeName":"populated place","adminName1":"Ohio","lat":"41.34477","fcode":"PPL"},{"adminCode1":"WY","lng":"-104.05593","geonameId":5824907,"toponymName":"Fanny Peak","countryId":"6252001","fcl":"T","population":0,"countryCode":"US","name":"Fanny Peak","fclName":"mountain,hill,rock,... ","adminCodes1":{"ISO3166_2":"WY"},"countryName":"United States","fcodeName":"mountain","adminName1":"Wyoming","lat":"43.82824","fcode":"MT"},{"adminCode1":"WY","lng":"-104.15994","geonameId":5827663,"toponymName":"Hill View Heights","countryId":"6252001","fcl":"P","population":170,"countryCode":"US","name":"Hill View Heights","fclName":"city, village,...","adminCodes1":{"ISO3166_2":"WY"},"countryName":"United States","fcodeName":"populated place","adminName1":"Wyoming","lat":"43.82581","fcode":"PPL"},{"adminCode1":"MO","lng":"-94.90163","geonameId":4414270,"toponymName":"Weston","countryId":"6252001","fcl":"P","population":1724,"countryCode":"US","name":"Weston","fclName":"city, village,...","adminCodes1":{"ISO3166_2":"MO"},"countryName":"United States","fcodeName":"populated place","adminName1":"Missouri","lat":"39.41111","fcode":"PPL"},{"adminCode1":"WI","lng":"-89.54762","geonameId":5278693,"toponymName":"Weston","countryId":"6252001","fcl":"P","population":15069,"countryCode":"US","name":"Weston","fclName":"city, village,...","adminCodes1":{"ISO3166_2":"WI"},"countryName":"United States","fcodeName":"populated place","adminName1":"Wisconsin","lat":"44.8908","fcode":"PPL"},{"adminCode1":"WY","lng":"-104.60274","geonameId":5838332,"toponymName":"Shurley Oil Field","countryId":"6252001","fcl":"L","population":0,"countryCode":"US","name":"Shurley Oil Field","fclName":"parks,area, ...","adminCodes1":{"ISO3166_2":"WY"},"countryName":"United States","fcodeName":"oilfield","adminName1":"Wyoming","lat":"43.60747","fcode":"OILF"},{"adminCode1":"WY","lng":"-104.97247","geonameId":5841131,"toponymName":"Todd Oil Field","countryId":"6252001","fcl":"L","population":0,"countryCode":"US","name":"Todd Oil Field","fclName":"parks,area, ...","adminCodes1":{"ISO3166_2":"WY"},"countryName":"United States","fcodeName":"oilfield","adminName1":"Wyoming","lat":"43.81942","fcode":"OILF"},{"adminCode1":"WY","lng":"-104.47106","geonameId":5834342,"toponymName":"Osage Oil Field","countryId":"6252001","fcl":"L","population":0,"countryCode":"US","name":"Osage Oil Field","fclName":"parks,area, ...","adminCodes1":{"ISO3166_2":"WY"},"countryName":"United States","fcodeName":"oilfield","adminName1":"Wyoming","lat":"43.9522","fcode":"OILF"},{"adminCode1":"WY","lng":"-104.36439","geonameId":5834797,"toponymName":"Pedro Oil Field","countryId":"6252001","fcl":"L","population":0,"countryCode":"US","name":"Pedro Oil Field","fclName":"parks,area, ...","adminCodes1":{"ISO3166_2":"WY"},"countryName":"United States","fcodeName":"oilfield","adminName1":"Wyoming","lat":"43.91942","fcode":"OILF"},{"adminCode1":"WY","lng":"-104.95275","geonameId":5835815,"toponymName":"Quest Oil Field","countryId":"6252001","fcl":"L","population":0,"countryCode":"US","name":"Quest Oil Field","fclName":"parks,area, ...","adminCodes1":{"ISO3166_2":"WY"},"countryName":"United States","fcodeName":"oilfield","adminName1":"Wyoming","lat":"43.89914","fcode":"OILF"},{"adminCode1":"WY","lng":"-104.16661","geonameId":5836139,"toponymName":"Red Butte","countryId":"6252001","fcl":"T","population":0,"countryCode":"US","name":"Red Butte","fclName":"mountain,hill,rock,... ","adminCodes1":{"ISO3166_2":"WY"},"countryName":"United States","fcodeName":"mountain","adminName1":"Wyoming","lat":"44.01304","fcode":"MT"},{"adminCode1":"WY","lng":"-104.89525","geonameId":5820209,"toponymName":"Butler Draw","countryId":"6252001","fcl":"T","population":0,"countryCode":"US","name":"Butler Draw","fclName":"mountain,hill,rock,... ","adminCodes1":{"ISO3166_2":"WY"},"countryName":"United States","fcodeName":"valley","adminName1":"Wyoming","lat":"44.13498","fcode":"VAL"},{"adminCode1":"WY","lng":"-104.67079","geonameId":5821312,"toponymName":"Clareton Oil Field","countryId":"6252001","fcl":"L","population":0,"countryCode":"US","name":"Clareton Oil Field","fclName":"parks,area, ...","adminCodes1":{"ISO3166_2":"WY"},"countryName":"United States","fcodeName":"oilfield","adminName1":"Wyoming","lat":"43.68303","fcode":"OILF"},{"adminCode1":"WY","lng":"-104.83302","geonameId":5830882,"toponymName":"Lodgepole Creek Oil Field","countryId":"6252001","fcl":"L","population":0,"countryCode":"US","name":"Lodgepole Creek Oil Field","fclName":"parks,area, ...","adminCodes1":{"ISO3166_2":"WY"},"countryName":"United States","fcodeName":"oilfield","adminName1":"Wyoming","lat":"43.81442","fcode":"OILF"},{"adminCode1":"WY","lng":"-104.90858","geonameId":5830937,"toponymName":"Lone Tree Creek Oil Field","countryId":"6252001","fcl":"L","population":0,"countryCode":"US","name":"Lone Tree Creek Oil Field","fclName":"parks,area, ...","adminCodes1":{"ISO3166_2":"WY"},"countryName":"United States","fcodeName":"oilfield","adminName1":"Wyoming","lat":"43.87914","fcode":"OILF"},{"adminCode1":"WY","lng":"-104.90886","geonameId":5830952,"toponymName":"Lone Tree Oil Field","countryId":"6252001","fcl":"L","population":0,"countryCode":"US","name":"Lone Tree Oil Field","fclName":"parks,area, ...","adminCodes1":{"ISO3166_2":"WY"},"countryName":"United States","fcodeName":"oilfield","adminName1":"Wyoming","lat":"43.85803","fcode":"OILF"},{"adminCode1":"WY","lng":"-104.11813","geonameId":5831380,"toponymName":"M W Lake","countryId":"6252001","fcl":"H","population":0,"countryCode":"US","name":"M W Lake","fclName":"stream, lake, ...","adminCodes1":{"ISO3166_2":"WY"},"countryName":"United States","fcodeName":"lake","adminName1":"Wyoming","lat":"43.61449","fcode":"LK"},{"adminCode1":"WY","lng":"-104.44162","geonameId":5833127,"toponymName":"Mush Creek Oil Field","countryId":"6252001","fcl":"L","population":0,"countryCode":"US","name":"Mush Creek Oil Field","fclName":"parks,area, ...","adminCodes1":{"ISO3166_2":"WY"},"countryName":"United States","fcodeName":"oilfield","adminName1":"Wyoming","lat":"43.78553","fcode":"OILF"},{"adminCode1":"WY","lng":"-104.98878","geonameId":5823767,"toponymName":"The Dry Lake","countryId":"6252001","fcl":"H","population":0,"countryCode":"US","name":"The Dry Lake","fclName":"stream, lake, ...","adminCodes1":{"ISO3166_2":"WY"},"countryName":"United States","fcodeName":"lake","adminName1":"Wyoming","lat":"43.54339","fcode":"LK"},{"adminCode1":"WY","lng":"-104.68552","geonameId":5825012,"toponymName":"Fiddler Creek Oil Field","countryId":"6252001","fcl":"L","population":0,"countryCode":"US","name":"Fiddler Creek Oil Field","fclName":"parks,area, ...","adminCodes1":{"ISO3166_2":"WY"},"countryName":"United States","fcodeName":"oilfield","adminName1":"Wyoming","lat":"43.94776","fcode":"OILF"},{"adminCode1":"WY","lng":"-104.53218","geonameId":5825066,"toponymName":"Finn Oil Field","countryId":"6252001","fcl":"L","population":0,"countryCode":"US","name":"Finn Oil Field","fclName":"parks,area, ...","adminCodes1":{"ISO3166_2":"WY"},"countryName":"United States","fcodeName":"oilfield","adminName1":"Wyoming","lat":"43.65609","fcode":"OILF"},{"adminCode1":"WY","lng":"-104.93303","geonameId":5825697,"toponymName":"Frog Creek Oil Field","countryId":"6252001","fcl":"L","population":0,"countryCode":"US","name":"Frog Creek Oil Field","fclName":"parks,area, ...","adminCodes1":{"ISO3166_2":"WY"},"countryName":"United States","fcodeName":"oilfield","adminName1":"Wyoming","lat":"43.52303","fcode":"OILF"},{"adminCode1":"WY","lng":"-104.82775","geonameId":5827249,"toponymName":"Hay Creek Oil Field","countryId":"6252001","fcl":"L","population":0,"countryCode":"US","name":"Hay Creek Oil Field","fclName":"parks,area, ...","adminCodes1":{"ISO3166_2":"WY"},"countryName":"United States","fcodeName":"oilfield","adminName1":"Wyoming","lat":"43.89942","fcode":"OILF"},{"adminCode1":"WY","lng":"-104.99331","geonameId":5844221,"toponymName":"South Coyote Oil Field","countryId":"6252001","fcl":"L","population":0,"countryCode":"US","name":"South Coyote Oil Field","fclName":"parks,area, ...","adminCodes1":{"ISO3166_2":"WY"},"countryName":"United States","fcodeName":"oilfield","adminName1":"Wyoming","lat":"44.11748","fcode":"OILF"},{"adminCode1":"WY","lng":"-104.19649","geonameId":7173957,"toponymName":"City of Newcastle","countryId":"6252001","fcl":"A","population":3532,"countryCode":"US","name":"City of Newcastle","fclName":"country, state, region,...","adminCodes1":{"ISO3166_2":"WY"},"countryName":"United States","fcodeName":"administrative division","adminName1":"Wyoming","lat":"43.85302","fcode":"ADMD"},{"adminCode1":"WY","lng":"-104.63752","geonameId":7175813,"toponymName":"Town of Upton","countryId":"6252001","fcl":"A","population":1100,"countryCode":"US","name":"Town of Upton","fclName":"country, state, region,...","adminCodes1":{"ISO3166_2":"WY"},"countryName":"United States","fcodeName":"administrative division","adminName1":"Wyoming","lat":"44.10252","fcode":"ADMD"},{"adminCode1":"GA","lng":"-84.61492","geonameId":4230387,"toponymName":"Weston","countryId":"6252001","fcl":"P","population":69,"countryCode":"US","name":"Weston","fclName":"city, village,...","adminCodes1":{"ISO3166_2":"GA"},"countryName":"United States","fcodeName":"populated place","adminName1":"Georgia","lat":"31.97599","fcode":"PPL"},{"adminCode1":"VT","lng":"-72.79315","geonameId":5242821,"toponymName":"Weston","countryId":"6252001","fcl":"P","population":570,"countryCode":"US","name":"Weston","fclName":"city, village,...","adminCodes1":{"ISO3166_2":"VT"},"countryName":"United States","fcodeName":"populated place","adminName1":"Vermont","lat":"43.29119","fcode":"PPL"},{"adminCode1":"OH","lng":"-84.64329","geonameId":5164455,"toponymName":"New Weston","countryId":"6252001","fcl":"P","population":134,"countryCode":"US","name":"New Weston","fclName":"city, village,...","adminCodes1":{"ISO3166_2":"OH"},"countryName":"United States","fcodeName":"populated place","adminName1":"Ohio","lat":"40.33727","fcode":"PPL"},{"adminCode1":"OR","lng":"-118.42469","geonameId":5760158,"toponymName":"Weston","countryId":"6252001","fcl":"P","population":647,"countryCode":"US","name":"Weston","fclName":"city, village,...","adminCodes1":{"ISO3166_2":"OR"},"countryName":"United States","fcodeName":"populated place","adminName1":"Oregon","lat":"45.81374","fcode":"PPL"},{"adminCode1":"MO","lng":"-94.87802","geonameId":4414271,"toponymName":"Weston Bend State Park","countryId":"6252001","fcl":"L","population":0,"countryCode":"US","name":"Weston Bend State Park","fclName":"parks,area, ...","adminCodes1":{"ISO3166_2":"MO"},"countryName":"United States","fcodeName":"park","adminName1":"Missouri","lat":"39.39055","fcode":"PRK"},{"adminCode1":"ID","lng":"-111.9794","geonameId":5554045,"toponymName":"Weston","countryId":"6252001","fcl":"P","population":450,"countryCode":"US","name":"Weston","fclName":"city, village,...","adminCodes1":{"ISO3166_2":"ID"},"countryName":"United States","fcodeName":"populated place","adminName1":"Idaho","lat":"42.03715","fcode":"PPL"},{"adminCode1":"ME","lng":"-67.87807","geonameId":4982827,"toponymName":"Weston","countryId":"6252001","fcl":"P","population":211,"countryCode":"US","name":"Weston","fclName":"city, village,...","adminCodes1":{"ISO3166_2":"ME"},"countryName":"United States","fcodeName":"populated place","adminName1":"Maine","lat":"45.73312","fcode":"PPL"},{"adminCode1":"CT","lng":"-73.38067","geonameId":4845578,"toponymName":"Weston","countryId":"6252001","fcl":"P","population":0,"countryCode":"US","name":"Weston","fclName":"city, village,...","adminCodes1":{"ISO3166_2":"CT"},"countryName":"United States","fcodeName":"populated place","adminName1":"Connecticut","lat":"41.20093","fcode":"PPL"},{"adminCode1":"WV","lng":"-80.46731","geonameId":4826882,"toponymName":"Weston","countryId":"6252001","fcl":"P","population":4082,"countryCode":"US","name":"Weston","fclName":"city, village,...","adminCodes1":{"ISO3166_2":"WV"},"countryName":"United States","fcodeName":"seat of a second-order administrative division","adminName1":"West Virginia","lat":"39.03843","fcode":"PPLA2"},{"adminCode1":"WY","lng":"-105.3361","geonameId":5842706,"toponymName":"Weston","countryId":"6252001","fcl":"P","population":0,"countryCode":"US","name":"Weston","fclName":"city, village,...","adminCodes1":{"ISO3166_2":"WY"},"countryName":"United States","fcodeName":"populated place","adminName1":"Wyoming","lat":"44.63693","fcode":"PPL"},{"adminCode1":"TX","lng":"-96.66944","geonameId":4741229,"toponymName":"Weston","countryId":"6252001","fcl":"P","population":334,"countryCode":"US","name":"Weston","fclName":"city, village,...","adminCodes1":{"ISO3166_2":"TX"},"countryName":"United States","fcodeName":"populated place","adminName1":"Texas","lat":"33.349","fcode":"PPL"},{"adminCode1":"NE","lng":"-96.7428","geonameId":5081740,"toponymName":"Weston","countryId":"6252001","fcl":"P","population":326,"countryCode":"US","name":"Weston","fclName":"city, village,...","adminCodes1":{"ISO3166_2":"NE"},"countryName":"United States","fcodeName":"populated place","adminName1":"Nebraska","lat":"41.19417","fcode":"PPL"},{"adminCode1":"WY","lng":"-104.63927","geonameId":5841824,"toponymName":"Upton Municipal Airport","countryId":"6252001","fcl":"S","population":0,"countryCode":"US","name":"Upton Municipal Airport","fclName":"spot, building, farm","adminCodes1":{"ISO3166_2":"WY"},"countryName":"United States","fcodeName":"airport","adminName1":"Wyoming","lat":"44.08912","fcode":"AIRP"},{"adminCode1":"WY","lng":"-104.09438","geonameId":5821456,"toponymName":"Clifton","countryId":"6252001","fcl":"P","population":0,"countryCode":"US","name":"Clifton","fclName":"city, village,...","adminCodes1":{"ISO3166_2":"WY"},"countryName":"United States","fcodeName":"populated place","adminName1":"Wyoming","lat":"43.64081","fcode":"PPL"},{"adminCode1":"WY","lng":"-104.07271","geonameId":5822595,"toponymName":"Dakoming","countryId":"6252001","fcl":"P","population":0,"countryCode":"US","name":"Dakoming","fclName":"city, village,...","adminCodes1":{"ISO3166_2":"WY"},"countryName":"United States","fcodeName":"populated place","adminName1":"Wyoming","lat":"43.59748","fcode":"PPL"},{"adminCode1":"WY","lng":"-104.213","geonameId":5829151,"toponymName":"KASL-AM (Newcastle)","countryId":"6252001","fcl":"S","population":0,"countryCode":"US","name":"KASL-AM (Newcastle)","fclName":"spot, building, farm","adminCodes1":{"ISO3166_2":"WY"},"countryName":"United States","fcodeName":"tower","adminName1":"Wyoming","lat":"43.84637","fcode":"TOWR"},{"adminCode1":"WY","lng":"-104.31579","geonameId":5832626,"toponymName":"Mondell Field","countryId":"6252001","fcl":"S","population":0,"countryCode":"US","name":"Mondell Field","fclName":"spot, building, farm","adminCodes1":{"ISO3166_2":"WY"},"countryName":"United States","fcodeName":"airfield","adminName1":"Wyoming","lat":"43.88755","fcode":"AIRF"},{"adminCode1":"WY","lng":"-104.09494","geonameId":5767541,"toponymName":"North Thomson Canyon","countryId":"6252001","fcl":"T","population":0,"countryCode":"US","name":"North Thomson Canyon","fclName":"mountain,hill,rock,... ","adminCodes1":{"ISO3166_2":"WY"},"countryName":"United States","fcodeName":"valley","adminName1":"Wyoming","lat":"43.9347","fcode":"VAL"},{"adminCode1":"WY","lng":"-104.08954","geonameId":5769703,"toponymName":"Thomson Canyon","countryId":"6252001","fcl":"T","population":0,"countryCode":"US","name":"Thomson Canyon","fclName":"mountain,hill,rock,... ","adminCodes1":{"ISO3166_2":"WY"},"countryName":"United States","fcodeName":"valley","adminName1":"Wyoming","lat":"43.92513","fcode":"VAL"},{"adminCode1":"WI","lng":"-92.07157","geonameId":5278692,"toponymName":"Weston","countryId":"6252001","fcl":"P","population":0,"countryCode":"US","name":"Weston","fclName":"city, village,...","adminCodes1":{"ISO3166_2":"WI"},"countryName":"United States","fcodeName":"populated place","adminName1":"Wisconsin","lat":"44.81246","fcode":"PPL"},{"adminCode1":"CO","lng":"-104.84888","geonameId":5443912,"toponymName":"Weston","countryId":"6252001","fcl":"P","population":55,"countryCode":"US","name":"Weston","fclName":"city, village,...","adminCodes1":{"ISO3166_2":"CO"},"countryName":"United States","fcodeName":"populated place","adminName1":"Colorado","lat":"37.1328","fcode":"PPL"},{"adminCode1":"ME","lng":"-67.86413","geonameId":4982834,"toponymName":"Town of Weston","countryId":"6252001","fcl":"A","population":218,"countryCode":"US","name":"Town of Weston","fclName":"country, state, region,...","adminCodes1":{"ISO3166_2":"ME"},"countryName":"United States","fcodeName":"third-order administrative division","adminName1":"Maine","lat":"45.72858","fcode":"ADM3"},{"adminCode1":"TX","lng":"-95.93571","geonameId":7238057,"toponymName":"Weston Lakes","countryId":"6252001","fcl":"P","population":2589,"countryCode":"US","name":"Weston Lakes","fclName":"city, village,...","adminCodes1":{"ISO3166_2":"TX"},"countryName":"United States","fcodeName":"populated place","adminName1":"Texas","lat":"29.68324","fcode":"PPL"},{"adminCode1":"PA","lng":"-76.14216","geonameId":5219020,"toponymName":"Weston","countryId":"6252001","fcl":"P","population":321,"countryCode":"US","name":"Weston","fclName":"city, village,...","adminCodes1":{"ISO3166_2":"PA"},"countryName":"United States","fcodeName":"populated place","adminName1":"Pennsylvania","lat":"40.94147","fcode":"PPL"},{"adminCode1":"MO","lng":"-94.88935","geonameId":4414273,"toponymName":"Township of Weston","countryId":"6252001","fcl":"A","population":0,"countryCode":"US","name":"Weston Township","fclName":"country, state, region,...","adminCodes1":{"ISO3166_2":"MO"},"countryName":"United States","fcodeName":"third-order administrative division","adminName1":"Missouri","lat":"39.4276","fcode":"ADM3"},{"adminCode1":"OH","lng":"-83.81476","geonameId":5176560,"toponymName":"Township of Weston","countryId":"6252001","fcl":"A","population":0,"countryCode":"US","name":"Weston Township","fclName":"country, state, region,...","adminCodes1":{"ISO3166_2":"OH"},"countryName":"United States","fcodeName":"third-order administrative division","adminName1":"Ohio","lat":"41.36159","fcode":"ADM3"},{"adminCode1":"WI","lng":"-89.54879","geonameId":7315820,"toponymName":"Village of Weston","countryId":"6252001","fcl":"A","population":14868,"countryCode":"US","name":"Village of Weston","fclName":"country, state, region,...","adminCodes1":{"ISO3166_2":"WI"},"countryName":"United States","fcodeName":"third-order administrative division","adminName1":"Wisconsin","lat":"44.89051","fcode":"ADM3"},{"adminCode1":"FL","lng":"-80.40519","geonameId":7318196,"toponymName":"City of Weston","countryId":"6252001","fcl":"A","population":65333,"countryCode":"US","name":"City of Weston","fclName":"country, state, region,...","adminCodes1":{"ISO3166_2":"FL"},"countryName":"United States","fcodeName":"third-order administrative division","adminName1":"Florida","lat":"26.10028","fcode":"ADM3"},{"adminCode1":"VT","lng":"-72.80595","geonameId":5242827,"toponymName":"Town of Weston","countryId":"6252001","fcl":"A","population":570,"countryCode":"US","name":"Town of Weston","fclName":"country, state, region,...","adminCodes1":{"ISO3166_2":"VT"},"countryName":"United States","fcodeName":"third-order administrative division","adminName1":"Vermont","lat":"43.31493","fcode":"ADM3"},{"adminCode1":"WI","lng":"-90.61888","geonameId":5278698,"toponymName":"Town of Weston","countryId":"6252001","fcl":"A","population":686,"countryCode":"US","name":"Town of Weston","fclName":"country, state, region,...","adminCodes1":{"ISO3166_2":"WI"},"countryName":"United States","fcodeName":"third-order administrative division","adminName1":"Wisconsin","lat":"44.64006","fcode":"ADM3"},{"adminCode1":"WI","lng":"-92.064","geonameId":5278699,"toponymName":"Town of Weston","countryId":"6252001","fcl":"A","population":610,"countryCode":"US","name":"Town of Weston","fclName":"country, state, region,...","adminCodes1":{"ISO3166_2":"WI"},"countryName":"United States","fcodeName":"third-order administrative division","adminName1":"Wisconsin","lat":"44.81164","fcode":"ADM3"},{"adminCode1":"KY","lng":"-88.0728","geonameId":4313084,"toponymName":"Weston","countryId":"6252001","fcl":"P","population":0,"countryCode":"US","name":"Weston","fclName":"city, village,...","adminCodes1":{"ISO3166_2":"KY"},"countryName":"United States","fcodeName":"populated place","adminName1":"Kentucky","lat":"37.47255","fcode":"PPL"},{"adminCode1":"IA","lng":"-95.74112","geonameId":4881652,"toponymName":"Weston","countryId":"6252001","fcl":"P","population":92,"countryCode":"US","name":"Weston","fclName":"city, village,...","adminCodes1":{"ISO3166_2":"IA"},"countryName":"United States","fcodeName":"populated place","adminName1":"Iowa","lat":"41.34083","fcode":"PPL"},{"adminCode1":"CO","lng":"-106.16391","geonameId":5443918,"toponymName":"Weston Peak","countryId":"6252001","fcl":"T","population":0,"countryCode":"US","name":"Weston Peak","fclName":"mountain,hill,rock,... ","adminCodes1":{"ISO3166_2":"CO"},"countryName":"United States","fcodeName":"mountain","adminName1":"Colorado","lat":"39.13666","fcode":"MT"},{"adminCode1":"IL","lng":"-88.622","geonameId":4916225,"toponymName":"Weston","countryId":"6252001","fcl":"P","population":0,"countryCode":"US","name":"Weston","fclName":"city, village,...","adminCodes1":{"ISO3166_2":"IL"},"countryName":"United States","fcodeName":"populated place","adminName1":"Illinois","lat":"40.74726","fcode":"PPL"},{"adminCode1":"LA","lng":"-92.61348","geonameId":4828596,"toponymName":"Weston","countryId":"6252001","fcl":"P","population":0,"countryCode":"US","name":"Weston","fclName":"city, village,...","adminCodes1":{"ISO3166_2":"LA"},"countryName":"United States","fcodeName":"populated place","adminName1":"Louisiana","lat":"32.24404","fcode":"PPL"},{"adminCode1":"NY","lng":"-78.37252","geonameId":5144110,"toponymName":"Weston Mills","countryId":"6252001","fcl":"P","population":1472,"countryCode":"US","name":"Weston Mills","fclName":"city, village,...","adminCodes1":{"ISO3166_2":"NY"},"countryName":"United States","fcodeName":"populated place","adminName1":"New York","lat":"42.0759","fcode":"PPL"},{"adminCode1":"NJ","lng":"-74.59071","geonameId":5106341,"toponymName":"Weston","countryId":"6252001","fcl":"P","population":1235,"countryCode":"US","name":"Weston","fclName":"city, village,...","adminCodes1":{"ISO3166_2":"NJ"},"countryName":"United States","fcodeName":"populated place","adminName1":"New Jersey","lat":"40.5351","fcode":"PPL"},{"adminCode1":"TX","lng":"-96.66454","geonameId":7174694,"toponymName":"City of Weston","countryId":"6252001","fcl":"A","population":563,"countryCode":"US","name":"City of Weston","fclName":"country, state, region,...","adminCodes1":{"ISO3166_2":"TX"},"countryName":"United States","fcodeName":"third-order administrative division","adminName1":"Texas","lat":"33.32609","fcode":"ADM3"},{"adminCode1":"WI","lng":"-89.52992","geonameId":5278700,"toponymName":"Town of Weston","countryId":"6252001","fcl":"A","population":664,"countryCode":"US","name":"Town of Weston","fclName":"country, state, region,...","adminCodes1":{"ISO3166_2":"WI"},"countryName":"United States","fcodeName":"third-order administrative division","adminName1":"Wisconsin","lat":"44.92934","fcode":"ADM3"},{"adminCode1":"GA","lng":"-84.61158","geonameId":7172091,"toponymName":"Town of Weston (historical)","countryId":"6252001","fcl":"A","population":0,"countryCode":"US","name":"Town of Weston (historical)","fclName":"country, state, region,...","adminCodes1":{"ISO3166_2":"GA"},"countryName":"United States","fcodeName":"administrative division","adminName1":"Georgia","lat":"31.97691","fcode":"ADMD"},{"adminCode1":"FL","lng":"-81.40919","geonameId":4178004,"toponymName":"Lake Weston","countryId":"6252001","fcl":"H","population":0,"countryCode":"US","name":"Lake Weston","fclName":"stream, lake, ...","adminCodes1":{"ISO3166_2":"FL"},"countryName":"United States","fcodeName":"lake","adminName1":"Florida","lat":"28.61628","fcode":"LK"},{"adminCode1":"MO","lng":"-94.84876","geonameId":4407715,"toponymName":"Schaback Strip","countryId":"6252001","fcl":"S","population":0,"countryCode":"US","name":"Schaback Strip","fclName":"spot, building, farm","adminCodes1":{"ISO3166_2":"MO"},"countryName":"United States","fcodeName":"airport","adminName1":"Missouri","lat":"39.42503","fcode":"AIRP"},{"adminCode1":"MO","lng":"-94.81663","geonameId":4415392,"toponymName":"Woodruff","countryId":"6252001","fcl":"P","population":0,"countryCode":"US","name":"Woodruff","fclName":"city, village,...","adminCodes1":{"ISO3166_2":"MO"},"countryName":"United States","fcodeName":"populated place","adminName1":"Missouri","lat":"39.44389","fcode":"PPL"},{"adminCode1":"ME","lng":"-67.85946","geonameId":4959787,"toponymName":"Butterfield Landing","countryId":"6252001","fcl":"P","population":0,"countryCode":"US","name":"Butterfield Landing","fclName":"city, village,...","adminCodes1":{"ISO3166_2":"ME"},"countryName":"United States","fcodeName":"populated place","adminName1":"Maine","lat":"45.71062","fcode":"PPL"},{"adminCode1":"OK","lng":"-97.19199","geonameId":4555172,"toponymName":"Township of Weston","countryId":"6252001","fcl":"A","population":0,"countryCode":"US","name":"Weston Township","fclName":"country, state, region,...","adminCodes1":{"ISO3166_2":"OK"},"countryName":"United States","fcodeName":"administrative division","adminName1":"Oklahoma","lat":"36.81114","fcode":"ADMD"},{"adminCode1":"SD","lng":"-97.92122","geonameId":5225977,"toponymName":"Amherst","countryId":"6252001","fcl":"P","population":0,"countryCode":"US","name":"Amherst","fclName":"city, village,...","adminCodes1":{"ISO3166_2":"SD"},"countryName":"United States","fcodeName":"populated place","adminName1":"South Dakota","lat":"45.73801","fcode":"PPL"},{"adminCode1":"CT","lng":"-73.37253","geonameId":4845581,"toponymName":"Town of Weston","countryId":"6252001","fcl":"A","population":10387,"countryCode":"US","name":"Town of Weston","fclName":"country, state, region,...","adminCodes1":{"ISO3166_2":"CT"},"countryName":"United States","fcodeName":"third-order administrative division","adminName1":"Connecticut","lat":"41.22839","fcode":"ADM3"},{"adminCode1":"MA","lng":"-71.3001","geonameId":4955280,"toponymName":"Town of Weston","countryId":"6252001","fcl":"A","population":12057,"countryCode":"US","name":"Town of Weston","fclName":"country, state, region,...","adminCodes1":{"ISO3166_2":"MA"},"countryName":"United States","fcodeName":"third-order administrative division","adminName1":"Massachusetts","lat":"42.35893","fcode":"ADM3"},{"adminCode1":"WY","lng":"-104.36328","geonameId":5838501,"toponymName":"Sixmile Basin","countryId":"6252001","fcl":"T","population":0,"countryCode":"US","name":"Sixmile Basin","fclName":"mountain,hill,rock,... ","adminCodes1":{"ISO3166_2":"WY"},"countryName":"United States","fcodeName":"depression(s)","adminName1":"Wyoming","lat":"43.82664","fcode":"DPR"},{"adminCode1":"WY","lng":"-104.36717","geonameId":5838557,"toponymName":"Skull Creek","countryId":"6252001","fcl":"P","population":0,"countryCode":"US","name":"Skull Creek","fclName":"city, village,...","adminCodes1":{"ISO3166_2":"WY"},"countryName":"United States","fcodeName":"populated place","adminName1":"Wyoming","lat":"44.10915","fcode":"PPL"},{"adminCode1":"WY","lng":"-104.45912","geonameId":5838579,"toponymName":"Slagle Draw","countryId":"6252001","fcl":"T","population":0,"countryCode":"US","name":"Slagle Draw","fclName":"mountain,hill,rock,... ","adminCodes1":{"ISO3166_2":"WY"},"countryName":"United States","fcodeName":"valley","adminName1":"Wyoming","lat":"43.80831","fcode":"VAL"},{"adminCode1":"WY","lng":"-104.73802","geonameId":5838845,"toponymName":"Soda Butte","countryId":"6252001","fcl":"T","population":0,"countryCode":"US","name":"Soda Butte","fclName":"mountain,hill,rock,... ","adminCodes1":{"ISO3166_2":"WY"},"countryName":"United States","fcodeName":"mountain","adminName1":"Wyoming","lat":"44.03165","fcode":"MT"},{"adminCode1":"WY","lng":"-104.10799","geonameId":5839024,"toponymName":"South Draw","countryId":"6252001","fcl":"T","population":0,"countryCode":"US","name":"South Draw","fclName":"mountain,hill,rock,... ","adminCodes1":{"ISO3166_2":"WY"},"countryName":"United States","fcodeName":"valley","adminName1":"Wyoming","lat":"43.8547","fcode":"VAL"},{"adminCode1":"WY","lng":"-104.14994","geonameId":5839326,"toponymName":"South Table Draw","countryId":"6252001","fcl":"T","population":0,"countryCode":"US","name":"South Table Draw","fclName":"mountain,hill,rock,... ","adminCodes1":{"ISO3166_2":"WY"},"countryName":"United States","fcodeName":"valley","adminName1":"Wyoming","lat":"43.89442","fcode":"VAL"},{"adminCode1":"WY","lng":"-104.13244","geonameId":5839405,"toponymName":"Spencer Draw","countryId":"6252001","fcl":"T","population":0,"countryCode":"US","name":"Spencer Draw","fclName":"mountain,hill,rock,... ","adminCodes1":{"ISO3166_2":"WY"},"countryName":"United States","fcodeName":"valley","adminName1":"Wyoming","lat":"43.76137","fcode":"VAL"},{"adminCode1":"WY","lng":"-105.0447","geonameId":5839616,"toponymName":"Spring Creek","countryId":"6252001","fcl":"H","population":0,"countryCode":"US","name":"Spring Creek","fclName":"stream, lake, ...","adminCodes1":{"ISO3166_2":"WY"},"countryName":"United States","fcodeName":"stream","adminName1":"Wyoming","lat":"44.00192","fcode":"STM"},{"adminCode1":"WY","lng":"-104.26522","geonameId":5839825,"toponymName":"Star Butte","countryId":"6252001","fcl":"T","population":0,"countryCode":"US","name":"Star Butte","fclName":"mountain,hill,rock,... ","adminCodes1":{"ISO3166_2":"WY"},"countryName":"United States","fcodeName":"mountain","adminName1":"Wyoming","lat":"44.12776","fcode":"MT"},{"adminCode1":"WY","lng":"-104.55218","geonameId":5839883,"toponymName":"Statler Draw","countryId":"6252001","fcl":"T","population":0,"countryCode":"US","name":"Statler Draw","fclName":"mountain,hill,rock,... ","adminCodes1":{"ISO3166_2":"WY"},"countryName":"United States","fcodeName":"valley","adminName1":"Wyoming","lat":"43.75164","fcode":"VAL"},{"adminCode1":"WY","lng":"-104.7083","geonameId":5839944,"toponymName":"Stellwagon Draw","countryId":"6252001","fcl":"T","population":0,"countryCode":"US","name":"Stellwagon Draw","fclName":"mountain,hill,rock,... ","adminCodes1":{"ISO3166_2":"WY"},"countryName":"United States","fcodeName":"valley","adminName1":"Wyoming","lat":"44.06081","fcode":"VAL"},{"adminCode1":"WY","lng":"-104.26605","geonameId":5840124,"toponymName":"Strawberry Mountain","countryId":"6252001","fcl":"T","population":0,"countryCode":"US","name":"Strawberry Mountain","fclName":"mountain,hill,rock,... ","adminCodes1":{"ISO3166_2":"WY"},"countryName":"United States","fcodeName":"mountain","adminName1":"Wyoming","lat":"44.17137","fcode":"MT"},{"adminCode1":"WY","lng":"-104.41606","geonameId":5840317,"toponymName":"Sunquist Draw","countryId":"6252001","fcl":"T","population":0,"countryCode":"US","name":"Sunquist Draw","fclName":"mountain,hill,rock,... ","adminCodes1":{"ISO3166_2":"WY"},"countryName":"United States","fcodeName":"valley","adminName1":"Wyoming","lat":"44.04943","fcode":"VAL"},{"adminCode1":"WY","lng":"-104.19105","geonameId":5840437,"toponymName":"Sweetwater Mountain","countryId":"6252001","fcl":"T","population":0,"countryCode":"US","name":"Sweetwater Mountain","fclName":"mountain,hill,rock,... ","adminCodes1":{"ISO3166_2":"WY"},"countryName":"United States","fcodeName":"mountain","adminName1":"Wyoming","lat":"44.03081","fcode":"MT"},{"adminCode1":"WY","lng":"-104.11355","geonameId":5840869,"toponymName":"Thoeming Draw","countryId":"6252001","fcl":"T","population":0,"countryCode":"US","name":"Thoeming Draw","fclName":"mountain,hill,rock,... ","adminCodes1":{"ISO3166_2":"WY"},"countryName":"United States","fcodeName":"valley","adminName1":"Wyoming","lat":"43.99276","fcode":"VAL"},{"adminCode1":"WY","lng":"-104.7433","geonameId":5840939,"toponymName":"Thornton","countryId":"6252001","fcl":"P","population":0,"countryCode":"US","name":"Thornton","fclName":"city, village,...","adminCodes1":{"ISO3166_2":"WY"},"countryName":"United States","fcodeName":"populated place","adminName1":"Wyoming","lat":"44.16276","fcode":"PPL"},{"adminCode1":"WY","lng":"-104.32217","geonameId":5841151,"toponymName":"Mount Tom","countryId":"6252001","fcl":"T","population":0,"countryCode":"US","name":"Mount Tom","fclName":"mountain,hill,rock,... ","adminCodes1":{"ISO3166_2":"WY"},"countryName":"United States","fcodeName":"mountain","adminName1":"Wyoming","lat":"44.15332","fcode":"MT"},{"adminCode1":"WY","lng":"-104.92941","geonameId":5841694,"toponymName":"Underwood Draw","countryId":"6252001","fcl":"T","population":0,"countryCode":"US","name":"Underwood Draw","fclName":"mountain,hill,rock,... ","adminCodes1":{"ISO3166_2":"WY"},"countryName":"United States","fcodeName":"valley","adminName1":"Wyoming","lat":"43.51192","fcode":"VAL"},{"adminCode1":"WY","lng":"-104.60218","geonameId":5841820,"toponymName":"Upton Dam","countryId":"6252001","fcl":"S","population":0,"countryCode":"US","name":"Upton Dam","fclName":"spot, building, farm","adminCodes1":{"ISO3166_2":"WY"},"countryName":"United States","fcodeName":"dam","adminName1":"Wyoming","lat":"44.12665","fcode":"DAM"}]}
