{"totalResultsCount":69,"geonames":[{"adminCode1":"AL","lng":"-87.38188","geonameId":4097312,"toponymName":"Wheeler Dam","countryId":"6252001","fcl":"S","population":0,"countryCode":"US","name":"Wheeler Dam","fclName":"spot, building, farm","adminCodes1":{"ISO3166_2":"AL"},"countryName":"United States","fcodeName":"dam","adminName1":"Alabama","lat":"34.80623","fcode":"DAM"},{"adminCode1":"OR","lng":"-119.92136","geonameId":5714653,"toponymName":"Blann Meadow Reservoir Dam","countryId":"6252001","fcl":"S","population":0,"countryCode":"US","name":"Blann Meadow Reservoir Dam","fclName":"spot, building, farm","adminCodes1":{"ISO3166_2":"OR"},"countryName":"United States","fcodeName":"dam","adminName1":"Oregon","lat":"44.61636","fcode":"DAM"},{"adminCode1":"TX","lng":"-100.3054","geonameId":5531081,"toponymName":"Soil Conservation Service Site 21 Dam","countryId":"6252001","fcl":"S","population":0,"countryCode":"US","name":"Soil Conservation Service Site 21 Dam","fclName":"spot, building, farm","adminCodes1":{"ISO3166_2":"TX"},"countryName":"United States","fcodeName":"dam","adminName1":"Texas","lat":"35.60505","fcode":"DAM"},{"adminCode1":"NE","lng":"-98.65486","geonameId":5067748,"toponymName":"Ericson Dam","countryId":"6252001","fcl":"S","population":0,"countryCode":"US","name":"Ericson Dam","fclName":"spot, building, farm","adminCodes1":{"ISO3166_2":"NE"},"countryName":"United States","fcodeName":"dam","adminName1":"Nebraska","lat":"41.75757","fcode":"DAM"},{"adminCode1":"NE","lng":"-98.53051","geonameId":5075132,"toponymName":"Pibel Dam","countryId":"6252001","fcl":"S","population":0,"countryCode":"US","name":"Pibel Dam","fclName":"spot, building, farm","adminCodes1":{"ISO3166_2":"NE"},"countryName":"United States","fcodeName":"dam","adminName1":"Nebraska","lat":"41.7548","fcode":"DAM"},{"adminCode1":"TX","lng":"-98.65697","geonameId":4723105,"toponymName":"Robert Wheeler Lake Number 3 Dam","countryId":"6252001","fcl":"S","population":0,"countryCode":"US","name":"Robert Wheeler Lake Number 3 Dam","fclName":"spot, building, farm","adminCodes1":{"ISO3166_2":"TX"},"countryName":"United States","fcodeName":"dam","adminName1":"Texas","lat":"28.58193","fcode":"DAM"},{"adminCode1":"WI","lng":"-88.59677","geonameId":5278752,"toponymName":"Wheeler 2 WP 462 Dam","countryId":"6252001","fcl":"S","population":0,"countryCode":"US","name":"Wheeler 2 WP 462 Dam","fclName":"spot, building, farm","adminCodes1":{"ISO3166_2":"WI"},"countryName":"United States","fcodeName":"dam","adminName1":"Wisconsin","lat":"45.3183","fcode":"DAM"},{"adminCode1":"OR","lng":"-120.04826","geonameId":5554765,"toponymName":"Kinzua Dam (historical)","countryId":"6252001","fcl":"S","population":0,"countryCode":"US","name":"Kinzua Dam (historical)","fclName":"spot, building, farm","adminCodes1":{"ISO3166_2":"OR"},"countryName":"United States","fcodeName":"ruined dam","adminName1":"Oregon","lat":"44.97521","fcode":"DAMQ"},{"adminCode1":"AL","lng":"-87.37808","geonameId":4097315,"toponymName":"Wheeler Dam Village","countryId":"6252001","fcl":"P","population":0,"countryCode":"US","name":"Wheeler Dam Village","fclName":"city, village,...","adminCodes1":{"ISO3166_2":"AL"},"countryName":"United States","fcodeName":"populated place","adminName1":"Alabama","lat":"34.79342","fcode":"PPL"},{"adminCode1":"GA","lng":"-82.78986","geonameId":4213380,"toponymName":"O'Quinns Pond Dam","countryId":"6252001","fcl":"S","population":0,"countryCode":"US","name":"O'Quinns Pond Dam","fclName":"spot, building, farm","adminCodes1":{"ISO3166_2":"GA"},"countryName":"United States","fcodeName":"dam","adminName1":"Georgia","lat":"32.14018","fcode":"DAM"},{"adminCode1":"GA","lng":"-82.84486","geonameId":4210218,"toponymName":"Morris Lake Dam","countryId":"6252001","fcl":"S","population":0,"countryCode":"US","name":"Morris Lake Dam","fclName":"spot, building, farm","adminCodes1":{"ISO3166_2":"GA"},"countryName":"United States","fcodeName":"dam","adminName1":"Georgia","lat":"32.18017","fcode":"DAM"},{"adminCode1":"GA","lng":"-82.67153","geonameId":4223264,"toponymName":"Smith Pond Dam","countryId":"6252001","fcl":"S","population":0,"countryCode":"US","name":"Smith Pond Dam","fclName":"spot, building, farm","adminCodes1":{"ISO3166_2":"GA"},"countryName":"United States","fcodeName":"dam","adminName1":"Georgia","lat":"32.10351","fcode":"DAM"},{"adminCode1":"GA","lng":"-82.65986","geonameId":4224611,"toponymName":"Stewart Pond Dam","countryId":"6252001","fcl":"S","population":0,"countryCode":"US","name":"Stewart Pond Dam","fclName":"spot, building, farm","adminCodes1":{"ISO3166_2":"GA"},"countryName":"United States","fcodeName":"dam","adminName1":"Georgia","lat":"32.03518","fcode":"DAM"},{"adminCode1":"GA","lng":"-82.82153","geonameId":4195254,"toponymName":"Flanders Lake Dam","countryId":"6252001","fcl":"S","population":0,"countryCode":"US","name":"Flanders Lake Dam","fclName":"spot, building, farm","adminCodes1":{"ISO3166_2":"GA"},"countryName":"United States","fcodeName":"dam","adminName1":"Georgia","lat":"32.07184","fcode":"DAM"},{"adminCode1":"GA","lng":"-82.66819","geonameId":4201436,"toponymName":"Horseshoe Pond Dam","countryId":"6252001","fcl":"S","population":0,"countryCode":"US","name":"Horseshoe Pond Dam","fclName":"spot, building, farm","adminCodes1":{"ISO3166_2":"GA"},"countryName":"United States","fcodeName":"dam","adminName1":"Georgia","lat":"32.28184","fcode":"DAM"},{"adminCode1":"GA","lng":"-82.79153","geonameId":4203363,"toponymName":"Jordan Lake Dam","countryId":"6252001","fcl":"S","population":0,"countryCode":"US","name":"Jordan Lake Dam","fclName":"spot, building, farm","adminCodes1":{"ISO3166_2":"GA"},"countryName":"United States","fcodeName":"dam","adminName1":"Georgia","lat":"32.18018","fcode":"DAM"},{"adminCode1":"GA","lng":"-82.89487","geonameId":4206217,"toponymName":"Little Ocmulgee Lake Dam","countryId":"6252001","fcl":"S","population":0,"countryCode":"US","name":"Little Ocmulgee Lake Dam","fclName":"spot, building, farm","adminCodes1":{"ISO3166_2":"GA"},"countryName":"United States","fcodeName":"dam","adminName1":"Georgia","lat":"32.08684","fcode":"DAM"},{"adminCode1":"GA","lng":"-82.81486","geonameId":4188350,"toponymName":"Cleggs Lake Dam","countryId":"6252001","fcl":"S","population":0,"countryCode":"US","name":"Cleggs Lake Dam","fclName":"spot, building, farm","adminCodes1":{"ISO3166_2":"GA"},"countryName":"United States","fcodeName":"dam","adminName1":"Georgia","lat":"32.05851","fcode":"DAM"},{"adminCode1":"GA","lng":"-82.8632","geonameId":4188775,"toponymName":"Coleman Lake Dam","countryId":"6252001","fcl":"S","population":0,"countryCode":"US","name":"Coleman Lake Dam","fclName":"spot, building, farm","adminCodes1":{"ISO3166_2":"GA"},"countryName":"United States","fcodeName":"dam","adminName1":"Georgia","lat":"32.15518","fcode":"DAM"},{"adminCode1":"OR","lng":"-119.82643","geonameId":5748871,"toponymName":"Rock Creek Lake Dam","countryId":"6252001","fcl":"S","population":0,"countryCode":"US","name":"Rock Creek Lake Dam","fclName":"spot, building, farm","adminCodes1":{"ISO3166_2":"OR"},"countryName":"United States","fcodeName":"dam","adminName1":"Oregon","lat":"44.42687","fcode":"DAM"},{"adminCode1":"OR","lng":"-120.17642","geonameId":5749568,"toponymName":"Rowe Creek Dam","countryId":"6252001","fcl":"S","population":0,"countryCode":"US","name":"Rowe Creek Dam","fclName":"spot, building, farm","adminCodes1":{"ISO3166_2":"OR"},"countryName":"United States","fcodeName":"dam","adminName1":"Oregon","lat":"44.80409","fcode":"DAM"},{"adminCode1":"OR","lng":"-120.27727","geonameId":5744720,"toponymName":"Painted Hills Dam","countryId":"6252001","fcl":"S","population":0,"countryCode":"US","name":"Painted Hills Dam","fclName":"spot, building, farm","adminCodes1":{"ISO3166_2":"OR"},"countryName":"United States","fcodeName":"dam","adminName1":"Oregon","lat":"44.66938","fcode":"DAM"},{"adminCode1":"OR","lng":"-119.97815","geonameId":5719354,"toponymName":"Clark Lake Dam","countryId":"6252001","fcl":"S","population":0,"countryCode":"US","name":"Clark Lake Dam","fclName":"spot, building, farm","adminCodes1":{"ISO3166_2":"OR"},"countryName":"United States","fcodeName":"dam","adminName1":"Oregon","lat":"44.89091","fcode":"DAM"},{"adminCode1":"OR","lng":"-119.97606","geonameId":5720125,"toponymName":"Collins Dam","countryId":"6252001","fcl":"S","population":0,"countryCode":"US","name":"Collins Dam","fclName":"spot, building, farm","adminCodes1":{"ISO3166_2":"OR"},"countryName":"United States","fcodeName":"dam","adminName1":"Oregon","lat":"44.50195","fcode":"DAM"},{"adminCode1":"OR","lng":"-119.94407","geonameId":5727156,"toponymName":"Fopiano Dam","countryId":"6252001","fcl":"S","population":0,"countryCode":"US","name":"Fopiano Dam","fclName":"spot, building, farm","adminCodes1":{"ISO3166_2":"OR"},"countryName":"United States","fcodeName":"dam","adminName1":"Oregon","lat":"44.58984","fcode":"DAM"},{"adminCode1":"OR","lng":"-119.88391","geonameId":5727248,"toponymName":"Fort Creek Dam","countryId":"6252001","fcl":"S","population":0,"countryCode":"US","name":"Fort Creek Dam","fclName":"spot, building, farm","adminCodes1":{"ISO3166_2":"OR"},"countryName":"United States","fcodeName":"dam","adminName1":"Oregon","lat":"44.50874","fcode":"DAM"},{"adminCode1":"TX","lng":"-100.445","geonameId":6333136,"toponymName":"Hrnciar Dam","countryId":"6252001","fcl":"S","population":0,"countryCode":"US","name":"Hrnciar Dam","fclName":"spot, building, farm","adminCodes1":{"ISO3166_2":"TX"},"countryName":"United States","fcodeName":"dam","adminName1":"Texas","lat":"35.25333","fcode":"DAM"},{"adminCode1":"TX","lng":"-100.48874","geonameId":5516530,"toponymName":"Avent Reservoir Dam","countryId":"6252001","fcl":"S","population":0,"countryCode":"US","name":"Avent Reservoir Dam","fclName":"spot, building, farm","adminCodes1":{"ISO3166_2":"TX"},"countryName":"United States","fcodeName":"dam","adminName1":"Texas","lat":"35.33338","fcode":"DAM"},{"adminCode1":"TX","lng":"-100.23206","geonameId":5517260,"toponymName":"Blakemore Dam","countryId":"6252001","fcl":"S","population":0,"countryCode":"US","name":"Blakemore Dam","fclName":"spot, building, farm","adminCodes1":{"ISO3166_2":"TX"},"countryName":"United States","fcodeName":"dam","adminName1":"Texas","lat":"35.24672","fcode":"DAM"},{"adminCode1":"TX","lng":"-100.49541","geonameId":5530229,"toponymName":"Sandspur Club Lake Dam","countryId":"6252001","fcl":"S","population":0,"countryCode":"US","name":"Sandspur Club Lake Dam","fclName":"spot, building, farm","adminCodes1":{"ISO3166_2":"TX"},"countryName":"United States","fcodeName":"dam","adminName1":"Texas","lat":"35.19338","fcode":"DAM"},{"adminCode1":"TX","lng":"-100.42707","geonameId":5531041,"toponymName":"Soil Conservation Service Site 17 Dam","countryId":"6252001","fcl":"S","population":0,"countryCode":"US","name":"Soil Conservation Service Site 17 Dam","fclName":"spot, building, farm","adminCodes1":{"ISO3166_2":"TX"},"countryName":"United States","fcodeName":"dam","adminName1":"Texas","lat":"35.59838","fcode":"DAM"},{"adminCode1":"TX","lng":"-100.41374","geonameId":5531044,"toponymName":"Soil Conservation Service Site 17a Dam","countryId":"6252001","fcl":"S","population":0,"countryCode":"US","name":"Soil Conservation Service Site 17a Dam","fclName":"spot, building, farm","adminCodes1":{"ISO3166_2":"TX"},"countryName":"United States","fcodeName":"dam","adminName1":"Texas","lat":"35.59838","fcode":"DAM"},{"adminCode1":"TX","lng":"-100.38874","geonameId":5531046,"toponymName":"Soil Conservation Service Site 17b Dam","countryId":"6252001","fcl":"S","population":0,"countryCode":"US","name":"Soil Conservation Service Site 17b Dam","fclName":"spot, building, farm","adminCodes1":{"ISO3166_2":"TX"},"countryName":"United States","fcodeName":"dam","adminName1":"Texas","lat":"35.59171","fcode":"DAM"},{"adminCode1":"TX","lng":"-100.38707","geonameId":5531049,"toponymName":"Soil Conservation Service Site 18 Dam","countryId":"6252001","fcl":"S","population":0,"countryCode":"US","name":"Soil Conservation Service Site 18 Dam","fclName":"spot, building, farm","adminCodes1":{"ISO3166_2":"TX"},"countryName":"United States","fcodeName":"dam","adminName1":"Texas","lat":"35.61171","fcode":"DAM"},{"adminCode1":"TX","lng":"-100.39541","geonameId":5531053,"toponymName":"Soil Conservation Service Site 19 Dam","countryId":"6252001","fcl":"S","population":0,"countryCode":"US","name":"Soil Conservation Service Site 19 Dam","fclName":"spot, building, farm","adminCodes1":{"ISO3166_2":"TX"},"countryName":"United States","fcodeName":"dam","adminName1":"Texas","lat":"35.61171","fcode":"DAM"},{"adminCode1":"TX","lng":"-100.3504","geonameId":5531078,"toponymName":"Soil Conservation Service Site 20 Dam","countryId":"6252001","fcl":"S","population":0,"countryCode":"US","name":"Soil Conservation Service Site 20 Dam","fclName":"spot, building, farm","adminCodes1":{"ISO3166_2":"TX"},"countryName":"United States","fcodeName":"dam","adminName1":"Texas","lat":"35.61171","fcode":"DAM"},{"adminCode1":"TX","lng":"-100.31873","geonameId":5533125,"toponymName":"Wardlow Lake Dam","countryId":"6252001","fcl":"S","population":0,"countryCode":"US","name":"Wardlow Lake Dam","fclName":"spot, building, farm","adminCodes1":{"ISO3166_2":"TX"},"countryName":"United States","fcodeName":"dam","adminName1":"Texas","lat":"35.25338","fcode":"DAM"},{"adminCode1":"TX","lng":"-100.47495","geonameId":5519873,"toponymName":"Dam Number 16","countryId":"6252001","fcl":"S","population":0,"countryCode":"US","name":"Dam Number 16","fclName":"spot, building, farm","adminCodes1":{"ISO3166_2":"TX"},"countryName":"United States","fcodeName":"dam","adminName1":"Texas","lat":"35.61952","fcode":"DAM"},{"adminCode1":"TX","lng":"-100.42884","geonameId":5519874,"toponymName":"Dam Number 17","countryId":"6252001","fcl":"S","population":0,"countryCode":"US","name":"Dam Number 17","fclName":"spot, building, farm","adminCodes1":{"ISO3166_2":"TX"},"countryName":"United States","fcodeName":"dam","adminName1":"Texas","lat":"35.5998","fcode":"DAM"},{"adminCode1":"TX","lng":"-100.41236","geonameId":5519875,"toponymName":"Dam Number 17A","countryId":"6252001","fcl":"S","population":0,"countryCode":"US","name":"Dam Number 17A","fclName":"spot, building, farm","adminCodes1":{"ISO3166_2":"TX"},"countryName":"United States","fcodeName":"dam","adminName1":"Texas","lat":"35.5981","fcode":"DAM"},{"adminCode1":"TX","lng":"-100.38929","geonameId":5519876,"toponymName":"Dam Number 17B","countryId":"6252001","fcl":"S","population":0,"countryCode":"US","name":"Dam Number 17B","fclName":"spot, building, farm","adminCodes1":{"ISO3166_2":"TX"},"countryName":"United States","fcodeName":"dam","adminName1":"Texas","lat":"35.59185","fcode":"DAM"},{"adminCode1":"TX","lng":"-100.4078","geonameId":5519877,"toponymName":"Dam Number 18","countryId":"6252001","fcl":"S","population":0,"countryCode":"US","name":"Dam Number 18","fclName":"spot, building, farm","adminCodes1":{"ISO3166_2":"TX"},"countryName":"United States","fcodeName":"dam","adminName1":"Texas","lat":"35.61104","fcode":"DAM"},{"adminCode1":"TX","lng":"-100.39402","geonameId":5519878,"toponymName":"Dam Number 19","countryId":"6252001","fcl":"S","population":0,"countryCode":"US","name":"Dam Number 19","fclName":"spot, building, farm","adminCodes1":{"ISO3166_2":"TX"},"countryName":"United States","fcodeName":"dam","adminName1":"Texas","lat":"35.61081","fcode":"DAM"},{"adminCode1":"TX","lng":"-100.35051","geonameId":5519879,"toponymName":"Dam Number 20","countryId":"6252001","fcl":"S","population":0,"countryCode":"US","name":"Dam Number 20","fclName":"spot, building, farm","adminCodes1":{"ISO3166_2":"TX"},"countryName":"United States","fcodeName":"dam","adminName1":"Texas","lat":"35.6115","fcode":"DAM"},{"adminCode1":"TX","lng":"-100.30525","geonameId":5519880,"toponymName":"Dam Number 21","countryId":"6252001","fcl":"S","population":0,"countryCode":"US","name":"Dam Number 21","fclName":"spot, building, farm","adminCodes1":{"ISO3166_2":"TX"},"countryName":"United States","fcodeName":"dam","adminName1":"Texas","lat":"35.60472","fcode":"DAM"},{"adminCode1":"TX","lng":"-100.16373","geonameId":5520321,"toponymName":"Domer Reed Lake Dam","countryId":"6252001","fcl":"S","population":0,"countryCode":"US","name":"Domer Reed Lake Dam","fclName":"spot, building, farm","adminCodes1":{"ISO3166_2":"TX"},"countryName":"United States","fcodeName":"dam","adminName1":"Texas","lat":"35.53005","fcode":"DAM"},{"adminCode1":"TX","lng":"-100.16373","geonameId":5520922,"toponymName":"Ed Unsen Lake Dam","countryId":"6252001","fcl":"S","population":0,"countryCode":"US","name":"Ed Unsen Lake Dam","fclName":"spot, building, farm","adminCodes1":{"ISO3166_2":"TX"},"countryName":"United States","fcodeName":"dam","adminName1":"Texas","lat":"35.52505","fcode":"DAM"},{"adminCode1":"TX","lng":"-100.4554","geonameId":5524756,"toponymName":"Lake Loraine Dam","countryId":"6252001","fcl":"S","population":0,"countryCode":"US","name":"Lake Loraine Dam","fclName":"spot, building, farm","adminCodes1":{"ISO3166_2":"TX"},"countryName":"United States","fcodeName":"dam","adminName1":"Texas","lat":"35.18838","fcode":"DAM"},{"adminCode1":"TX","lng":"-100.45374","geonameId":5525658,"toponymName":"Machina Lake Dam","countryId":"6252001","fcl":"S","population":0,"countryCode":"US","name":"Machina Lake Dam","fclName":"spot, building, farm","adminCodes1":{"ISO3166_2":"TX"},"countryName":"United States","fcodeName":"dam","adminName1":"Texas","lat":"35.25838","fcode":"DAM"},{"adminCode1":"NE","lng":"-98.30824","geonameId":5071018,"toponymName":"Jennings Dam","countryId":"6252001","fcl":"S","population":0,"countryCode":"US","name":"Jennings Dam","fclName":"spot, building, farm","adminCodes1":{"ISO3166_2":"NE"},"countryName":"United States","fcodeName":"dam","adminName1":"Nebraska","lat":"41.91163","fcode":"DAM"},{"adminCode1":"GA","lng":"-84.87883","geonameId":4230504,"toponymName":"Wheeler Lake Dam","countryId":"6252001","fcl":"S","population":0,"countryCode":"US","name":"Wheeler Lake Dam","fclName":"spot, building, farm","adminCodes1":{"ISO3166_2":"GA"},"countryName":"United States","fcodeName":"dam","adminName1":"Georgia","lat":"33.89455","fcode":"DAM"},{"adminCode1":"NV","lng":"-119.12435","geonameId":5710048,"toponymName":"Wheeler Dam","countryId":"6252001","fcl":"S","population":0,"countryCode":"US","name":"Wheeler Dam","fclName":"spot, building, farm","adminCodes1":{"ISO3166_2":"NV"},"countryName":"United States","fcodeName":"dam","adminName1":"Nevada","lat":"41.19323","fcode":"DAM"},{"adminCode1":"TX","lng":"-95.36523","geonameId":4741376,"toponymName":"Wheeler Lake Dam","countryId":"6252001","fcl":"S","population":0,"countryCode":"US","name":"Wheeler Lake Dam","fclName":"spot, building, farm","adminCodes1":{"ISO3166_2":"TX"},"countryName":"United States","fcodeName":"dam","adminName1":"Texas","lat":"32.92846","fcode":"DAM"},{"adminCode1":"TX","lng":"-98.57696","geonameId":4741378,"toponymName":"Wheeler Lake Number 1 Dam","countryId":"6252001","fcl":"S","population":0,"countryCode":"US","name":"Wheeler Lake Number 1 Dam","fclName":"spot, building, farm","adminCodes1":{"ISO3166_2":"TX"},"countryName":"United States","fcodeName":"dam","adminName1":"Texas","lat":"28.5036","fcode":"DAM"},{"adminCode1":"TX","lng":"-98.5253","geonameId":4741380,"toponymName":"Wheeler Lake Number 2 Dam","countryId":"6252001","fcl":"S","population":0,"countryCode":"US","name":"Wheeler Lake Number 2 Dam","fclName":"spot, building, farm","adminCodes1":{"ISO3166_2":"TX"},"countryName":"United States","fcodeName":"dam","adminName1":"Texas","lat":"28.60193","fcode":"DAM"},{"adminCode1":"TX","lng":"-98.64697","geonameId":4723101,"toponymName":"Robert Wheeler Lake Number 1 Dam","countryId":"6252001","fcl":"S","population":0,"countryCode":"US","name":"Robert Wheeler Lake Number 1 Dam","fclName":"spot, building, farm","adminCodes1":{"ISO3166_2":"TX"},"countryName":"United States","fcodeName":"dam","adminName1":"Texas","lat":"28.5586","fcode":"DAM"},{"adminCode1":"TX","lng":"-98.64197","geonameId":4723103,"toponymName":"Robert Wheeler Lake Number 2 Dam","countryId":"6252001","fcl":"S","population":0,"countryCode":"US","name":"Robert Wheeler Lake Number 2 Dam","fclName":"spot, building, farm","adminCodes1":{"ISO3166_2":"TX"},"countryName":"United States","fcodeName":"dam","adminName1":"Texas","lat":"28.57193","fcode":"DAM"},{"adminCode1":"AL","lng":"-87.45834","geonameId":4069600,"toponymName":"James A Wheeler Lake Dam","countryId":"6252001","fcl":"S","population":0,"countryCode":"US","name":"James A Wheeler Lake Dam","fclName":"spot, building, farm","adminCodes1":{"ISO3166_2":"AL"},"countryName":"United States","fcodeName":"dam","adminName1":"Alabama","lat":"32.59513","fcode":"DAM"},{"adminCode1":"AL","lng":"-85.38661","geonameId":4097311,"toponymName":"Wheeler Dam","countryId":"6252001","fcl":"S","population":0,"countryCode":"US","name":"Wheeler Dam","fclName":"spot, building, farm","adminCodes1":{"ISO3166_2":"AL"},"countryName":"United States","fcodeName":"dam","adminName1":"Alabama","lat":"32.92179","fcode":"DAM"},{"adminCode1":"NV","lng":"-119.04682","geonameId":5514903,"toponymName":"Wheeler Flat Dam","countryId":"6252001","fcl":"S","population":0,"countryCode":"US","name":"Wheeler Flat Dam","fclName":"spot, building, farm","adminCodes1":{"ISO3166_2":"NV"},"countryName":"United States","fcodeName":"dam","adminName1":"Nevada","lat":"38.70214","fcode":"DAM"},{"adminCode1":"NV","lng":"-119.82102","geonameId":5514916,"toponymName":"Wheeler Reservoir Dam","countryId":"6252001","fcl":"S","population":0,"countryCode":"US","name":"Wheeler Reservoir Dam","fclName":"spot, building, farm","adminCodes1":{"ISO3166_2":"NV"},"countryName":"United States","fcodeName":"dam","adminName1":"Nevada","lat":"39.46824","fcode":"DAM"},{"adminCode1":"MA","lng":"-72.20786","geonameId":4955401,"toponymName":"Wheeler Pond Dam","countryId":"6252001","fcl":"S","population":0,"countryCode":"US","name":"Wheeler Pond Dam","fclName":"spot, building, farm","adminCodes1":{"ISO3166_2":"MA"},"countryName":"United States","fcodeName":"dam","adminName1":"Massachusetts","lat":"42.11843","fcode":"DAM"},{"adminCode1":"AL","lng":"-87.35752","geonameId":4097313,"toponymName":"Wheeler Dam Subdivision","countryId":"6252001","fcl":"S","population":0,"countryCode":"US","name":"Wheeler Dam Subdivision","fclName":"spot, building, farm","adminCodes1":{"ISO3166_2":"AL"},"countryName":"United States","fcodeName":"","adminName1":"Alabama","lat":"34.78842"},{"adminCode1":"AL","lng":"-87.36058","geonameId":4097314,"toponymName":"Wheeler Dam Subdivision","countryId":"6252001","fcl":"S","population":0,"countryCode":"US","name":"Wheeler Dam Subdivision","fclName":"spot, building, farm","adminCodes1":{"ISO3166_2":"AL"},"countryName":"United States","fcodeName":"","adminName1":"Alabama","lat":"34.78898"},{"adminCode1":"WA","lng":"-120.36451","geonameId":5814549,"toponymName":"Upper Wheeler Dam","countryId":"6252001","fcl":"S","population":0,"countryCode":"US","name":"Upper Wheeler Dam","fclName":"spot, building, farm","adminCodes1":{"ISO3166_2":"WA"},"countryName":"United States","fcodeName":"dam","adminName1":"Washington","lat":"47.28818","fcode":"DAM"},{"adminCode1":"CT","lng":"-72.14286","geonameId":4845656,"toponymName":"Wheeler Pond Dam","countryId":"6252001","fcl":"S","population":0,"countryCode":"US","name":"Wheeler Pond Dam","fclName":"spot, building, farm","adminCodes1":{"ISO3166_2":"CT"},"countryName":"United States","fcodeName":"dam","adminName1":"Connecticut","lat":"41.45676","fcode":"DAM"},{"adminCode1":"NH","lng":"-71.20339","geonameId":5094573,"toponymName":"Wheeler Dam","countryId":"6252001","fcl":"S","population":0,"countryCode":"US","name":"Wheeler Dam","fclName":"spot, building, farm","adminCodes1":{"ISO3166_2":"NH"},"countryName":"United States","fcodeName":"dam","adminName1":"New Hampshire","lat":"42.81703","fcode":"DAM"},{"adminCode1":"NH","lng":"-71.1995","geonameId":5094583,"toponymName":"Wheeler Dam","countryId":"6252001","fcl":"S","population":0,"countryCode":"US","name":"Wheeler Dam","fclName":"spot, building, farm","adminCodes1":{"ISO3166_2":"NH"},"countryName":"United States","fcodeName":"dam","adminName1":"New Hampshire","lat":"42.81676","fcode":"DAM"},{"adminCode1":"NC","lng":"-78.69417","geonameId":4474931,"toponymName":"Lake Wheeler Dam","countryId":"6252001","fcl":"S","population":0,"countryCode":"US","name":"Lake Wheeler Dam","fclName":"spot, building, farm","adminCodes1":{"ISO3166_2":"NC"},"countryName":"United States","fcodeName":"dam","adminName1":"North Carolina","lat":"35.69293","fcode":"DAM"}]}
