{"totalResultsCount":71,"geonames":[{"adminCode1":"NY","lng":"-73.81847","geonameId":5144400,"toponymName":"Whitestone","countryId":"6252001","fcl":"P","population":36984,"countryCode":"US","name":"Whitestone","fclName":"city, village,...","adminCodes1":{"ISO3166_2":"NY"},"countryName":"United States","fcodeName":"populated place","adminName1":"New York","lat":"40.79455","fcode":"PPL"},{"adminCode1":"AK","lng":"-145.90639","geonameId":7315163,"toponymName":"Whitestone","countryId":"6252001","fcl":"P","population":97,"countryCode":"US","name":"Whitestone","fclName":"city, village,...","adminCodes1":{"ISO3166_2":"AK"},"countryName":"United States","fcodeName":"populated place","adminName1":"Alaska","lat":"64.15284","fcode":"PPL"},{"adminCode1":"AK","lng":"-135.42972","geonameId":5558481,"toponymName":"Whitestone Logging Camp","countryId":"6252001","fcl":"P","population":17,"countryCode":"US","name":"Whitestone Logging Camp","fclName":"city, village,...","adminCodes1":{"ISO3166_2":"AK"},"countryName":"United States","fcodeName":"populated place","adminName1":"Alaska","lat":"58.07111","fcode":"PPL"},{"adminCode1":"ND","lng":"-98.85677","geonameId":5062504,"toponymName":"Whitestone Battlefield State Park","countryId":"6252001","fcl":"L","population":0,"countryCode":"US","name":"Whitestone Battlefield State Park","fclName":"parks,area, ...","adminCodes1":{"ISO3166_2":"ND"},"countryName":"United States","fcodeName":"park","adminName1":"North Dakota","lat":"46.16969","fcode":"PRK"},{"adminCode1":"ND","lng":"-97.69638","geonameId":5062505,"toponymName":"Township of Whitestone Hill","countryId":"6252001","fcl":"A","population":0,"countryCode":"US","name":"Township of Whitestone Hill","fclName":"country, state, region,...","adminCodes1":{"ISO3166_2":"ND"},"countryName":"United States","fcodeName":"third-order administrative division","adminName1":"North Dakota","lat":"46.23985","fcode":"ADM3"},{"adminCode1":"ND","lng":"-98.81835","geonameId":5062509,"toponymName":"Township of Whitestone","countryId":"6252001","fcl":"A","population":0,"countryCode":"US","name":"Whitestone Township","fclName":"country, state, region,...","adminCodes1":{"ISO3166_2":"ND"},"countryName":"United States","fcodeName":"third-order administrative division","adminName1":"North Dakota","lat":"46.1565","fcode":"ADM3"},{"adminCode1":"AK","lng":"-135.56453","geonameId":5558484,"toponymName":"Whitestone Rock","countryId":"6252001","fcl":"T","population":0,"countryCode":"US","name":"Whitestone Rock","fclName":"mountain,hill,rock,... ","adminCodes1":{"ISO3166_2":"AK"},"countryName":"United States","fcodeName":"island","adminName1":"Alaska","lat":"57.24317","fcode":"ISL"},{"adminCode1":"VA","lng":"-77.13748","geonameId":4793526,"toponymName":"Whitestone Point","countryId":"6252001","fcl":"T","population":0,"countryCode":"US","name":"Whitestone Point","fclName":"mountain,hill,rock,... ","adminCodes1":{"ISO3166_2":"VA"},"countryName":"United States","fcodeName":"cape","adminName1":"Virginia","lat":"38.67345","fcode":"CAPE"},{"adminCode1":"NY","lng":"-73.80861","geonameId":7136155,"toponymName":"Whitestone Playground","countryId":"6252001","fcl":"L","population":0,"countryCode":"US","name":"Whitestone Playground","fclName":"parks,area, ...","adminCodes1":{"ISO3166_2":"NY"},"countryName":"United States","fcodeName":"park","adminName1":"New York","lat":"40.79194","fcode":"PRK"},{"adminCode1":"VA","lng":"-76.38911","geonameId":4793428,"toponymName":"White Stone","countryId":"6252001","fcl":"P","population":342,"countryCode":"US","name":"White Stone","fclName":"city, village,...","adminCodes1":{"ISO3166_2":"VA"},"countryName":"United States","fcodeName":"populated place","adminName1":"Virginia","lat":"37.64847","fcode":"PPL"},{"adminCode1":"SC","lng":"-81.81705","geonameId":4600911,"toponymName":"White Stone","countryId":"6252001","fcl":"P","population":0,"countryCode":"US","name":"White Stone","fclName":"city, village,...","adminCodes1":{"ISO3166_2":"SC"},"countryName":"United States","fcodeName":"populated place","adminName1":"South Carolina","lat":"34.90291","fcode":"PPL"},{"adminCode1":"NY","lng":"-73.82986","geonameId":5144401,"toponymName":"Whitestone Bridge","countryId":"6252001","fcl":"S","population":0,"countryCode":"US","name":"Whitestone Bridge","fclName":"spot, building, farm","adminCodes1":{"ISO3166_2":"NY"},"countryName":"United States","fcodeName":"bridge","adminName1":"New York","lat":"40.80177","fcode":"BDG"},{"adminCode1":"SD","lng":"-97.20165","geonameId":5232920,"toponymName":"Whitestone Lake","countryId":"6252001","fcl":"H","population":0,"countryCode":"US","name":"Whitestone Lake","fclName":"stream, lake, ...","adminCodes1":{"ISO3166_2":"SD"},"countryName":"United States","fcodeName":"lake","adminName1":"South Dakota","lat":"45.63691","fcode":"LK"},{"adminCode1":"GA","lng":"-84.51159","geonameId":4230805,"toponymName":"Whitestone","countryId":"6252001","fcl":"P","population":0,"countryCode":"US","name":"Whitestone","fclName":"city, village,...","adminCodes1":{"ISO3166_2":"GA"},"countryName":"United States","fcodeName":"populated place","adminName1":"Georgia","lat":"34.56037","fcode":"PPL"},{"adminCode1":"AK","lng":"-135.56133","geonameId":5558483,"toponymName":"Whitestone Point","countryId":"6252001","fcl":"T","population":0,"countryCode":"US","name":"Whitestone Point","fclName":"mountain,hill,rock,... ","adminCodes1":{"ISO3166_2":"AK"},"countryName":"United States","fcodeName":"cape","adminName1":"Alaska","lat":"57.24524","fcode":"CAPE"},{"adminCode1":"NY","lng":"-73.81306","geonameId":6330247,"toponymName":"Whitestone Academy","countryId":"6252001","fcl":"S","population":0,"countryCode":"US","name":"Whitestone Academy","fclName":"spot, building, farm","adminCodes1":{"ISO3166_2":"NY"},"countryName":"United States","fcodeName":"school","adminName1":"New York","lat":"40.79075","fcode":"SCH"},{"adminCode1":"OH","lng":"-83.01657","geonameId":4520536,"toponymName":"Olentangy River","countryId":"6252001","fcl":"H","population":0,"countryCode":"US","name":"Olentangy River","fclName":"stream, lake, ...","adminCodes1":{"ISO3166_2":"OH"},"countryName":"United States","fcodeName":"stream","adminName1":"Ohio","lat":"39.9659","fcode":"STM"},{"adminCode1":"VA","lng":"-77.5292","geonameId":7198563,"toponymName":"Whitestone","countryId":"6252001","fcl":"P","population":0,"countryCode":"US","name":"Whitestone","fclName":"city, village,...","adminCodes1":{"ISO3166_2":"VA"},"countryName":"United States","fcodeName":"populated place","adminName1":"Virginia","lat":"38.4665","fcode":"PPL"},{"adminCode1":"VA","lng":"-78.07778","geonameId":4793521,"toponymName":"Whitestone Estates","countryId":"6252001","fcl":"P","population":0,"countryCode":"US","name":"Whitestone Estates","fclName":"city, village,...","adminCodes1":{"ISO3166_2":"VA"},"countryName":"United States","fcodeName":"populated place","adminName1":"Virginia","lat":"38.42985","fcode":"PPL"},{"adminCode1":"MI","lng":"-83.56525","geonameId":5014927,"toponymName":"Whitestone Point","countryId":"6252001","fcl":"T","population":0,"countryCode":"US","name":"Whitestone Point","fclName":"mountain,hill,rock,... ","adminCodes1":{"ISO3166_2":"MI"},"countryName":"United States","fcodeName":"cape","adminName1":"Michigan","lat":"44.10557","fcode":"CAPE"},{"adminCode1":"MI","lng":"-83.56581","geonameId":5014928,"toponymName":"Whitestone Point","countryId":"6252001","fcl":"P","population":0,"countryCode":"US","name":"Whitestone Point","fclName":"city, village,...","adminCodes1":{"ISO3166_2":"MI"},"countryName":"United States","fcodeName":"populated place","adminName1":"Michigan","lat":"44.10863","fcode":"PPL"},{"adminCode1":"WA","lng":"-119.46451","geonameId":5815880,"toponymName":"Whitestone Lake Dam","countryId":"6252001","fcl":"S","population":0,"countryCode":"US","name":"Whitestone Lake Dam","fclName":"spot, building, farm","adminCodes1":{"ISO3166_2":"WA"},"countryName":"United States","fcodeName":"dam","adminName1":"Washington","lat":"48.78654","fcode":"DAM"},{"adminCode1":"ND","lng":"-97.64325","geonameId":5059508,"toponymName":"Gwinner-Roger Melroe Field Airport","countryId":"6252001","fcl":"S","population":0,"countryCode":"US","name":"Gwinner-Roger Melroe Field Airport","fclName":"spot, building, farm","adminCodes1":{"ISO3166_2":"ND"},"countryName":"United States","fcodeName":"airfield","adminName1":"North Dakota","lat":"46.22307","fcode":"AIRF"},{"adminCode1":"WA","lng":"-119.45923","geonameId":5815873,"toponymName":"Whitestone Coulee","countryId":"6252001","fcl":"T","population":0,"countryCode":"US","name":"Whitestone Coulee","fclName":"mountain,hill,rock,... ","adminCodes1":{"ISO3166_2":"WA"},"countryName":"United States","fcodeName":"valley","adminName1":"Washington","lat":"48.70071","fcode":"VAL"},{"adminCode1":"WA","lng":"-118.50972","geonameId":5815881,"toponymName":"Whitestone Mountain","countryId":"6252001","fcl":"T","population":0,"countryCode":"US","name":"Whitestone Mountain","fclName":"mountain,hill,rock,... ","adminCodes1":{"ISO3166_2":"WA"},"countryName":"United States","fcodeName":"mountain","adminName1":"Washington","lat":"48.00571","fcode":"MT"},{"adminCode1":"WA","lng":"-119.47479","geonameId":5815882,"toponymName":"Whitestone Mountain","countryId":"6252001","fcl":"T","population":0,"countryCode":"US","name":"Whitestone Mountain","fclName":"mountain,hill,rock,... ","adminCodes1":{"ISO3166_2":"WA"},"countryName":"United States","fcodeName":"mountain","adminName1":"Washington","lat":"48.7721","fcode":"MT"},{"adminCode1":"WA","lng":"-118.46833","geonameId":5815883,"toponymName":"Whitestone Ridge","countryId":"6252001","fcl":"T","population":0,"countryCode":"US","name":"Whitestone Ridge","fclName":"mountain,hill,rock,... ","adminCodes1":{"ISO3166_2":"WA"},"countryName":"United States","fcodeName":"ridge(s)","adminName1":"Washington","lat":"47.9446","fcode":"RDGE"},{"adminCode1":"WA","lng":"-118.54445","geonameId":5815884,"toponymName":"Whitestone Rock","countryId":"6252001","population":0,"countryCode":"US","name":"Whitestone Rock","fclName":"n/a","adminCodes1":{"ISO3166_2":"WA"},"countryName":"United States","fcodeName":"","adminName1":"Washington","lat":"47.89543"},{"adminCode1":"WA","lng":"-119.49007","geonameId":5815914,"toponymName":"Whitestone Flats","countryId":"6252001","fcl":"T","population":0,"countryCode":"US","name":"Whitestone Flats","fclName":"mountain,hill,rock,... ","adminCodes1":{"ISO3166_2":"WA"},"countryName":"United States","fcodeName":"plain(s)","adminName1":"Washington","lat":"48.79099","fcode":"PLN"},{"adminCode1":"CT","lng":"-71.88118","geonameId":4845662,"toponymName":"Whetstone Brook","countryId":"6252001","fcl":"H","population":0,"countryCode":"US","name":"Whetstone Brook","fclName":"stream, lake, ...","adminCodes1":{"ISO3166_2":"CT"},"countryName":"United States","fcodeName":"stream","adminName1":"Connecticut","lat":"41.83343","fcode":"STM"},{"adminCode1":"KY","lng":"-86.54007","geonameId":4313349,"toponymName":"Whitestone Quarry Baptist Church","countryId":"6252001","fcl":"S","population":0,"countryCode":"US","name":"Whitestone Quarry Baptist Church","fclName":"spot, building, farm","adminCodes1":{"ISO3166_2":"KY"},"countryName":"United States","fcodeName":"church","adminName1":"Kentucky","lat":"36.97816","fcode":"CH"},{"adminCode1":"ND","lng":"-97.68037","geonameId":5062506,"toponymName":"Whitestone Hills","countryId":"6252001","fcl":"T","population":0,"countryCode":"US","name":"Whitestone Hills","fclName":"mountain,hill,rock,... ","adminCodes1":{"ISO3166_2":"ND"},"countryName":"United States","fcodeName":"mountains","adminName1":"North Dakota","lat":"46.26663","fcode":"MTS"},{"adminCode1":"NY","lng":"-73.81986","geonameId":5144402,"toponymName":"Whitestone Point","countryId":"6252001","fcl":"T","population":0,"countryCode":"US","name":"Whitestone Point","fclName":"mountain,hill,rock,... ","adminCodes1":{"ISO3166_2":"NY"},"countryName":"United States","fcodeName":"cape","adminName1":"New York","lat":"40.80066","fcode":"CAPE"},{"adminCode1":"MS","lng":"-90.83788","geonameId":4439855,"toponymName":"Old Whitestone Church","countryId":"6252001","fcl":"S","population":0,"countryCode":"US","name":"Old Whitestone Church","fclName":"spot, building, farm","adminCodes1":{"ISO3166_2":"MS"},"countryName":"United States","fcodeName":"church","adminName1":"Mississippi","lat":"33.49317","fcode":"CH"},{"adminCode1":"VA","lng":"-76.39161","geonameId":4793436,"toponymName":"White Stone Wharf","countryId":"6252001","fcl":"S","population":0,"countryCode":"US","name":"White Stone Wharf","fclName":"spot, building, farm","adminCodes1":{"ISO3166_2":"VA"},"countryName":"United States","fcodeName":"wharf(-ves)","adminName1":"Virginia","lat":"37.63014","fcode":"WHRF"},{"adminCode1":"OH","lng":"-83.29548","geonameId":5153179,"toponymName":"Elmore Post Office","countryId":"6252001","fcl":"S","population":0,"countryCode":"US","name":"Elmore Post Office","fclName":"spot, building, farm","adminCodes1":{"ISO3166_2":"OH"},"countryName":"United States","fcodeName":"post office","adminName1":"Ohio","lat":"41.47505","fcode":"PO"},{"adminCode1":"MD","lng":"-76.66775","geonameId":4373535,"toponymName":"Whitestone Baptist Church","countryId":"6252001","fcl":"S","population":0,"countryCode":"US","name":"Whitestone Baptist Church","fclName":"spot, building, farm","adminCodes1":{"ISO3166_2":"MD"},"countryName":"United States","fcodeName":"church","adminName1":"Maryland","lat":"39.30566","fcode":"CH"},{"adminCode1":"AK","lng":"-135.08972","geonameId":5558480,"toponymName":"Whitestone Harbor","countryId":"6252001","fcl":"H","population":0,"countryCode":"US","name":"Whitestone Harbor","fclName":"stream, lake, ...","adminCodes1":{"ISO3166_2":"AK"},"countryName":"United States","fcodeName":"bay","adminName1":"Alaska","lat":"58.06667","fcode":"BAY"},{"adminCode1":"GA","lng":"-84.51296","geonameId":8115663,"toponymName":"Whitestone Baptist Church Cemetery","countryId":"6252001","fcl":"S","population":0,"countryCode":"US","name":"Whitestone Baptist Church Cemetery","fclName":"spot, building, farm","adminCodes1":{"ISO3166_2":"GA"},"countryName":"United States","fcodeName":"cemetery","adminName1":"Georgia","lat":"34.56248","fcode":"CMTY"},{"adminCode1":"AK","lng":"-166.12954","geonameId":5878010,"toponymName":"Whitestone Creek","countryId":"6252001","fcl":"H","population":0,"countryCode":"US","name":"Whitestone Creek","fclName":"stream, lake, ...","adminCodes1":{"ISO3166_2":"AK"},"countryName":"United States","fcodeName":"stream","adminName1":"Alaska","lat":"65.08588","fcode":"STM"},{"adminCode1":"TX","lng":"-97.86724","geonameId":7316422,"toponymName":"Whitestone Elementary School","countryId":"6252001","fcl":"S","population":0,"countryCode":"US","name":"Whitestone Elementary School","fclName":"spot, building, farm","adminCodes1":{"ISO3166_2":"TX"},"countryName":"United States","fcodeName":"school","adminName1":"Texas","lat":"30.54634","fcode":"SCH"},{"adminCode1":"KS","lng":"-97.43019","geonameId":8120153,"toponymName":"Whitestone Mennonite Church","countryId":"6252001","fcl":"S","population":0,"countryCode":"US","name":"Whitestone Mennonite Church","fclName":"spot, building, farm","adminCodes1":{"ISO3166_2":"KS"},"countryName":"United States","fcodeName":"church","adminName1":"Kansas","lat":"38.14584","fcode":"CH"},{"adminCode1":"MS","lng":"-90.83288","geonameId":4438708,"toponymName":"New Whitestone Church (historical)","countryId":"6252001","fcl":"S","population":0,"countryCode":"US","name":"New Whitestone Church (historical)","fclName":"spot, building, farm","adminCodes1":{"ISO3166_2":"MS"},"countryName":"United States","fcodeName":"church","adminName1":"Mississippi","lat":"33.50289","fcode":"CH"},{"adminCode1":"TX","lng":"-97.84168","geonameId":4741686,"toponymName":"Whitestone Assembly of God Church","countryId":"6252001","fcl":"S","population":0,"countryCode":"US","name":"Whitestone Assembly of God Church","fclName":"spot, building, farm","adminCodes1":{"ISO3166_2":"TX"},"countryName":"United States","fcodeName":"church","adminName1":"Texas","lat":"30.51714","fcode":"CH"},{"adminCode1":"TX","lng":"-97.88974","geonameId":4741687,"toponymName":"Whitestone Elementary School","countryId":"6252001","fcl":"S","population":0,"countryCode":"US","name":"Whitestone Elementary School","fclName":"spot, building, farm","adminCodes1":{"ISO3166_2":"TX"},"countryName":"United States","fcodeName":"school","adminName1":"Texas","lat":"30.5277","fcode":"SCH"},{"adminCode1":"AK","lng":"-135.56052","geonameId":5558479,"toponymName":"Whitestone Cove","countryId":"6252001","fcl":"H","population":0,"countryCode":"US","name":"Whitestone Cove","fclName":"stream, lake, ...","adminCodes1":{"ISO3166_2":"AK"},"countryName":"United States","fcodeName":"bay","adminName1":"Alaska","lat":"57.24729","fcode":"BAY"},{"adminCode1":"AK","lng":"-135.56773","geonameId":5558482,"toponymName":"Whitestone Narrows","countryId":"6252001","fcl":"H","population":0,"countryCode":"US","name":"Whitestone Narrows","fclName":"stream, lake, ...","adminCodes1":{"ISO3166_2":"AK"},"countryName":"United States","fcodeName":"channel","adminName1":"Alaska","lat":"57.24871","fcode":"CHN"},{"adminCode1":"IL","lng":"-87.72033","geonameId":4894572,"toponymName":"Greater Whitestone Missionary Baptist Church","countryId":"6252001","fcl":"S","population":0,"countryCode":"US","name":"Greater Whitestone Missionary Baptist Church","fclName":"spot, building, farm","adminCodes1":{"ISO3166_2":"IL"},"countryName":"United States","fcodeName":"church","adminName1":"Illinois","lat":"41.85225","fcode":"CH"},{"adminCode1":"WA","lng":"-118.54945","geonameId":5815875,"toponymName":"Whitestone Creek","countryId":"6252001","fcl":"H","population":0,"countryCode":"US","name":"Whitestone Creek","fclName":"stream, lake, ...","adminCodes1":{"ISO3166_2":"WA"},"countryName":"United States","fcodeName":"stream","adminName1":"Washington","lat":"47.95571","fcode":"STM"},{"adminCode1":"WA","lng":"-119.79617","geonameId":5815876,"toponymName":"Whitestone Creek","countryId":"6252001","fcl":"H","population":0,"countryCode":"US","name":"Whitestone Creek","fclName":"stream, lake, ...","adminCodes1":{"ISO3166_2":"WA"},"countryName":"United States","fcodeName":"stream","adminName1":"Washington","lat":"48.15515","fcode":"STM"},{"adminCode1":"WA","lng":"-119.40951","geonameId":5815877,"toponymName":"Whitestone Creek","countryId":"6252001","fcl":"H","population":0,"countryCode":"US","name":"Whitestone Creek","fclName":"stream, lake, ...","adminCodes1":{"ISO3166_2":"WA"},"countryName":"United States","fcodeName":"stream","adminName1":"Washington","lat":"48.77404","fcode":"STM"},{"adminCode1":"WA","lng":"-119.56063","geonameId":5815878,"toponymName":"Whitestone Ditch","countryId":"6252001","fcl":"H","population":0,"countryCode":"US","name":"Whitestone Ditch","fclName":"stream, lake, ...","adminCodes1":{"ISO3166_2":"WA"},"countryName":"United States","fcodeName":"canal","adminName1":"Washington","lat":"48.81293","fcode":"CNL"},{"adminCode1":"WA","lng":"-119.47351","geonameId":5815879,"toponymName":"Whitestone Lake","countryId":"6252001","fcl":"H","population":0,"countryCode":"US","name":"Whitestone Lake","fclName":"stream, lake, ...","adminCodes1":{"ISO3166_2":"WA"},"countryName":"United States","fcodeName":"reservoir(s)","adminName1":"Washington","lat":"48.7931","fcode":"RSV"},{"adminCode1":"PA","lng":"-75.33629","geonameId":5219329,"toponymName":"Whitestone Dam","countryId":"6252001","fcl":"S","population":0,"countryCode":"US","name":"Whitestone Dam","fclName":"spot, building, farm","adminCodes1":{"ISO3166_2":"PA"},"countryName":"United States","fcodeName":"dam","adminName1":"Pennsylvania","lat":"41.09703","fcode":"DAM"},{"adminCode1":"ND","lng":"-98.81177","geonameId":5062507,"toponymName":"Whitestone School","countryId":"6252001","fcl":"S","population":0,"countryCode":"US","name":"Whitestone School","fclName":"spot, building, farm","adminCodes1":{"ISO3166_2":"ND"},"countryName":"United States","fcodeName":"school","adminName1":"North Dakota","lat":"46.14136","fcode":"SCH"},{"adminCode1":"ND","lng":"-98.81288","geonameId":5062508,"toponymName":"Whitestone Town Hall","countryId":"6252001","fcl":"S","population":0,"countryCode":"US","name":"Whitestone Town Hall","fclName":"spot, building, farm","adminCodes1":{"ISO3166_2":"ND"},"countryName":"United States","fcodeName":"building(s)","adminName1":"North Dakota","lat":"46.1408","fcode":"BLDG"},{"adminCode1":"NY","lng":"-73.815","geonameId":6343958,"toponymName":"Whitestone Branch Queens Borough Public Library","countryId":"6252001","fcl":"S","population":0,"countryCode":"US","name":"Whitestone Branch Queens Borough Public Library","fclName":"spot, building, farm","adminCodes1":{"ISO3166_2":"NY"},"countryName":"United States","fcodeName":"library","adminName1":"New York","lat":"40.78833","fcode":"LIBR"},{"adminCode1":"NY","lng":"-73.81389","geonameId":6349795,"toponymName":"Whitestone Station Flushing Post Office","countryId":"6252001","fcl":"S","population":0,"countryCode":"US","name":"Whitestone Station Flushing Post Office","fclName":"spot, building, farm","adminCodes1":{"ISO3166_2":"NY"},"countryName":"United States","fcodeName":"post office","adminName1":"New York","lat":"40.78778","fcode":"PO"},{"adminCode1":"NY","lng":"-73.84028","geonameId":7277605,"toponymName":"Whitestone Drive-In (historical)","countryId":"6252001","fcl":"S","population":0,"countryCode":"US","name":"Whitestone Drive-In (historical)","fclName":"spot, building, farm","adminCodes1":{"ISO3166_2":"NY"},"countryName":"United States","fcodeName":"","adminName1":"New York","lat":"40.83083"},{"adminCode1":"NY","lng":"-73.81423","geonameId":8495968,"toponymName":"Whitestone Community Volunteer Ambulance Service","countryId":"6252001","fcl":"S","population":0,"countryCode":"US","name":"Whitestone Community Volunteer Ambulance Service","fclName":"spot, building, farm","adminCodes1":{"ISO3166_2":"NY"},"countryName":"United States","fcodeName":"building(s)","adminName1":"New York","lat":"40.79035","fcode":"BLDG"},{"adminCode1":"SC","lng":"-80.66982","geonameId":4600969,"toponymName":"Whitestone Church","countryId":"6252001","fcl":"S","population":0,"countryCode":"US","name":"Whitestone Church","fclName":"spot, building, farm","adminCodes1":{"ISO3166_2":"SC"},"countryName":"United States","fcodeName":"church","adminName1":"South Carolina","lat":"33.166","fcode":"CH"},{"adminCode1":"SC","lng":"-81.80482","geonameId":4600970,"toponymName":"Whitestone Number One Pond","countryId":"6252001","fcl":"H","population":0,"countryCode":"US","name":"Whitestone Number One Pond","fclName":"stream, lake, ...","adminCodes1":{"ISO3166_2":"SC"},"countryName":"United States","fcodeName":"reservoir(s)","adminName1":"South Carolina","lat":"34.90846","fcode":"RSV"},{"adminCode1":"SC","lng":"-81.80482","geonameId":4600971,"toponymName":"Whitestone Number One Pond Dam D-2783","countryId":"6252001","fcl":"S","population":0,"countryCode":"US","name":"Whitestone Number One Pond Dam D-2783","fclName":"spot, building, farm","adminCodes1":{"ISO3166_2":"SC"},"countryName":"United States","fcodeName":"dam","adminName1":"South Carolina","lat":"34.90846","fcode":"DAM"},{"adminCode1":"SC","lng":"-81.80649","geonameId":4600972,"toponymName":"Whitestone Number Two Pond","countryId":"6252001","fcl":"H","population":0,"countryCode":"US","name":"Whitestone Number Two Pond","fclName":"stream, lake, ...","adminCodes1":{"ISO3166_2":"SC"},"countryName":"United States","fcodeName":"reservoir(s)","adminName1":"South Carolina","lat":"34.90846","fcode":"RSV"},{"adminCode1":"SC","lng":"-81.80649","geonameId":4600973,"toponymName":"Whitestone Number Two Pond Dam D-2784","countryId":"6252001","fcl":"S","population":0,"countryCode":"US","name":"Whitestone Number Two Pond Dam D-2784","fclName":"spot, building, farm","adminCodes1":{"ISO3166_2":"SC"},"countryName":"United States","fcodeName":"dam","adminName1":"South Carolina","lat":"34.90846","fcode":"DAM"},{"adminCode1":"SC","lng":"-81.79455","geonameId":4600974,"toponymName":"Whitestone Spring Branch","countryId":"6252001","fcl":"H","population":0,"countryCode":"US","name":"Whitestone Spring Branch","fclName":"stream, lake, ...","adminCodes1":{"ISO3166_2":"SC"},"countryName":"United States","fcodeName":"stream","adminName1":"South Carolina","lat":"34.85818","fcode":"STM"},{"adminCode1":"SC","lng":"-80.66926","geonameId":4600975,"toponymName":"Whitestone Cemetery","countryId":"6252001","fcl":"S","population":0,"countryCode":"US","name":"Whitestone Cemetery","fclName":"spot, building, farm","adminCodes1":{"ISO3166_2":"SC"},"countryName":"United States","fcodeName":"cemetery","adminName1":"South Carolina","lat":"33.16655","fcode":"CMTY"},{"adminCode1":"NY","lng":"-77.40934","geonameId":8084234,"toponymName":"Whitestone Christian Fellowship","countryId":"6252001","fcl":"S","population":0,"countryCode":"US","name":"Whitestone Christian Fellowship","fclName":"spot, building, farm","adminCodes1":{"ISO3166_2":"NY"},"countryName":"United States","fcodeName":"church","adminName1":"New York","lat":"42.98193","fcode":"CH"},{"adminCode1":"ND","lng":"-97.65287","geonameId":5059507,"toponymName":"Gwinner Cemetery","countryId":"6252001","fcl":"S","population":0,"countryCode":"US","name":"Gwinner Cemetery","fclName":"spot, building, farm","adminCodes1":{"ISO3166_2":"ND"},"countryName":"United States","fcodeName":"cemetery","adminName1":"North Dakota","lat":"46.2108","fcode":"CMTY"},{"adminCode1":"ND","lng":"-98.78649","geonameId":5061060,"toponymName":"Rainbow Ranch","countryId":"6252001","fcl":"S","population":0,"countryCode":"US","name":"Rainbow Ranch","fclName":"spot, building, farm","adminCodes1":{"ISO3166_2":"ND"},"countryName":"United States","fcodeName":"","adminName1":"North Dakota","lat":"46.12303"},{"adminCode1":"NY","lng":"-73.8255","geonameId":6506198,"toponymName":"Esa New York City-Laguardia","countryId":"6252001","fcl":"S","population":0,"countryCode":"US","name":"Esa New York City-Laguardia","fclName":"spot, building, farm","adminCodes1":{"ISO3166_2":"NY"},"countryName":"United States","fcodeName":"hotel","adminName1":"New York","lat":"40.7821","fcode":"HTL"}]}
