{"totalResultsCount":6,"geonames":[{"adminCode1":"WA","lng":"-121.64334","geonameId":5801383,"toponymName":"Little White Salmon National Fish Hatchery","countryId":"6252001","fcl":"L","population":0,"countryCode":"US","name":"Little White Salmon National Fish Hatchery","fclName":"parks,area, ...","adminCodes1":{"ISO3166_2":"WA"},"countryName":"United States","fcodeName":"park","adminName1":"Washington","lat":"45.72031","fcode":"PRK"},{"adminCode1":"WA","lng":"-121.64035","geonameId":5801384,"toponymName":"Little White Salmon River","countryId":"6252001","fcl":"H","population":0,"countryCode":"US","name":"Little White Salmon River","fclName":"stream, lake, ...","adminCodes1":{"ISO3166_2":"WA"},"countryName":"United States","fcodeName":"stream","adminName1":"Washington","lat":"45.72067","fcode":"STM"},{"adminCode1":"WA","lng":"-119.58116","geonameId":5809339,"toponymName":"Salmon Creek","countryId":"6252001","fcl":"H","population":0,"countryCode":"US","name":"Salmon Creek","fclName":"stream, lake, ...","adminCodes1":{"ISO3166_2":"WA"},"countryName":"United States","fcodeName":"stream","adminName1":"Washington","lat":"48.3596","fcode":"STM"},{"adminCode1":"OR","lng":"-121.49523","geonameId":11790706,"toponymName":"Hood River Bridge","countryId":"6252001","fcl":"S","population":0,"countryCode":"US","name":"Hood River Bridge","fclName":"spot, building, farm","adminCodes1":{"ISO3166_2":"OR"},"countryName":"United States","fcodeName":"bridge","adminName1":"Oregon","lat":"45.71745","fcode":"BDG"},{"adminCode1":"WA","lng":"-121.52118","geonameId":5815848,"toponymName":"White Salmon River","countryId":"6252001","fcl":"H","population":0,"countryCode":"US","name":"White Salmon River","fclName":"stream, lake, ...","adminCodes1":{"ISO3166_2":"WA"},"countryName":"United States","fcodeName":"stream","adminName1":"Washington","lat":"45.72873","fcode":"STM"},{"adminCode1":"OR","lng":"-121.65674","geonameId":5737355,"toponymName":"Little White Salmon Range Channel","countryId":"6252001","fcl":"H","population":0,"countryCode":"US","name":"Little White Salmon Range Channel","fclName":"stream, lake, ...","adminCodes1":{"ISO3166_2":"OR"},"countryName":"United States","fcodeName":"channel","adminName1":"Oregon","lat":"45.70262","fcode":"CHN"}]}
