{"totalResultsCount":5,"geonames":[{"adminCode1":"CT","lng":"-72.53094","geonameId":4845942,"toponymName":"Windsorville Pond","countryId":"6252001","fcl":"H","population":0,"countryCode":"US","name":"Windsorville Pond","fclName":"stream, lake, ...","adminCodes1":{"ISO3166_2":"CT"},"countryName":"United States","fcodeName":"lake","adminName1":"Connecticut","lat":"41.88706","fcode":"LK"},{"adminCode1":"CT","lng":"-72.53536","geonameId":4845941,"toponymName":"Windsorville","countryId":"6252001","fcl":"P","population":0,"countryCode":"US","name":"Windsorville","fclName":"city, village,...","adminCodes1":{"ISO3166_2":"CT"},"countryName":"United States","fcodeName":"populated place","adminName1":"Connecticut","lat":"41.89093","fcode":"PPL"},{"adminCode1":"ME","lng":"-69.55115","geonameId":4983290,"toponymName":"Windsorville","countryId":"6252001","fcl":"P","population":0,"countryCode":"US","name":"Windsorville","fclName":"city, village,...","adminCodes1":{"ISO3166_2":"ME"},"countryName":"United States","fcodeName":"populated place","adminName1":"Maine","lat":"44.29952","fcode":"PPL"},{"adminCode1":"ME","lng":"-69.55449","geonameId":4983288,"toponymName":"Windsor Station","countryId":"6252001","fcl":"S","population":0,"countryCode":"US","name":"Windsor Station","fclName":"spot, building, farm","adminCodes1":{"ISO3166_2":"ME"},"countryName":"United States","fcodeName":"","adminName1":"Maine","lat":"44.30618"},{"adminCode1":"CT","lng":"-72.5362","geonameId":4845943,"toponymName":"Windsorville Pond Dam","countryId":"6252001","fcl":"S","population":0,"countryCode":"US","name":"Windsorville Pond Dam","fclName":"spot, building, farm","adminCodes1":{"ISO3166_2":"CT"},"countryName":"United States","fcodeName":"dam","adminName1":"Connecticut","lat":"41.8901","fcode":"DAM"}]}
