{"totalResultsCount":2873,"geonames":[{"adminCode1":"VT","lng":"-72.31926","geonameId":5242889,"toponymName":"White River Junction","countryId":"6252001","fcl":"P","population":2286,"countryCode":"US","name":"White River Junction","fclName":"city, village,...","adminCodes1":{"ISO3166_2":"VT"},"countryName":"United States","fcodeName":"populated place","adminName1":"Vermont","lat":"43.64896","fcode":"PPL"},{"adminCode1":"VT","lng":"-72.58624","geonameId":5243062,"toponymName":"Windsor County","countryId":"6252001","fcl":"A","population":56670,"countryCode":"US","name":"Windsor","fclName":"country, state, region,...","adminCodes1":{"ISO3166_2":"VT"},"countryName":"United States","fcodeName":"second-order administrative division","adminName1":"Vermont","lat":"43.58","fcode":"ADM2"},{"adminCode1":"VT","lng":"-72.38481","geonameId":5243059,"toponymName":"Windsor","countryId":"6252001","fcl":"P","population":2066,"countryCode":"US","name":"Windsor","fclName":"city, village,...","adminCodes1":{"ISO3166_2":"VT"},"countryName":"United States","fcodeName":"populated place","adminName1":"Vermont","lat":"43.48035","fcode":"PPL"},{"adminCode1":"CT","lng":"-72.6437","geonameId":4845920,"toponymName":"Windsor","countryId":"6252001","fcl":"P","population":28778,"countryCode":"US","name":"Windsor","fclName":"city, village,...","adminCodes1":{"ISO3166_2":"CT"},"countryName":"United States","fcodeName":"populated place","adminName1":"Connecticut","lat":"41.8526","fcode":"PPL"},{"adminCode1":"CO","lng":"-104.90136","geonameId":5583509,"toponymName":"Windsor","countryId":"6252001","fcl":"P","population":21751,"countryCode":"US","name":"Windsor","fclName":"city, village,...","adminCodes1":{"ISO3166_2":"CO"},"countryName":"United States","fcodeName":"populated place","adminName1":"Colorado","lat":"40.47748","fcode":"PPL"},{"adminCode1":"VT","lng":"-72.30787","geonameId":5239319,"toponymName":"Norwich","countryId":"6252001","fcl":"P","population":878,"countryCode":"US","name":"Norwich","fclName":"city, village,...","adminCodes1":{"ISO3166_2":"VT"},"countryName":"United States","fcodeName":"populated place","adminName1":"Vermont","lat":"43.71535","fcode":"PPL"},{"adminCode1":"VT","lng":"-72.5137","geonameId":5239727,"toponymName":"Perkinsville","countryId":"6252001","fcl":"P","population":128,"countryCode":"US","name":"Perkinsville","fclName":"city, village,...","adminCodes1":{"ISO3166_2":"VT"},"countryName":"United States","fcodeName":"populated place","adminName1":"Vermont","lat":"43.37368","fcode":"PPL"},{"adminCode1":"VT","lng":"-72.61371","geonameId":5241107,"toponymName":"Silver Lake State Park","countryId":"6252001","fcl":"L","population":0,"countryCode":"US","name":"Silver Lake State Park","fclName":"parks,area, ...","adminCodes1":{"ISO3166_2":"VT"},"countryName":"United States","fcodeName":"park","adminName1":"Vermont","lat":"43.73285","fcode":"PRK"},{"adminCode1":"VT","lng":"-72.48231","geonameId":5241423,"toponymName":"Springfield","countryId":"6252001","fcl":"P","population":3979,"countryCode":"US","name":"Springfield","fclName":"city, village,...","adminCodes1":{"ISO3166_2":"VT"},"countryName":"United States","fcodeName":"populated place","adminName1":"Vermont","lat":"43.29841","fcode":"PPL"},{"adminCode1":"VT","lng":"-72.65829","geonameId":5242895,"toponymName":"White River National Fish Hatchery","countryId":"6252001","fcl":"L","population":0,"countryCode":"US","name":"White River National Fish Hatchery","fclName":"parks,area, ...","adminCodes1":{"ISO3166_2":"VT"},"countryName":"United States","fcodeName":"park","adminName1":"Vermont","lat":"43.81008","fcode":"PRK"},{"adminCode1":"VT","lng":"-72.3087","geonameId":5242952,"toponymName":"Wilder","countryId":"6252001","fcl":"P","population":1690,"countryCode":"US","name":"Wilder","fclName":"city, village,...","adminCodes1":{"ISO3166_2":"VT"},"countryName":"United States","fcodeName":"populated place","adminName1":"Vermont","lat":"43.67285","fcode":"PPL"},{"adminCode1":"VT","lng":"-72.72204","geonameId":5234494,"toponymName":"Calvin Coolidge Homestead District","countryId":"6252001","fcl":"L","population":0,"countryCode":"US","name":"Calvin Coolidge Homestead District","fclName":"parks,area, ...","adminCodes1":{"ISO3166_2":"VT"},"countryName":"United States","fcodeName":"park","adminName1":"Vermont","lat":"43.53563","fcode":"PRK"},{"adminCode1":"VT","lng":"-72.60815","geonameId":5234679,"toponymName":"Cavendish","countryId":"6252001","fcl":"P","population":179,"countryCode":"US","name":"Cavendish","fclName":"city, village,...","adminCodes1":{"ISO3166_2":"VT"},"countryName":"United States","fcodeName":"populated place","adminName1":"Vermont","lat":"43.38202","fcode":"PPL"},{"adminCode1":"VT","lng":"-72.39898","geonameId":5236867,"toponymName":"Hartland","countryId":"6252001","fcl":"P","population":380,"countryCode":"US","name":"Hartland","fclName":"city, village,...","adminCodes1":{"ISO3166_2":"VT"},"countryName":"United States","fcodeName":"populated place","adminName1":"Vermont","lat":"43.54063","fcode":"PPL"},{"adminCode1":"VT","lng":"-72.33842","geonameId":5236879,"toponymName":"Hartford","countryId":"6252001","fcl":"P","population":9779,"countryCode":"US","name":"Hartford","fclName":"city, village,...","adminCodes1":{"ISO3166_2":"VT"},"countryName":"United States","fcodeName":"populated place","adminName1":"Vermont","lat":"43.66063","fcode":"PPL"},{"adminCode1":"VT","lng":"-72.53477","geonameId":5238345,"toponymName":"Marsh-Billings-Rockefeller National Historical Park","countryId":"6252001","fcl":"L","population":0,"countryCode":"US","name":"Marsh-Billings-Rockefeller National Historical Park","fclName":"parks,area, ...","adminCodes1":{"ISO3166_2":"VT"},"countryName":"United States","fcodeName":"park","adminName1":"Vermont","lat":"43.63342","fcode":"PRK"},{"adminCode1":"VT","lng":"-72.51843","geonameId":5243145,"toponymName":"Woodstock","countryId":"6252001","fcl":"P","population":871,"countryCode":"US","name":"Woodstock","fclName":"city, village,...","adminCodes1":{"ISO3166_2":"VT"},"countryName":"United States","fcodeName":"seat of a second-order administrative division","adminName1":"Vermont","lat":"43.62424","fcode":"PPLA2"},{"adminCode1":"CT","lng":"-72.62731","geonameId":4845926,"toponymName":"Windsor Locks","countryId":"6252001","fcl":"P","population":12498,"countryCode":"US","name":"Windsor Locks","fclName":"city, village,...","adminCodes1":{"ISO3166_2":"CT"},"countryName":"United States","fcodeName":"populated place","adminName1":"Connecticut","lat":"41.92926","fcode":"PPL"},{"adminCode1":"VT","lng":"-72.4537","geonameId":5233309,"toponymName":"Mount Ascutney","countryId":"6252001","fcl":"T","population":0,"countryCode":"US","name":"Mount Ascutney","fclName":"mountain,hill,rock,... ","adminCodes1":{"ISO3166_2":"VT"},"countryName":"United States","fcodeName":"mountain","adminName1":"Vermont","lat":"43.44452","fcode":"MT"},{"adminCode1":"VT","lng":"-72.47092","geonameId":5234282,"toponymName":"Brownsville","countryId":"6252001","fcl":"P","population":0,"countryCode":"US","name":"Brownsville","fclName":"city, village,...","adminCodes1":{"ISO3166_2":"VT"},"countryName":"United States","fcodeName":"populated place","adminName1":"Vermont","lat":"43.46868","fcode":"PPL"},{"adminCode1":"CA","lng":"-122.81638","geonameId":5410004,"toponymName":"Windsor","countryId":"6252001","fcl":"P","population":27464,"countryCode":"US","name":"Windsor","fclName":"city, village,...","adminCodes1":{"ISO3166_2":"CA"},"countryName":"United States","fcodeName":"populated place","adminName1":"California","lat":"38.54713","fcode":"PPL"},{"adminCode1":"VT","lng":"-72.70453","geonameId":5233250,"toponymName":"Amherst Lake","countryId":"6252001","fcl":"H","population":0,"countryCode":"US","name":"Amherst Lake","fclName":"stream, lake, ...","adminCodes1":{"ISO3166_2":"VT"},"countryName":"United States","fcodeName":"lake","adminName1":"Vermont","lat":"43.48636","fcode":"LK"},{"adminCode1":"VT","lng":"-72.40703","geonameId":5233303,"toponymName":"Ascutney","countryId":"6252001","fcl":"P","population":540,"countryCode":"US","name":"Ascutney","fclName":"city, village,...","adminCodes1":{"ISO3166_2":"VT"},"countryName":"United States","fcodeName":"populated place","adminName1":"Vermont","lat":"43.40702","fcode":"PPL"},{"adminCode1":"VT","lng":"-72.61899","geonameId":5233470,"toponymName":"Barnard","countryId":"6252001","fcl":"P","population":0,"countryCode":"US","name":"Barnard","fclName":"city, village,...","adminCodes1":{"ISO3166_2":"VT"},"countryName":"United States","fcodeName":"populated place","adminName1":"Vermont","lat":"43.72868","fcode":"PPL"},{"adminCode1":"VT","lng":"-72.63399","geonameId":5233794,"toponymName":"Bethel","countryId":"6252001","fcl":"P","population":569,"countryCode":"US","name":"Bethel","fclName":"city, village,...","adminCodes1":{"ISO3166_2":"VT"},"countryName":"United States","fcodeName":"populated place","adminName1":"Vermont","lat":"43.8334","fcode":"PPL"},{"adminCode1":"VT","lng":"-72.35176","geonameId":5239183,"toponymName":"North Hartland","countryId":"6252001","fcl":"P","population":302,"countryCode":"US","name":"North Hartland","fclName":"city, village,...","adminCodes1":{"ISO3166_2":"VT"},"countryName":"United States","fcodeName":"populated place","adminName1":"Vermont","lat":"43.59285","fcode":"PPL"},{"adminCode1":"VT","lng":"-72.47982","geonameId":5239220,"toponymName":"North Pomfret","countryId":"6252001","fcl":"P","population":0,"countryCode":"US","name":"North Pomfret","fclName":"city, village,...","adminCodes1":{"ISO3166_2":"VT"},"countryName":"United States","fcodeName":"populated place","adminName1":"Vermont","lat":"43.72285","fcode":"PPL"},{"adminCode1":"VT","lng":"-72.52537","geonameId":5239244,"toponymName":"North Springfield","countryId":"6252001","fcl":"P","population":573,"countryCode":"US","name":"North Springfield","fclName":"city, village,...","adminCodes1":{"ISO3166_2":"VT"},"countryName":"United States","fcodeName":"populated place","adminName1":"Vermont","lat":"43.33285","fcode":"PPL"},{"adminCode1":"VT","lng":"-72.72149","geonameId":5239903,"toponymName":"Plymouth","countryId":"6252001","fcl":"P","population":0,"countryCode":"US","name":"Plymouth","fclName":"city, village,...","adminCodes1":{"ISO3166_2":"VT"},"countryName":"United States","fcodeName":"populated place","adminName1":"Vermont","lat":"43.5359","fcode":"PPL"},{"adminCode1":"VT","lng":"-72.63843","geonameId":5240030,"toponymName":"Proctorsville","countryId":"6252001","fcl":"P","population":454,"countryCode":"US","name":"Proctorsville","fclName":"city, village,...","adminCodes1":{"ISO3166_2":"VT"},"countryName":"United States","fcodeName":"populated place","adminName1":"Vermont","lat":"43.38229","fcode":"PPL"},{"adminCode1":"VT","lng":"-72.41843","geonameId":5240108,"toponymName":"Quechee","countryId":"6252001","fcl":"P","population":656,"countryCode":"US","name":"Quechee","fclName":"city, village,...","adminCodes1":{"ISO3166_2":"VT"},"countryName":"United States","fcodeName":"populated place","adminName1":"Vermont","lat":"43.64618","fcode":"PPL"},{"adminCode1":"VT","lng":"-72.80788","geonameId":5240382,"toponymName":"Rochester","countryId":"6252001","fcl":"P","population":299,"countryCode":"US","name":"Rochester","fclName":"city, village,...","adminCodes1":{"ISO3166_2":"VT"},"countryName":"United States","fcodeName":"populated place","adminName1":"Vermont","lat":"43.87451","fcode":"PPL"},{"adminCode1":"VT","lng":"-72.74871","geonameId":5240455,"toponymName":"Plymouth Notch Ski Area","countryId":"6252001","fcl":"L","population":0,"countryCode":"US","name":"Plymouth Notch Ski Area","fclName":"parks,area, ...","adminCodes1":{"ISO3166_2":"VT"},"countryName":"United States","fcodeName":"area","adminName1":"Vermont","lat":"43.53396","fcode":"AREA"},{"adminCode1":"VT","lng":"-72.45426","geonameId":5240980,"toponymName":"Sharon","countryId":"6252001","fcl":"P","population":0,"countryCode":"US","name":"Sharon","fclName":"city, village,...","adminCodes1":{"ISO3166_2":"VT"},"countryName":"United States","fcodeName":"populated place","adminName1":"Vermont","lat":"43.78451","fcode":"PPL"},{"adminCode1":"VT","lng":"-72.52121","geonameId":5241330,"toponymName":"South Royalton","countryId":"6252001","fcl":"P","population":694,"countryCode":"US","name":"South Royalton","fclName":"city, village,...","adminCodes1":{"ISO3166_2":"VT"},"countryName":"United States","fcodeName":"populated place","adminName1":"Vermont","lat":"43.8209","fcode":"PPL"},{"adminCode1":"VT","lng":"-72.53232","geonameId":5241376,"toponymName":"South Woodstock","countryId":"6252001","fcl":"P","population":0,"countryCode":"US","name":"South Woodstock","fclName":"city, village,...","adminCodes1":{"ISO3166_2":"VT"},"countryName":"United States","fcodeName":"populated place","adminName1":"Vermont","lat":"43.56563","fcode":"PPL"},{"adminCode1":"VT","lng":"-72.75371","geonameId":5241579,"toponymName":"Stockbridge","countryId":"6252001","fcl":"P","population":0,"countryCode":"US","name":"Stockbridge","fclName":"city, village,...","adminCodes1":{"ISO3166_2":"VT"},"countryName":"United States","fcodeName":"populated place","adminName1":"Vermont","lat":"43.78618","fcode":"PPL"},{"adminCode1":"VT","lng":"-72.41759","geonameId":5242708,"toponymName":"West Hartford","countryId":"6252001","fcl":"P","population":0,"countryCode":"US","name":"West Hartford","fclName":"city, village,...","adminCodes1":{"ISO3166_2":"VT"},"countryName":"United States","fcodeName":"populated place","adminName1":"Vermont","lat":"43.71229","fcode":"PPL"},{"adminCode1":"VT","lng":"-72.79315","geonameId":5242821,"toponymName":"Weston","countryId":"6252001","fcl":"P","population":570,"countryCode":"US","name":"Weston","fclName":"city, village,...","adminCodes1":{"ISO3166_2":"VT"},"countryName":"United States","fcodeName":"populated place","adminName1":"Vermont","lat":"43.29119","fcode":"PPL"},{"adminCode1":"VT","lng":"-72.6251","geonameId":5234153,"toponymName":"Bridgewater","countryId":"6252001","fcl":"P","population":0,"countryCode":"US","name":"Bridgewater","fclName":"city, village,...","adminCodes1":{"ISO3166_2":"VT"},"countryName":"United States","fcodeName":"populated place","adminName1":"Vermont","lat":"43.58812","fcode":"PPL"},{"adminCode1":"VT","lng":"-72.59509","geonameId":5234827,"toponymName":"Chester","countryId":"6252001","fcl":"P","population":2994,"countryCode":"US","name":"Chester","fclName":"city, village,...","adminCodes1":{"ISO3166_2":"VT"},"countryName":"United States","fcodeName":"populated place","adminName1":"Vermont","lat":"43.26285","fcode":"PPL"},{"adminCode1":"VT","lng":"-72.69899","geonameId":5236365,"toponymName":"Gaysville","countryId":"6252001","fcl":"P","population":0,"countryCode":"US","name":"Gaysville","fclName":"city, village,...","adminCodes1":{"ISO3166_2":"VT"},"countryName":"United States","fcodeName":"populated place","adminName1":"Vermont","lat":"43.7784","fcode":"PPL"},{"adminCode1":"VT","lng":"-72.42454","geonameId":5236870,"toponymName":"Hartland Four Corners","countryId":"6252001","fcl":"P","population":0,"countryCode":"US","name":"Hartland Four Corners","fclName":"city, village,...","adminCodes1":{"ISO3166_2":"VT"},"countryName":"United States","fcodeName":"populated place","adminName1":"Vermont","lat":"43.54646","fcode":"PPL"},{"adminCode1":"VT","lng":"-72.70065","geonameId":5238156,"toponymName":"Ludlow","countryId":"6252001","fcl":"P","population":794,"countryCode":"US","name":"Ludlow","fclName":"city, village,...","adminCodes1":{"ISO3166_2":"VT"},"countryName":"United States","fcodeName":"populated place","adminName1":"Vermont","lat":"43.39591","fcode":"PPL"},{"adminCode1":"CT","lng":"-72.68782","geonameId":5282636,"toponymName":"Bradley International Airport","countryId":"6252001","fcl":"S","population":0,"countryCode":"US","name":"Bradley International Airport","fclName":"spot, building, farm","adminCodes1":{"ISO3166_2":"CT"},"countryName":"United States","fcodeName":"airport","adminName1":"Connecticut","lat":"41.93798","fcode":"AIRP"},{"adminCode1":"MO","lng":"-93.52215","geonameId":4415076,"toponymName":"Windsor","countryId":"6252001","fcl":"P","population":2808,"countryCode":"US","name":"Windsor","fclName":"city, village,...","adminCodes1":{"ISO3166_2":"MO"},"countryName":"United States","fcodeName":"populated place","adminName1":"Missouri","lat":"38.53224","fcode":"PPL"},{"adminCode1":"ME","lng":"-69.5806","geonameId":4983283,"toponymName":"Windsor","countryId":"6252001","fcl":"P","population":2291,"countryCode":"US","name":"Windsor","fclName":"city, village,...","adminCodes1":{"ISO3166_2":"ME"},"countryName":"United States","fcodeName":"populated place","adminName1":"Maine","lat":"44.31063","fcode":"PPL"},{"adminCode1":"VT","lng":"-72.53121","geonameId":5233254,"toponymName":"Amity Pond Natural Area","countryId":"6252001","fcl":"L","population":0,"countryCode":"US","name":"Amity Pond Natural Area","fclName":"parks,area, ...","adminCodes1":{"ISO3166_2":"VT"},"countryName":"United States","fcodeName":"park","adminName1":"Vermont","lat":"43.72868","fcode":"PRK"},{"adminCode1":"VT","lng":"-72.69676","geonameId":5233260,"toponymName":"Andover","countryId":"6252001","fcl":"P","population":0,"countryCode":"US","name":"Andover","fclName":"city, village,...","adminCodes1":{"ISO3166_2":"VT"},"countryName":"United States","fcodeName":"populated place","adminName1":"Vermont","lat":"43.2773","fcode":"PPL"},{"adminCode1":"VT","lng":"-72.57315","geonameId":5233435,"toponymName":"Baltimore","countryId":"6252001","fcl":"P","population":0,"countryCode":"US","name":"Baltimore","fclName":"city, village,...","adminCodes1":{"ISO3166_2":"VT"},"countryName":"United States","fcodeName":"populated place","adminName1":"Vermont","lat":"43.36035","fcode":"PPL"},{"adminCode1":"VT","lng":"-72.51482","geonameId":5233842,"toponymName":"Billings Farm Museum","countryId":"6252001","fcl":"L","population":0,"countryCode":"US","name":"Billings Farm Museum","fclName":"parks,area, ...","adminCodes1":{"ISO3166_2":"VT"},"countryName":"United States","fcodeName":"park","adminName1":"Vermont","lat":"43.63174","fcode":"PRK"},{"adminCode1":"VT","lng":"-72.39815","geonameId":5238575,"toponymName":"Mill Pond","countryId":"6252001","fcl":"H","population":0,"countryCode":"US","name":"Mill Pond","fclName":"stream, lake, ...","adminCodes1":{"ISO3166_2":"VT"},"countryName":"United States","fcodeName":"lake","adminName1":"Vermont","lat":"43.47257","fcode":"LK"},{"adminCode1":"VT","lng":"-72.7301","geonameId":5239907,"toponymName":"Plymouth Notch","countryId":"6252001","fcl":"T","population":0,"countryCode":"US","name":"Plymouth Notch","fclName":"mountain,hill,rock,... ","adminCodes1":{"ISO3166_2":"VT"},"countryName":"United States","fcodeName":"gap","adminName1":"Vermont","lat":"43.53396","fcode":"GAP"},{"adminCode1":"VT","lng":"-72.71871","geonameId":5239909,"toponymName":"Plymouth Notch Historic District","countryId":"6252001","fcl":"L","population":0,"countryCode":"US","name":"Plymouth Notch Historic District","fclName":"parks,area, ...","adminCodes1":{"ISO3166_2":"VT"},"countryName":"United States","fcodeName":"park","adminName1":"Vermont","lat":"43.5359","fcode":"PRK"},{"adminCode1":"VT","lng":"-72.51593","geonameId":5239928,"toponymName":"Pomfret","countryId":"6252001","fcl":"P","population":0,"countryCode":"US","name":"Pomfret","fclName":"city, village,...","adminCodes1":{"ISO3166_2":"VT"},"countryName":"United States","fcodeName":"populated place","adminName1":"Vermont","lat":"43.70479","fcode":"PPL"},{"adminCode1":"VT","lng":"-72.54565","geonameId":5240475,"toponymName":"Royalton","countryId":"6252001","fcl":"P","population":0,"countryCode":"US","name":"Royalton","fclName":"city, village,...","adminCodes1":{"ISO3166_2":"VT"},"countryName":"United States","fcodeName":"populated place","adminName1":"Vermont","lat":"43.8159","fcode":"PPL"},{"adminCode1":"VT","lng":"-72.41898","geonameId":5241143,"toponymName":"Skitchewaug Mountain","countryId":"6252001","fcl":"T","population":0,"countryCode":"US","name":"Skitchewaug Mountain","fclName":"mountain,hill,rock,... ","adminCodes1":{"ISO3166_2":"VT"},"countryName":"United States","fcodeName":"mountain","adminName1":"Vermont","lat":"43.27813","fcode":"MT"},{"adminCode1":"VT","lng":"-72.46898","geonameId":5241810,"toponymName":"Taftsville","countryId":"6252001","fcl":"P","population":0,"countryCode":"US","name":"Taftsville","fclName":"city, village,...","adminCodes1":{"ISO3166_2":"VT"},"countryName":"United States","fcodeName":"populated place","adminName1":"Vermont","lat":"43.63063","fcode":"PPL"},{"adminCode1":"VT","lng":"-72.74343","geonameId":5241863,"toponymName":"Terrible Mountain","countryId":"6252001","fcl":"T","population":0,"countryCode":"US","name":"Terrible Mountain","fclName":"mountain,hill,rock,... ","adminCodes1":{"ISO3166_2":"VT"},"countryName":"United States","fcodeName":"mountain","adminName1":"Vermont","lat":"43.31341","fcode":"MT"},{"adminCode1":"VT","lng":"-72.53009","geonameId":5241992,"toponymName":"Mount Tom","countryId":"6252001","fcl":"T","population":0,"countryCode":"US","name":"Mount Tom","fclName":"mountain,hill,rock,... ","adminCodes1":{"ISO3166_2":"VT"},"countryName":"United States","fcodeName":"mountain","adminName1":"Vermont","lat":"43.63007","fcode":"MT"},{"adminCode1":"VT","lng":"-72.40787","geonameId":5242963,"toponymName":"Wilgus State Park","countryId":"6252001","fcl":"L","population":0,"countryCode":"US","name":"Wilgus State Park","fclName":"parks,area, ...","adminCodes1":{"ISO3166_2":"VT"},"countryName":"United States","fcodeName":"park","adminName1":"Vermont","lat":"43.39091","fcode":"PRK"},{"adminCode1":"VT","lng":"-72.70038","geonameId":5235146,"toponymName":"Coolidge State Park","countryId":"6252001","fcl":"L","population":0,"countryCode":"US","name":"Coolidge State Park","fclName":"parks,area, ...","adminCodes1":{"ISO3166_2":"VT"},"countryName":"United States","fcodeName":"park","adminName1":"Vermont","lat":"43.55313","fcode":"PRK"},{"adminCode1":"VT","lng":"-72.70073","geonameId":5235815,"toponymName":"Echo Lake","countryId":"6252001","fcl":"H","population":0,"countryCode":"US","name":"Echo Lake","fclName":"stream, lake, ...","adminCodes1":{"ISO3166_2":"VT"},"countryName":"United States","fcodeName":"lake","adminName1":"Vermont","lat":"43.47382","fcode":"LK"},{"adminCode1":"VT","lng":"-72.51426","geonameId":5235932,"toponymName":"Mount Ephraim","countryId":"6252001","fcl":"T","population":0,"countryCode":"US","name":"Mount Ephraim","fclName":"mountain,hill,rock,... ","adminCodes1":{"ISO3166_2":"VT"},"countryName":"United States","fcodeName":"mountain","adminName1":"Vermont","lat":"43.25119","fcode":"MT"},{"adminCode1":"VT","lng":"-72.53787","geonameId":5236096,"toponymName":"Felchville","countryId":"6252001","fcl":"P","population":0,"countryCode":"US","name":"Felchville","fclName":"city, village,...","adminCodes1":{"ISO3166_2":"VT"},"countryName":"United States","fcodeName":"populated place","adminName1":"Vermont","lat":"43.45646","fcode":"PPL"},{"adminCode1":"VT","lng":"-72.35204","geonameId":5236401,"toponymName":"Gile Mountain","countryId":"6252001","fcl":"T","population":0,"countryCode":"US","name":"Gile Mountain","fclName":"mountain,hill,rock,... ","adminCodes1":{"ISO3166_2":"VT"},"countryName":"United States","fcodeName":"mountain","adminName1":"Vermont","lat":"43.78924","fcode":"MT"},{"adminCode1":"VT","lng":"-72.96706","geonameId":5237172,"toponymName":"Mount Horrid","countryId":"6252001","fcl":"T","population":0,"countryCode":"US","name":"Mount Horrid","fclName":"mountain,hill,rock,... ","adminCodes1":{"ISO3166_2":"VT"},"countryName":"United States","fcodeName":"mountain","adminName1":"Vermont","lat":"43.85034","fcode":"MT"},{"adminCode1":"VT","lng":"-72.30009","geonameId":5237934,"toponymName":"Lewiston","countryId":"6252001","fcl":"P","population":0,"countryCode":"US","name":"Lewiston","fclName":"city, village,...","adminCodes1":{"ISO3166_2":"VT"},"countryName":"United States","fcodeName":"populated place","adminName1":"Vermont","lat":"43.70396","fcode":"PPL"},{"adminCode1":"VT","lng":"-72.25567","geonameId":5237953,"toponymName":"Lily Pond","countryId":"6252001","fcl":"H","population":0,"countryCode":"US","name":"Lily Pond","fclName":"stream, lake, ...","adminCodes1":{"ISO3166_2":"VT"},"countryName":"United States","fcodeName":"lake","adminName1":"Vermont","lat":"43.74232","fcode":"LK"},{"adminCode1":"IL","lng":"-88.59478","geonameId":4253280,"toponymName":"Windsor","countryId":"6252001","fcl":"P","population":1162,"countryCode":"US","name":"Windsor","fclName":"city, village,...","adminCodes1":{"ISO3166_2":"IL"},"countryName":"United States","fcodeName":"populated place","adminName1":"Illinois","lat":"39.44087","fcode":"PPL"},{"adminCode1":"CT","lng":"-72.6212","geonameId":4843353,"toponymName":"South Windsor","countryId":"6252001","fcl":"P","population":24412,"countryCode":"US","name":"South Windsor","fclName":"city, village,...","adminCodes1":{"ISO3166_2":"CT"},"countryName":"United States","fcodeName":"populated place","adminName1":"Connecticut","lat":"41.82371","fcode":"PPL"},{"adminCode1":"VT","lng":"-72.42105","geonameId":5243070,"toponymName":"Town of Windsor","countryId":"6252001","fcl":"A","population":3464,"countryCode":"US","name":"Town of Windsor","fclName":"country, state, region,...","adminCodes1":{"ISO3166_2":"VT"},"countryName":"United States","fcodeName":"third-order administrative division","adminName1":"Vermont","lat":"43.477","fcode":"ADM3"},{"adminCode1":"CT","lng":"-72.54509","geonameId":5282868,"toponymName":"East Windsor","countryId":"6252001","fcl":"P","population":4069,"countryCode":"US","name":"Broad Brook","fclName":"city, village,...","adminCodes1":{"ISO3166_2":"CT"},"countryName":"United States","fcodeName":"populated place","adminName1":"Connecticut","lat":"41.91232","fcode":"PPL"},{"adminCode1":"NY","lng":"-74.02375","geonameId":5128577,"toponymName":"New Windsor","countryId":"6252001","fcl":"P","population":8922,"countryCode":"US","name":"New Windsor","fclName":"city, village,...","adminCodes1":{"ISO3166_2":"NY"},"countryName":"United States","fcodeName":"populated place","adminName1":"New York","lat":"41.47676","fcode":"PPL"},{"adminCode1":"OH","lng":"-80.93426","geonameId":5177096,"toponymName":"Windsor","countryId":"6252001","fcl":"P","population":0,"countryCode":"US","name":"Windsor","fclName":"city, village,...","adminCodes1":{"ISO3166_2":"OH"},"countryName":"United States","fcodeName":"populated place","adminName1":"Ohio","lat":"41.53505","fcode":"PPL"},{"adminCode1":"VT","lng":"-72.49189","geonameId":5242794,"toponymName":"Town of West Windsor","countryId":"6252001","fcl":"A","population":1084,"countryCode":"US","name":"Town of West Windsor","fclName":"country, state, region,...","adminCodes1":{"ISO3166_2":"VT"},"countryName":"United States","fcodeName":"third-order administrative division","adminName1":"Vermont","lat":"43.48493","fcode":"ADM3"},{"adminCode1":"MA","lng":"-73.05788","geonameId":4955914,"toponymName":"Windsor","countryId":"6252001","fcl":"P","population":890,"countryCode":"US","name":"Windsor","fclName":"city, village,...","adminCodes1":{"ISO3166_2":"MA"},"countryName":"United States","fcodeName":"populated place","adminName1":"Massachusetts","lat":"42.51175","fcode":"PPL"},{"adminCode1":"VT","lng":"-72.38648","geonameId":5243069,"toponymName":"Windsor Village Historic District","countryId":"6252001","fcl":"L","population":0,"countryCode":"US","name":"Windsor Village Historic District","fclName":"parks,area, ...","adminCodes1":{"ISO3166_2":"VT"},"countryName":"United States","fcodeName":"park","adminName1":"Vermont","lat":"43.47979","fcode":"PRK"},{"adminCode1":"MD","lng":"-77.10804","geonameId":4363692,"toponymName":"New Windsor","countryId":"6252001","fcl":"P","population":1400,"countryCode":"US","name":"New Windsor","fclName":"city, village,...","adminCodes1":{"ISO3166_2":"MD"},"countryName":"United States","fcodeName":"populated place","adminName1":"Maryland","lat":"39.54205","fcode":"PPL"},{"adminCode1":"PA","lng":"-76.58441","geonameId":4562311,"toponymName":"Windsor","countryId":"6252001","fcl":"P","population":1480,"countryCode":"US","name":"Windsor","fclName":"city, village,...","adminCodes1":{"ISO3166_2":"PA"},"countryName":"United States","fcodeName":"populated place","adminName1":"Pennsylvania","lat":"39.91621","fcode":"PPL"},{"adminCode1":"VA","lng":"-76.74412","geonameId":4794164,"toponymName":"Windsor","countryId":"6252001","fcl":"P","population":2671,"countryCode":"US","name":"Windsor","fclName":"city, village,...","adminCodes1":{"ISO3166_2":"VA"},"countryName":"United States","fcodeName":"populated place","adminName1":"Virginia","lat":"36.80848","fcode":"PPL"},{"adminCode1":"VT","lng":"-72.45454","geonameId":5233307,"toponymName":"Ascutney South","countryId":"6252001","fcl":"T","population":0,"countryCode":"US","name":"Ascutney South","fclName":"mountain,hill,rock,... ","adminCodes1":{"ISO3166_2":"VT"},"countryName":"United States","fcodeName":"mountain","adminName1":"Vermont","lat":"43.44396","fcode":"MT"},{"adminCode1":"IA","lng":"-93.70828","geonameId":4882198,"toponymName":"Windsor Heights","countryId":"6252001","fcl":"P","population":4889,"countryCode":"US","name":"Windsor Heights","fclName":"city, village,...","adminCodes1":{"ISO3166_2":"IA"},"countryName":"United States","fcodeName":"populated place","adminName1":"Iowa","lat":"41.59777","fcode":"PPL"},{"adminCode1":"WI","lng":"-89.34151","geonameId":5279311,"toponymName":"Windsor","countryId":"6252001","fcl":"P","population":3573,"countryCode":"US","name":"Windsor","fclName":"city, village,...","adminCodes1":{"ISO3166_2":"WI"},"countryName":"United States","fcodeName":"populated place","adminName1":"Wisconsin","lat":"43.21833","fcode":"PPL"},{"adminCode1":"VT","lng":"-72.69693","geonameId":7160223,"toponymName":"Village of Ludlow","countryId":"6252001","fcl":"A","population":811,"countryCode":"US","name":"Village of Ludlow","fclName":"country, state, region,...","adminCodes1":{"ISO3166_2":"VT"},"countryName":"United States","fcodeName":"administrative division","adminName1":"Vermont","lat":"43.39724","fcode":"ADMD"},{"adminCode1":"VT","lng":"-72.5158","geonameId":7160228,"toponymName":"Village of Perkinsville","countryId":"6252001","fcl":"A","population":130,"countryCode":"US","name":"Village of Perkinsville","fclName":"country, state, region,...","adminCodes1":{"ISO3166_2":"VT"},"countryName":"United States","fcodeName":"administrative division","adminName1":"Vermont","lat":"43.37106","fcode":"ADMD"},{"adminCode1":"VT","lng":"-72.5168","geonameId":7316490,"toponymName":"Village of Woodstock","countryId":"6252001","fcl":"A","population":900,"countryCode":"US","name":"Village of Woodstock","fclName":"country, state, region,...","adminCodes1":{"ISO3166_2":"VT"},"countryName":"United States","fcodeName":"administrative division","adminName1":"Vermont","lat":"43.62566","fcode":"ADMD"},{"adminCode1":"VT","lng":"-72.50592","geonameId":5233255,"toponymName":"Amsden","countryId":"6252001","fcl":"P","population":0,"countryCode":"US","name":"Amsden","fclName":"city, village,...","adminCodes1":{"ISO3166_2":"VT"},"countryName":"United States","fcodeName":"populated place","adminName1":"Vermont","lat":"43.40591","fcode":"PPL"},{"adminCode1":"VT","lng":"-72.72261","geonameId":5233263,"toponymName":"Town of Andover","countryId":"6252001","fcl":"A","population":479,"countryCode":"US","name":"Town of Andover","fclName":"country, state, region,...","adminCodes1":{"ISO3166_2":"VT"},"countryName":"United States","fcodeName":"third-order administrative division","adminName1":"Vermont","lat":"43.28641","fcode":"ADM3"},{"adminCode1":"VT","lng":"-72.61785","geonameId":5233269,"toponymName":"Ansel Pond","countryId":"6252001","fcl":"H","population":0,"countryCode":"US","name":"Ansel Pond","fclName":"stream, lake, ...","adminCodes1":{"ISO3166_2":"VT"},"countryName":"United States","fcodeName":"lake","adminName1":"Vermont","lat":"43.83685","fcode":"LK"},{"adminCode1":"VT","lng":"-72.43926","geonameId":5233308,"toponymName":"Ascutney State Park","countryId":"6252001","fcl":"L","population":0,"countryCode":"US","name":"Ascutney State Park","fclName":"parks,area, ...","adminCodes1":{"ISO3166_2":"VT"},"countryName":"United States","fcodeName":"park","adminName1":"Vermont","lat":"43.44202","fcode":"PRK"},{"adminCode1":"VT","lng":"-72.56982","geonameId":5233368,"toponymName":"Bailey Mills","countryId":"6252001","fcl":"P","population":0,"countryCode":"US","name":"Bailey Mills","fclName":"city, village,...","adminCodes1":{"ISO3166_2":"VT"},"countryName":"United States","fcodeName":"populated place","adminName1":"Vermont","lat":"43.50535","fcode":"PPL"},{"adminCode1":"VT","lng":"-72.56594","geonameId":5233439,"toponymName":"Town of Baltimore","countryId":"6252001","fcl":"A","population":256,"countryCode":"US","name":"Town of Baltimore","fclName":"country, state, region,...","adminCodes1":{"ISO3166_2":"VT"},"countryName":"United States","fcodeName":"third-order administrative division","adminName1":"Vermont","lat":"43.35963","fcode":"ADM3"},{"adminCode1":"VT","lng":"-72.62445","geonameId":5233476,"toponymName":"Town of Barnard","countryId":"6252001","fcl":"A","population":924,"countryCode":"US","name":"Town of Barnard","fclName":"country, state, region,...","adminCodes1":{"ISO3166_2":"VT"},"countryName":"United States","fcodeName":"third-order administrative division","adminName1":"Vermont","lat":"43.72949","fcode":"ADM3"},{"adminCode1":"VT","lng":"-72.4639","geonameId":5233676,"toponymName":"Beaver Pond","countryId":"6252001","fcl":"H","population":0,"countryCode":"US","name":"Beaver Pond","fclName":"stream, lake, ...","adminCodes1":{"ISO3166_2":"VT"},"countryName":"United States","fcodeName":"lake","adminName1":"Vermont","lat":"43.5736","fcode":"LK"},{"adminCode1":"VT","lng":"-72.63427","geonameId":5233800,"toponymName":"Bethel Village Historic District","countryId":"6252001","fcl":"L","population":0,"countryCode":"US","name":"Bethel Village Historic District","fclName":"parks,area, ...","adminCodes1":{"ISO3166_2":"VT"},"countryName":"United States","fcodeName":"park","adminName1":"Vermont","lat":"43.83257","fcode":"PRK"},{"adminCode1":"VT","lng":"-72.67289","geonameId":5233801,"toponymName":"Town of Bethel","countryId":"6252001","fcl":"A","population":2002,"countryCode":"US","name":"Town of Bethel","fclName":"country, state, region,...","adminCodes1":{"ISO3166_2":"VT"},"countryName":"United States","fcodeName":"third-order administrative division","adminName1":"Vermont","lat":"43.85026","fcode":"ADM3"},{"adminCode1":"VT","lng":"-72.52315","geonameId":5233846,"toponymName":"Billings Park and Trails","countryId":"6252001","fcl":"L","population":0,"countryCode":"US","name":"Billings Park and Trails","fclName":"parks,area, ...","adminCodes1":{"ISO3166_2":"VT"},"countryName":"United States","fcodeName":"park","adminName1":"Vermont","lat":"43.6259","fcode":"PRK"},{"adminCode1":"VT","lng":"-72.84294","geonameId":5238787,"toponymName":"Moses Pond","countryId":"6252001","fcl":"H","population":0,"countryCode":"US","name":"Moses Pond","fclName":"stream, lake, ...","adminCodes1":{"ISO3166_2":"VT"},"countryName":"United States","fcodeName":"lake","adminName1":"Vermont","lat":"43.3342","fcode":"LK"},{"adminCode1":"VT","lng":"-72.76205","geonameId":5238817,"toponymName":"Mount Cushman State Park","countryId":"6252001","fcl":"L","population":0,"countryCode":"US","name":"Mount Cushman State Park","fclName":"parks,area, ...","adminCodes1":{"ISO3166_2":"VT"},"countryName":"United States","fcodeName":"park","adminName1":"Vermont","lat":"43.89173","fcode":"PRK"}]}
