{"totalResultsCount":9,"geonames":[{"adminCode1":"CA","lng":"-114.63468","geonameId":5410123,"toponymName":"Winterhaven","countryId":"6252001","fcl":"P","population":394,"countryCode":"US","name":"Winterhaven","fclName":"city, village,...","adminCodes1":{"ISO3166_2":"CA"},"countryName":"United States","fcodeName":"populated place","adminName1":"California","lat":"32.73949","fcode":"PPL"},{"adminCode1":"CA","lng":"-121.08022","geonameId":5410124,"toponymName":"Winterhaven Village","countryId":"6252001","fcl":"P","population":0,"countryCode":"US","name":"Winterhaven Village","fclName":"city, village,...","adminCodes1":{"ISO3166_2":"CA"},"countryName":"United States","fcodeName":"section of populated place","adminName1":"California","lat":"38.71796","fcode":"PPLX"},{"adminCode1":"AL","lng":"-87.89942","geonameId":7313440,"toponymName":"Winterhaven Court Mobile Home Park","countryId":"6252001","fcl":"P","population":0,"countryCode":"US","name":"Winterhaven Court Mobile Home Park","fclName":"city, village,...","adminCodes1":{"ISO3166_2":"AL"},"countryName":"United States","fcodeName":"populated place","adminName1":"Alabama","lat":"30.51805","fcode":"PPL"},{"adminCode1":"CA","lng":"-114.63567","geonameId":11379599,"toponymName":"Imperial County Sheriff's Office Winterhaven Station","countryId":"6252001","fcl":"S","population":0,"countryCode":"US","name":"Imperial County Sheriff's Office Winterhaven Station","fclName":"spot, building, farm","adminCodes1":{"ISO3166_2":"CA"},"countryName":"United States","fcodeName":"building(s)","adminName1":"California","lat":"32.739","fcode":"BLDG"},{"adminCode1":"OR","lng":"-122.65083","geonameId":5715917,"toponymName":"Winterhaven School","countryId":"6252001","fcl":"S","population":0,"countryCode":"US","name":"Winterhaven School","fclName":"spot, building, farm","adminCodes1":{"ISO3166_2":"OR"},"countryName":"United States","fcodeName":"school","adminName1":"Oregon","lat":"45.495","fcode":"SCH"},{"adminCode1":"FL","lng":"-80.1298","geonameId":6477426,"toponymName":"Winterhaven Hotel","countryId":"6252001","fcl":"S","population":0,"countryCode":"US","name":"Winterhaven Hotel","fclName":"spot, building, farm","adminCodes1":{"ISO3166_2":"FL"},"countryName":"United States","fcodeName":"hotel","adminName1":"Florida","lat":"25.7852","fcode":"HTL"},{"adminCode1":"CA","lng":"-114.63778","geonameId":8106006,"toponymName":"Winterhaven Fire Protection District","countryId":"6252001","fcl":"S","population":0,"countryCode":"US","name":"Winterhaven Fire Protection District","fclName":"spot, building, farm","adminCodes1":{"ISO3166_2":"CA"},"countryName":"United States","fcodeName":"building(s)","adminName1":"California","lat":"32.73796","fcode":"BLDG"},{"adminCode1":"CA","lng":"-114.6356","geonameId":11386836,"toponymName":"Winterhaven Post Office","countryId":"6252001","fcl":"S","population":0,"countryCode":"US","name":"Winterhaven Post Office","fclName":"spot, building, farm","adminCodes1":{"ISO3166_2":"CA"},"countryName":"United States","fcodeName":"post office","adminName1":"California","lat":"32.7383","fcode":"PO"},{"adminCode1":"CA","lng":"-114.75831","geonameId":11379742,"toponymName":"California Highway Patrol - Winterhaven","countryId":"6252001","fcl":"S","population":0,"countryCode":"US","name":"California Highway Patrol - Winterhaven","fclName":"spot, building, farm","adminCodes1":{"ISO3166_2":"CA"},"countryName":"United States","fcodeName":"building(s)","adminName1":"California","lat":"32.74879","fcode":"BLDG"}]}
